{
  "type": "FeatureCollection",
  "generator": "overpass-turbo",
  "copyright": "The data included in this document is from www.openstreetmap.org. The data is made available under ODbL.",
  "timestamp": "2025-04-22T15:50:00Z",
  "features": [
    {
      "type": "Feature",
      "properties": {
        "@id": "node/26862721",
        "ele": "1414",
        "name": "Ioar",
        "natural": "peak",
        "wikidata": "Q4570652",
        "wikipedia": "es:Yoar"
      },
      "geometry": {
        "type": "Point",
        "coordinates": [
          -2.3488296,
          42.6346838
        ]
      },
      "id": "node/26862721"
    },
    {
      "type": "Feature",
      "properties": {
        "@id": "node/477240481",
        "ele": "550",
        "name": "Mendizabala",
        "natural": "peak",
        "wikidata": "Q12263427"
      },
      "geometry": {
        "type": "Point",
        "coordinates": [
          -2.6834397,
          42.8352414
        ]
      },
      "id": "node/477240481"
    },
    {
      "type": "Feature",
      "properties": {
        "@id": "node/477240548",
        "ele": "552",
        "name": "Mendizorrotza",
        "natural": "peak",
        "wikidata": "Q12263432"
      },
      "geometry": {
        "type": "Point",
        "coordinates": [
          -2.6888001,
          42.8343634
        ]
      },
      "id": "node/477240548"
    },
    {
      "type": "Feature",
      "properties": {
        "@id": "node/477241588",
        "alt_name": "Monte de la Cruz;Kurtzemendi",
        "ele": "710",
        "man_made": "cross",
        "name": "Olarizu",
        "name:es": "Olárizu",
        "name:eu": "Olarizu",
        "natural": "peak",
        "summit:cross": "yes",
        "summit:register": "yes"
      },
      "geometry": {
        "type": "Point",
        "coordinates": [
          -2.6627571,
          42.8168968
        ]
      },
      "id": "node/477241588"
    },
    {
      "type": "Feature",
      "properties": {
        "@id": "node/486526548",
        "ele": "978",
        "name": "Zaldiaran",
        "natural": "peak",
        "summit:cross": "yes",
        "wikidata": "Q12014411"
      },
      "geometry": {
        "type": "Point",
        "coordinates": [
          -2.7365965,
          42.794753
        ]
      },
      "id": "node/486526548"
    },
    {
      "type": "Feature",
      "properties": {
        "@id": "node/486528989",
        "ele": "768",
        "name": "La Picota",
        "natural": "peak"
      },
      "geometry": {
        "type": "Point",
        "coordinates": [
          -2.7303842,
          42.8196731
        ]
      },
      "id": "node/486528989"
    },
    {
      "type": "Feature",
      "properties": {
        "@id": "node/508445799",
        "ele": "1031",
        "name": "Oketa",
        "natural": "peak",
        "wikidata": "Q12265055"
      },
      "geometry": {
        "type": "Point",
        "coordinates": [
          -2.7242423,
          43.0096375
        ]
      },
      "id": "node/508445799"
    },
    {
      "type": "Feature",
      "properties": {
        "@id": "node/508455040",
        "ele": "1226",
        "name": "Berretín",
        "natural": "peak",
        "wikidata": "Q20492153"
      },
      "geometry": {
        "type": "Point",
        "coordinates": [
          -2.7966444,
          43.0072792
        ]
      },
      "id": "node/508455040"
    },
    {
      "type": "Feature",
      "properties": {
        "@id": "node/508457044",
        "ele": "895",
        "name": "San Vítores",
        "natural": "peak",
        "wikidata": "Q112784696",
        "wikipedia": "eu:San Vitores"
      },
      "geometry": {
        "type": "Point",
        "coordinates": [
          -2.8681513,
          42.8070944
        ]
      },
      "id": "node/508457044"
    },
    {
      "type": "Feature",
      "properties": {
        "@id": "node/509246907",
        "ele": "834",
        "name": "Tellamendi",
        "natural": "peak",
        "wikidata": "Q3055491"
      },
      "geometry": {
        "type": "Point",
        "coordinates": [
          -2.5605093,
          43.0670844
        ]
      },
      "id": "node/509246907"
    },
    {
      "type": "Feature",
      "properties": {
        "@id": "node/509251759",
        "ele": "811",
        "name": "Durakogain",
        "natural": "peak",
        "wikidata": "Q112782648",
        "wikipedia": "eu:Durako gain"
      },
      "geometry": {
        "type": "Point",
        "coordinates": [
          -2.5735702,
          43.0266657
        ]
      },
      "id": "node/509251759"
    },
    {
      "type": "Feature",
      "properties": {
        "@id": "node/509258316",
        "ele": "896",
        "name": "Jarindo",
        "natural": "peak",
        "summit:register": "yes",
        "wikidata": "Q12260193"
      },
      "geometry": {
        "type": "Point",
        "coordinates": [
          -2.6054098,
          42.997934
        ]
      },
      "id": "node/509258316"
    },
    {
      "type": "Feature",
      "properties": {
        "@id": "node/509263113",
        "access": "no",
        "ele": "642",
        "name": "Araka",
        "natural": "peak",
        "source": "DFA-AFA"
      },
      "geometry": {
        "type": "Point",
        "coordinates": [
          -2.6778405,
          42.8996825
        ]
      },
      "id": "node/509263113"
    },
    {
      "type": "Feature",
      "properties": {
        "@id": "node/509282810",
        "alt_name": "Araz;Araiz;Peña Araz;Monte Araiz;Peña Horadada;Peña de San Adrián",
        "ele": "1432",
        "name": "Aratz",
        "natural": "peak",
        "summit:cross": "no",
        "summit:register": "yes"
      },
      "geometry": {
        "type": "Point",
        "coordinates": [
          -2.3049556,
          42.9209604
        ]
      },
      "id": "node/509282810"
    },
    {
      "type": "Feature",
      "properties": {
        "@id": "node/510105891",
        "ele": "698",
        "name": "Cruz de Urbina",
        "natural": "peak"
      },
      "geometry": {
        "type": "Point",
        "coordinates": [
          -2.6192032,
          42.9448557
        ]
      },
      "id": "node/510105891"
    },
    {
      "type": "Feature",
      "properties": {
        "@id": "node/510124586",
        "alt_name": "Ballo; Bayo; Bagaio; Baaio; San Román",
        "ele": "1197",
        "name": "Baio",
        "natural": "peak",
        "wikidata": "Q12254730"
      },
      "geometry": {
        "type": "Point",
        "coordinates": [
          -2.3065987,
          42.8425954
        ]
      },
      "id": "node/510124586"
    },
    {
      "type": "Feature",
      "properties": {
        "@id": "node/510135034",
        "alt_name": "Abitidarra; Abitirarra; Abitirraragaña; Abitirraragaiña; Abitigana; Abetigarra; Bitigarra, Bitigarras",
        "ele": "1165",
        "name": "Bitigarra",
        "natural": "peak",
        "wikidata": "Q12252750"
      },
      "geometry": {
        "type": "Point",
        "coordinates": [
          -2.3704998,
          42.7588028
        ]
      },
      "id": "node/510135034"
    },
    {
      "type": "Feature",
      "properties": {
        "@id": "node/510143636",
        "ele": "1038",
        "name": "Oteros",
        "natural": "peak",
        "wikidata": "Q12265360"
      },
      "geometry": {
        "type": "Point",
        "coordinates": [
          -2.8606636,
          42.846079
        ]
      },
      "id": "node/510143636"
    },
    {
      "type": "Feature",
      "properties": {
        "@id": "node/510145771",
        "ele": "898",
        "name": "Ganalto",
        "natural": "peak",
        "summit:cross": "yes",
        "wikidata": "Q12258152"
      },
      "geometry": {
        "type": "Point",
        "coordinates": [
          -2.8410898,
          42.9134715
        ]
      },
      "id": "node/510145771"
    },
    {
      "type": "Feature",
      "properties": {
        "@id": "node/511135960",
        "ele": "1482",
        "name": "Gorbeia",
        "natural": "peak",
        "source": "Wikineos",
        "summit:cross": "yes",
        "wikidata": "Q557374",
        "wikimedia_commons": "File:Cruz_de_gorbea.jpg",
        "wikipedia": "es:Monte Gorbea"
      },
      "geometry": {
        "type": "Point",
        "coordinates": [
          -2.7811812,
          43.0339161
        ]
      },
      "id": "node/511135960"
    },
    {
      "type": "Feature",
      "properties": {
        "@id": "node/513780509",
        "alt_name": "Peña del Castillo",
        "ele": "1431",
        "name": "Cruz del Castillo",
        "natural": "peak",
        "summit:cross": "yes",
        "summit:register": "yes",
        "wikidata": "Q12255995"
      },
      "geometry": {
        "type": "Point",
        "coordinates": [
          -2.5895102,
          42.5995502
        ]
      },
      "id": "node/513780509"
    },
    {
      "type": "Feature",
      "properties": {
        "@id": "node/513792337",
        "ele": "1380",
        "name": "Recilla",
        "natural": "peak",
        "wikidata": "Q12266492"
      },
      "geometry": {
        "type": "Point",
        "coordinates": [
          -2.6206328,
          42.6058221
        ]
      },
      "id": "node/513792337"
    },
    {
      "type": "Feature",
      "properties": {
        "@id": "node/513792346",
        "ele": "1384",
        "name": "Cervera",
        "natural": "peak",
        "wikidata": "Q12255737"
      },
      "geometry": {
        "type": "Point",
        "coordinates": [
          -2.6309513,
          42.6038653
        ]
      },
      "id": "node/513792346"
    },
    {
      "type": "Feature",
      "properties": {
        "@id": "node/513792348",
        "ele": "1224",
        "name": "San León",
        "natural": "peak",
        "wikidata": "Q12266887"
      },
      "geometry": {
        "type": "Point",
        "coordinates": [
          -2.6857153,
          42.5949762
        ]
      },
      "id": "node/513792348"
    },
    {
      "type": "Feature",
      "properties": {
        "@id": "node/513800301",
        "comment": "Se suele confundir con la cumbre de Toloño (véase http://www.mendikat.net)",
        "ele": "1263",
        "name": "Peña Las Doce",
        "natural": "peak"
      },
      "geometry": {
        "type": "Point",
        "coordinates": [
          -2.7744237,
          42.6247488
        ]
      },
      "id": "node/513800301"
    },
    {
      "type": "Feature",
      "properties": {
        "@id": "node/513818213",
        "ele": "1243",
        "name": "Peñalta",
        "natural": "peak"
      },
      "geometry": {
        "type": "Point",
        "coordinates": [
          -2.4915822,
          42.6142991
        ]
      },
      "id": "node/513818213"
    },
    {
      "type": "Feature",
      "properties": {
        "@id": "node/576491353",
        "ele": "555",
        "name": "Besaide",
        "natural": "peak",
        "wikidata": "Q964280"
      },
      "geometry": {
        "type": "Point",
        "coordinates": [
          -2.5463876,
          43.0880085
        ]
      },
      "id": "node/576491353"
    },
    {
      "type": "Feature",
      "properties": {
        "@id": "node/609387330",
        "ele": "815",
        "name": "Eskibel",
        "natural": "peak",
        "wikidata": "Q12257202"
      },
      "geometry": {
        "type": "Point",
        "coordinates": [
          -2.7291695,
          42.81577
        ]
      },
      "id": "node/609387330"
    },
    {
      "type": "Feature",
      "properties": {
        "@id": "node/610543795",
        "alt_name": "Peña Mayor",
        "ele": "942",
        "name": "San Miguel",
        "natural": "peak"
      },
      "geometry": {
        "type": "Point",
        "coordinates": [
          -2.7733121,
          42.7942166
        ]
      },
      "id": "node/610543795"
    },
    {
      "type": "Feature",
      "properties": {
        "@id": "node/611122478",
        "alt_name": "San Cristóbal",
        "ele": "1046",
        "name": "Zalbizkar / San Cristóbal",
        "natural": "peak"
      },
      "geometry": {
        "type": "Point",
        "coordinates": [
          -2.6029509,
          42.768756
        ]
      },
      "id": "node/611122478"
    },
    {
      "type": "Feature",
      "properties": {
        "@id": "node/611155413",
        "ele": "1063",
        "name": "Itxogana",
        "natural": "peak",
        "wikidata": "Q12259919"
      },
      "geometry": {
        "type": "Point",
        "coordinates": [
          -2.4932126,
          42.79707
        ]
      },
      "id": "node/611155413"
    },
    {
      "type": "Feature",
      "properties": {
        "@id": "node/615562634",
        "ele": "802",
        "name": "Kurutzmendi",
        "name:es": "Alto de la Cruz",
        "natural": "peak"
      },
      "geometry": {
        "type": "Point",
        "coordinates": [
          -2.6682608,
          42.7990044
        ]
      },
      "id": "node/615562634"
    },
    {
      "type": "Feature",
      "properties": {
        "@id": "node/615567587",
        "ele": "852",
        "name": "Lendiz",
        "natural": "peak",
        "wikidata": "Q12262168"
      },
      "geometry": {
        "type": "Point",
        "coordinates": [
          -2.6706583,
          42.7906057
        ]
      },
      "id": "node/615567587"
    },
    {
      "type": "Feature",
      "properties": {
        "@id": "node/615835356",
        "alt_name": "Zalmendi",
        "ele": "1006",
        "name": "Zarmendi",
        "natural": "peak"
      },
      "geometry": {
        "type": "Point",
        "coordinates": [
          -2.5971359,
          42.7655895
        ]
      },
      "id": "node/615835356"
    },
    {
      "type": "Feature",
      "properties": {
        "@id": "node/615907465",
        "ele": "838",
        "name": "Saimendi",
        "natural": "peak"
      },
      "geometry": {
        "type": "Point",
        "coordinates": [
          -2.6139373,
          42.7892063
        ]
      },
      "id": "node/615907465"
    },
    {
      "type": "Feature",
      "properties": {
        "@id": "node/620888851",
        "ele": "997",
        "name": "Pico de Izartza",
        "name:eu": "Izartza",
        "natural": "peak"
      },
      "geometry": {
        "type": "Point",
        "coordinates": [
          -2.5535973,
          42.7827575
        ]
      },
      "id": "node/620888851"
    },
    {
      "type": "Feature",
      "properties": {
        "@id": "node/660476900",
        "alt_name": "Elgeamendi;Elgueamendi;Elguiamendi;Urkitza",
        "ele": "944",
        "name": "Albiturri / Elgeamendi",
        "natural": "peak",
        "summit:register": "yes",
        "wikidata": "Q12256707"
      },
      "geometry": {
        "type": "Point",
        "coordinates": [
          -2.5383551,
          42.9500623
        ]
      },
      "id": "node/660476900"
    },
    {
      "type": "Feature",
      "properties": {
        "@id": "node/661067419",
        "alt_name": "Amáritu; Peña Bolategui",
        "ele": "787",
        "name": "Amaritu",
        "natural": "peak",
        "wikidata": "Q112779647",
        "wikipedia": "eu:Amaritu"
      },
      "geometry": {
        "type": "Point",
        "coordinates": [
          -2.7605232,
          42.9167243
        ]
      },
      "id": "node/661067419"
    },
    {
      "type": "Feature",
      "properties": {
        "@id": "node/661070073",
        "alt_name": "Armiquelo; Mojón de Arrato; Amarikelo",
        "ele": "888",
        "name": "Armikelo",
        "natural": "peak",
        "wikidata": "Q112780409",
        "wikipedia": "eu:Armikelo"
      },
      "geometry": {
        "type": "Point",
        "coordinates": [
          -2.7879269,
          42.9224529
        ]
      },
      "id": "node/661070073"
    },
    {
      "type": "Feature",
      "properties": {
        "@id": "node/661294946",
        "alt_name": "Olazar Oriental",
        "ele": "883",
        "man_made": "survey_point",
        "name": "Olazar",
        "name:eu": "Ekialdeko Olazar",
        "natural": "peak",
        "wikidata": "Q12265104"
      },
      "geometry": {
        "type": "Point",
        "coordinates": [
          -2.8024319,
          42.9108318
        ]
      },
      "id": "node/661294946"
    },
    {
      "type": "Feature",
      "properties": {
        "@id": "node/665418316",
        "alt_name": "Alto del Silo",
        "ele": "1012",
        "name": "Peña del Silo",
        "natural": "peak"
      },
      "geometry": {
        "type": "Point",
        "coordinates": [
          -2.5760982,
          42.7672157
        ]
      },
      "id": "node/665418316"
    },
    {
      "type": "Feature",
      "properties": {
        "@id": "node/665421864",
        "ele": "1028",
        "name": "San Justi",
        "natural": "peak",
        "wikidata": "Q12266883"
      },
      "geometry": {
        "type": "Point",
        "coordinates": [
          -2.5234312,
          42.7226933
        ]
      },
      "id": "node/665421864"
    },
    {
      "type": "Feature",
      "properties": {
        "@id": "node/665423410",
        "ele": "1058",
        "name": "San Cristóbal",
        "natural": "peak",
        "wikidata": "Q66429666"
      },
      "geometry": {
        "type": "Point",
        "coordinates": [
          -2.4935753,
          42.7333316
        ]
      },
      "id": "node/665423410"
    },
    {
      "type": "Feature",
      "properties": {
        "@id": "node/665426815",
        "ele": "1149",
        "name": "Arrigorrista",
        "natural": "peak"
      },
      "geometry": {
        "type": "Point",
        "coordinates": [
          -2.344381,
          42.8096508
        ]
      },
      "id": "node/665426815"
    },
    {
      "type": "Feature",
      "properties": {
        "@id": "node/665430798",
        "ele": "1088",
        "name": "Marabileta",
        "natural": "peak"
      },
      "geometry": {
        "type": "Point",
        "coordinates": [
          -2.4299774,
          42.7973655
        ]
      },
      "id": "node/665430798"
    },
    {
      "type": "Feature",
      "properties": {
        "@id": "node/665431276",
        "ele": "1101",
        "name": "Indiagana",
        "natural": "peak",
        "wikidata": "Q12259589"
      },
      "geometry": {
        "type": "Point",
        "coordinates": [
          -2.4831052,
          42.7864815
        ]
      },
      "id": "node/665431276"
    },
    {
      "type": "Feature",
      "properties": {
        "@id": "node/666056035",
        "ele": "1013",
        "name": "Pititurri",
        "natural": "peak"
      },
      "geometry": {
        "type": "Point",
        "coordinates": [
          -2.8714923,
          42.8656572
        ]
      },
      "id": "node/666056035"
    },
    {
      "type": "Feature",
      "properties": {
        "@id": "node/666064458",
        "ele": "865",
        "name": "Pikatxo",
        "natural": "peak",
        "wikidata": "Q12265973"
      },
      "geometry": {
        "type": "Point",
        "coordinates": [
          -2.8806981,
          42.8889019
        ]
      },
      "id": "node/666064458"
    },
    {
      "type": "Feature",
      "properties": {
        "@id": "node/669727614",
        "ele": "1121",
        "name": "Perriain / Cruz de Alda",
        "natural": "peak",
        "summit:cross": "yes"
      },
      "geometry": {
        "type": "Point",
        "coordinates": [
          -2.3279896,
          42.7371335
        ]
      },
      "id": "node/669727614"
    },
    {
      "type": "Feature",
      "properties": {
        "@id": "node/675926656",
        "ele": "620",
        "name": "Jundiz Oriental",
        "natural": "peak"
      },
      "geometry": {
        "type": "Point",
        "coordinates": [
          -2.7618196,
          42.8340399
        ]
      },
      "id": "node/675926656"
    },
    {
      "type": "Feature",
      "properties": {
        "@id": "node/676119068",
        "ele": "806",
        "name": "Tuyo",
        "natural": "peak"
      },
      "geometry": {
        "type": "Point",
        "coordinates": [
          -2.8370873,
          42.7964142
        ]
      },
      "id": "node/676119068"
    },
    {
      "type": "Feature",
      "properties": {
        "@id": "node/676934845",
        "ele": "594",
        "name": "Urizar",
        "natural": "peak"
      },
      "geometry": {
        "type": "Point",
        "coordinates": [
          -2.5586509,
          42.8958848
        ]
      },
      "id": "node/676934845"
    },
    {
      "type": "Feature",
      "properties": {
        "@id": "node/678890733",
        "ele": "725",
        "name": "Gebara",
        "natural": "peak"
      },
      "geometry": {
        "type": "Point",
        "coordinates": [
          -2.502425,
          42.8990362
        ]
      },
      "id": "node/678890733"
    },
    {
      "type": "Feature",
      "properties": {
        "@id": "node/678891361",
        "alt_name": "Aldaya",
        "ele": "789",
        "name": "Aldaia",
        "natural": "peak",
        "wikidata": "Q115498969"
      },
      "geometry": {
        "type": "Point",
        "coordinates": [
          -2.4765693,
          42.9071995
        ]
      },
      "id": "node/678891361"
    },
    {
      "type": "Feature",
      "properties": {
        "@id": "node/678891495",
        "ele": "733",
        "name": "Cruz de Larrea",
        "natural": "peak"
      },
      "geometry": {
        "type": "Point",
        "coordinates": [
          -2.4634956,
          42.9054665
        ]
      },
      "id": "node/678891495"
    },
    {
      "type": "Feature",
      "properties": {
        "@id": "node/679406830",
        "ele": "1039",
        "name": "Galartza",
        "natural": "peak"
      },
      "geometry": {
        "type": "Point",
        "coordinates": [
          -2.5427267,
          42.7851813
        ]
      },
      "id": "node/679406830"
    },
    {
      "type": "Feature",
      "properties": {
        "@id": "node/679933759",
        "ele": "1012",
        "name": "Cota Oriental",
        "natural": "peak"
      },
      "geometry": {
        "type": "Point",
        "coordinates": [
          -2.8540332,
          42.8441321
        ]
      },
      "id": "node/679933759"
    },
    {
      "type": "Feature",
      "properties": {
        "@id": "node/683302005",
        "alt_name": "Almurriain; Alburrey; Auburrey; Amurain; Laurea; La Laurea",
        "ele": "881",
        "name": "Almurrain",
        "natural": "peak",
        "wikidata": "Q12253211"
      },
      "geometry": {
        "type": "Point",
        "coordinates": [
          -2.5625732,
          42.7991248
        ]
      },
      "id": "node/683302005"
    },
    {
      "type": "Feature",
      "properties": {
        "@id": "node/683366129",
        "ele": "843",
        "name": "Mendigurena",
        "natural": "peak"
      },
      "geometry": {
        "type": "Point",
        "coordinates": [
          -2.5889593,
          42.7966765
        ]
      },
      "id": "node/683366129"
    },
    {
      "type": "Feature",
      "properties": {
        "@id": "node/685481917",
        "ele": "794",
        "name": "Azkorrieta",
        "natural": "peak"
      },
      "geometry": {
        "type": "Point",
        "coordinates": [
          -2.7714518,
          42.9335486
        ]
      },
      "id": "node/685481917"
    },
    {
      "type": "Feature",
      "properties": {
        "@id": "node/685493562",
        "alt_name": "San Víctor; San Vítor; San Bitor; Arratobe",
        "ele": "772",
        "name": "Arratobe/San Bitor",
        "name:es": "San Víctor",
        "natural": "peak"
      },
      "geometry": {
        "type": "Point",
        "coordinates": [
          -2.7640907,
          42.9367815
        ]
      },
      "id": "node/685493562"
    },
    {
      "type": "Feature",
      "properties": {
        "@id": "node/687028318",
        "ele": "854",
        "name": "Askartzakoa",
        "name:es": "Ascarzacoba",
        "name:eu": "Askartzakoa",
        "natural": "peak"
      },
      "geometry": {
        "type": "Point",
        "coordinates": [
          -2.6245968,
          42.7829627
        ]
      },
      "id": "node/687028318"
    },
    {
      "type": "Feature",
      "properties": {
        "@id": "node/691924141",
        "name": "Malateko",
        "natural": "peak"
      },
      "geometry": {
        "type": "Point",
        "coordinates": [
          -2.6079156,
          42.7770291
        ]
      },
      "id": "node/691924141"
    },
    {
      "type": "Feature",
      "properties": {
        "@id": "node/699825432",
        "ele": "842",
        "name": "Arriskarro",
        "name:eu": "Arriskarro",
        "natural": "peak"
      },
      "geometry": {
        "type": "Point",
        "coordinates": [
          -2.6778737,
          42.7895228
        ]
      },
      "id": "node/699825432"
    },
    {
      "type": "Feature",
      "properties": {
        "@id": "node/741334340",
        "ele": "620",
        "name": "Jundiz Occidental",
        "name:eu": "Inglesmendi",
        "natural": "peak",
        "summit:cross": "yes",
        "wikidata": "Q117323729",
        "wikipedia": "eu:Inglesmendi"
      },
      "geometry": {
        "type": "Point",
        "coordinates": [
          -2.7669698,
          42.8330485
        ]
      },
      "id": "node/741334340"
    },
    {
      "type": "Feature",
      "properties": {
        "@id": "node/746566872",
        "ele": "1430",
        "name": "Elurzuloak",
        "natural": "peak",
        "summit:cross": "yes",
        "summit:register": "yes"
      },
      "geometry": {
        "type": "Point",
        "coordinates": [
          -2.3067876,
          42.9230545
        ]
      },
      "id": "node/746566872"
    },
    {
      "type": "Feature",
      "properties": {
        "@id": "node/762750373",
        "alt_name": "San Kiliz",
        "ele": "846",
        "name": "Errogana",
        "natural": "peak"
      },
      "geometry": {
        "type": "Point",
        "coordinates": [
          -2.7211861,
          42.8025694
        ]
      },
      "id": "node/762750373"
    },
    {
      "type": "Feature",
      "properties": {
        "@id": "node/771488431",
        "ele": "1060",
        "name": "Gonga",
        "natural": "peak"
      },
      "geometry": {
        "type": "Point",
        "coordinates": [
          -2.7601328,
          43.0043221
        ]
      },
      "id": "node/771488431"
    },
    {
      "type": "Feature",
      "properties": {
        "@id": "node/771494988",
        "ele": "1306",
        "name": "Pagazuri",
        "natural": "peak",
        "wikidata": "Q56903221"
      },
      "geometry": {
        "type": "Point",
        "coordinates": [
          -2.7764426,
          43.0197338
        ]
      },
      "id": "node/771494988"
    },
    {
      "type": "Feature",
      "properties": {
        "@id": "node/771521961",
        "alt_name": "Aratza",
        "ele": "1139",
        "name": "Araza",
        "natural": "peak",
        "wikidata": "Q56941989"
      },
      "geometry": {
        "type": "Point",
        "coordinates": [
          -2.7764103,
          43.0034547
        ]
      },
      "id": "node/771521961"
    },
    {
      "type": "Feature",
      "properties": {
        "@id": "node/776473894",
        "alt_name": "Dedo de San Tirso",
        "ele": "1277",
        "name": "Bonete de San Tirso",
        "natural": "peak"
      },
      "geometry": {
        "type": "Point",
        "coordinates": [
          -2.5366026,
          42.6121365
        ]
      },
      "id": "node/776473894"
    },
    {
      "type": "Feature",
      "properties": {
        "@id": "node/776484249",
        "ele": "1333",
        "name": "San Tirso",
        "natural": "peak",
        "wikidata": "Q12266946"
      },
      "geometry": {
        "type": "Point",
        "coordinates": [
          -2.541455,
          42.6116384
        ]
      },
      "id": "node/776484249"
    },
    {
      "type": "Feature",
      "properties": {
        "@id": "node/793209176",
        "alt_name": "Allarte",
        "comment": "Allarte es en realidad el nombre del collado Allarte = All(aitz)arte",
        "ele": "1245",
        "name": "Allaitz",
        "natural": "peak",
        "wikidata": "Q12253200"
      },
      "geometry": {
        "type": "Point",
        "coordinates": [
          -2.29689,
          42.9101819
        ]
      },
      "id": "node/793209176"
    },
    {
      "type": "Feature",
      "properties": {
        "@id": "node/861317298",
        "ele": "1271",
        "name": "Toloño",
        "natural": "peak",
        "summit:cross": "yes",
        "wikidata": "Q9077151"
      },
      "geometry": {
        "type": "Point",
        "coordinates": [
          -2.7640332,
          42.6228922
        ]
      },
      "id": "node/861317298"
    },
    {
      "type": "Feature",
      "properties": {
        "@id": "node/948465791",
        "ele": "1084.30",
        "name": "Cotorrillo",
        "natural": "peak",
        "wikidata": "Q115502291"
      },
      "geometry": {
        "type": "Point",
        "coordinates": [
          -2.9345824,
          42.8594769
        ]
      },
      "id": "node/948465791"
    },
    {
      "type": "Feature",
      "properties": {
        "@id": "node/948465993",
        "alt_name": "Dubalza",
        "ele": "691.20",
        "name": "Odoibaltza",
        "natural": "peak",
        "old_name": "Alto de Mastondo"
      },
      "geometry": {
        "type": "Point",
        "coordinates": [
          -3.0791369,
          43.1403545
        ]
      },
      "id": "node/948465993"
    },
    {
      "type": "Feature",
      "properties": {
        "@id": "node/948466153",
        "ele": "866.40",
        "name": "La Llana",
        "natural": "peak",
        "wikidata": "Q115504626"
      },
      "geometry": {
        "type": "Point",
        "coordinates": [
          -2.7899177,
          42.9728412
        ]
      },
      "id": "node/948466153"
    },
    {
      "type": "Feature",
      "properties": {
        "@id": "node/948466340",
        "ele": "1199.50",
        "name": "Batxikabo",
        "name:es": "Pico Bachicabo",
        "name:eu": "Batxikabo",
        "natural": "peak",
        "wikidata": "Q2878314"
      },
      "geometry": {
        "type": "Point",
        "coordinates": [
          -3.0889396,
          42.7951023
        ]
      },
      "id": "node/948466340"
    },
    {
      "type": "Feature",
      "properties": {
        "@id": "node/948466412",
        "alt_name": "Recuenco",
        "ele": "1238.70",
        "name": "Recuenco (Lerón)",
        "natural": "peak",
        "wikidata": "Q112784566",
        "wikipedia": "eu:Recuenco"
      },
      "geometry": {
        "type": "Point",
        "coordinates": [
          -3.2463155,
          42.9063699
        ]
      },
      "id": "node/948466412"
    },
    {
      "type": "Feature",
      "properties": {
        "@id": "node/948466629",
        "alt_name": "Montenegro",
        "ele": "691.40",
        "name": "Montenegro / Peñas Blancas / Tablas",
        "natural": "peak",
        "wikidata": "Q98930925"
      },
      "geometry": {
        "type": "Point",
        "coordinates": [
          -3.1570098,
          43.1300895
        ]
      },
      "id": "node/948466629"
    },
    {
      "type": "Feature",
      "properties": {
        "@id": "node/948466820",
        "ele": "1188.5",
        "name": "Repico",
        "natural": "peak",
        "wikidata": "Q55412255"
      },
      "geometry": {
        "type": "Point",
        "coordinates": [
          -3.0215027,
          42.8901776
        ]
      },
      "id": "node/948466820"
    },
    {
      "type": "Feature",
      "properties": {
        "@id": "node/948467233",
        "ele": "902.30",
        "name": "Somo",
        "natural": "peak"
      },
      "geometry": {
        "type": "Point",
        "coordinates": [
          -2.9521619,
          42.7841178
        ]
      },
      "id": "node/948467233"
    },
    {
      "type": "Feature",
      "properties": {
        "@id": "node/948467448",
        "ele": "943.20",
        "name": "San Sebastián",
        "natural": "peak",
        "wikidata": "Q115509479"
      },
      "geometry": {
        "type": "Point",
        "coordinates": [
          -3.1806105,
          42.9438748
        ]
      },
      "id": "node/948467448"
    },
    {
      "type": "Feature",
      "properties": {
        "@id": "node/948467610",
        "ele": "841.20",
        "name": "Alto del Corral",
        "natural": "peak",
        "wikidata": "Q115499117"
      },
      "geometry": {
        "type": "Point",
        "coordinates": [
          -2.9277447,
          42.9586755
        ]
      },
      "id": "node/948467610"
    },
    {
      "type": "Feature",
      "properties": {
        "@id": "node/948467663",
        "ele": "993.70",
        "name": "Hornillo",
        "natural": "peak"
      },
      "geometry": {
        "type": "Point",
        "coordinates": [
          -2.3720731,
          42.6992328
        ]
      },
      "id": "node/948467663"
    },
    {
      "type": "Feature",
      "properties": {
        "@id": "node/948467716",
        "alt_name": "Chinchularra",
        "ele": "844.80",
        "name": "Txintxularra",
        "natural": "peak"
      },
      "geometry": {
        "type": "Point",
        "coordinates": [
          -2.8459871,
          42.9844928
        ]
      },
      "id": "node/948467716"
    },
    {
      "type": "Feature",
      "properties": {
        "@id": "node/948467941",
        "ele": "1185.00",
        "name": "Eskutxi",
        "natural": "peak",
        "wikidata": "Q12257231"
      },
      "geometry": {
        "type": "Point",
        "coordinates": [
          -3.1217196,
          43.0398105
        ]
      },
      "id": "node/948467941"
    },
    {
      "type": "Feature",
      "properties": {
        "@id": "node/1049596503",
        "alt_name": "Mirutegui; Peña de San Román",
        "ele": "1167",
        "name": "Mirutegi",
        "natural": "peak",
        "summit:cross": "yes"
      },
      "geometry": {
        "type": "Point",
        "coordinates": [
          -2.3086181,
          42.846142
        ]
      },
      "id": "node/1049596503"
    },
    {
      "type": "Feature",
      "properties": {
        "@id": "node/1106341605",
        "ele": "1111",
        "name": "Santikurtz",
        "natural": "peak"
      },
      "geometry": {
        "type": "Point",
        "coordinates": [
          -2.601002,
          43.0519764
        ]
      },
      "id": "node/1106341605"
    },
    {
      "type": "Feature",
      "properties": {
        "@id": "node/1106412244",
        "ele": "1055",
        "name": "Ipizte/Hiruatxeta",
        "natural": "peak"
      },
      "geometry": {
        "type": "Point",
        "coordinates": [
          -2.5908592,
          43.076737
        ]
      },
      "id": "node/1106412244"
    },
    {
      "type": "Feature",
      "properties": {
        "@id": "node/1139398516",
        "ele": "886",
        "name": "Miritxa",
        "natural": "peak",
        "summit:register": "yes",
        "wikidata": "Q12263712"
      },
      "geometry": {
        "type": "Point",
        "coordinates": [
          -2.54662,
          42.9479566
        ]
      },
      "id": "node/1139398516"
    },
    {
      "type": "Feature",
      "properties": {
        "@id": "node/1139425469",
        "alt_name": "Urdingain; Arurdin; Aurdin; Ugarana; Hirumugarrieta",
        "ele": "992",
        "name": "Arriurdin",
        "natural": "peak",
        "wikidata": "Q12268635"
      },
      "geometry": {
        "type": "Point",
        "coordinates": [
          -2.5346694,
          42.9718005
        ]
      },
      "id": "node/1139425469"
    },
    {
      "type": "Feature",
      "properties": {
        "@id": "node/1143268065",
        "ele": "947",
        "name": "Txulato",
        "natural": "peak",
        "wikidata": "Q112785080",
        "wikipedia": "eu:Txulato"
      },
      "geometry": {
        "type": "Point",
        "coordinates": [
          -2.8241199,
          42.6667444
        ]
      },
      "id": "node/1143268065"
    },
    {
      "type": "Feature",
      "properties": {
        "@id": "node/1174925625",
        "ele": "867",
        "name": "San Migel Haitza",
        "natural": "peak",
        "wikidata": "Q12266915",
        "wikipedia": "eu:San Migel Haitza"
      },
      "geometry": {
        "type": "Point",
        "coordinates": [
          -2.3157795,
          42.9022217
        ]
      },
      "id": "node/1174925625"
    },
    {
      "type": "Feature",
      "properties": {
        "@id": "node/1203298977",
        "alt_name": "Alto de la Mina",
        "ele": "819",
        "name": "Tellaramendi / Alto de la Mina",
        "natural": "peak"
      },
      "geometry": {
        "type": "Point",
        "coordinates": [
          -2.6636799,
          42.7766317
        ]
      },
      "id": "node/1203298977"
    },
    {
      "type": "Feature",
      "properties": {
        "@id": "node/1228435505",
        "ele": "885",
        "name": "Legarda",
        "natural": "peak",
        "summit:cross": "yes"
      },
      "geometry": {
        "type": "Point",
        "coordinates": [
          -2.4290796,
          42.7803556
        ]
      },
      "id": "node/1228435505"
    },
    {
      "type": "Feature",
      "properties": {
        "@id": "node/1229548428",
        "ele": "797",
        "name": "Kamaraka",
        "natural": "peak",
        "wikidata": "Q12261223"
      },
      "geometry": {
        "type": "Point",
        "coordinates": [
          -2.9607748,
          43.1754296
        ]
      },
      "id": "node/1229548428"
    },
    {
      "type": "Feature",
      "properties": {
        "@id": "node/1241710784",
        "ele": "589",
        "name": "Larraxur",
        "natural": "peak"
      },
      "geometry": {
        "type": "Point",
        "coordinates": [
          -2.5479023,
          42.9254173
        ]
      },
      "id": "node/1241710784"
    },
    {
      "type": "Feature",
      "properties": {
        "@id": "node/1241711608",
        "ele": "522",
        "name": "Alto de Mamukio",
        "natural": "peak"
      },
      "geometry": {
        "type": "Point",
        "coordinates": [
          -3.0824768,
          43.0380803
        ]
      },
      "id": "node/1241711608"
    },
    {
      "type": "Feature",
      "properties": {
        "@id": "node/1241711641",
        "ele": "749",
        "name": "San Fausto",
        "natural": "peak"
      },
      "geometry": {
        "type": "Point",
        "coordinates": [
          -2.8553188,
          42.9550798
        ]
      },
      "id": "node/1241711641"
    },
    {
      "type": "Feature",
      "properties": {
        "@id": "node/1241714963",
        "ele": "1169",
        "name": "Kruzeta",
        "natural": "peak",
        "wikidata": "Q112783755",
        "wikipedia": "eu:Kruzeta"
      },
      "geometry": {
        "type": "Point",
        "coordinates": [
          -3.0013218,
          42.8795881
        ]
      },
      "id": "node/1241714963"
    },
    {
      "type": "Feature",
      "properties": {
        "@id": "node/1241723726",
        "alt_name": "Peña de Aro,Faro",
        "ele": "1133",
        "name": "Aro",
        "natural": "peak",
        "wikidata": "Q24021627"
      },
      "geometry": {
        "type": "Point",
        "coordinates": [
          -3.1442638,
          43.0352813
        ]
      },
      "id": "node/1241723726"
    },
    {
      "type": "Feature",
      "properties": {
        "@id": "node/1241730504",
        "ele": "605",
        "name": "Inordui",
        "natural": "peak"
      },
      "geometry": {
        "type": "Point",
        "coordinates": [
          -2.9796212,
          43.0892272
        ]
      },
      "id": "node/1241730504"
    },
    {
      "type": "Feature",
      "properties": {
        "@id": "node/1241734002",
        "ele": "677",
        "name": "Saimendi",
        "natural": "peak"
      },
      "geometry": {
        "type": "Point",
        "coordinates": [
          -2.6827481,
          42.9607842
        ]
      },
      "id": "node/1241734002"
    },
    {
      "type": "Feature",
      "properties": {
        "@id": "node/1241734421",
        "ele": "553",
        "name": "Alto de Perrana",
        "natural": "peak"
      },
      "geometry": {
        "type": "Point",
        "coordinates": [
          -3.0890025,
          43.040955
        ]
      },
      "id": "node/1241734421"
    },
    {
      "type": "Feature",
      "properties": {
        "@id": "node/1241755223",
        "ele": "671",
        "name": "Sisardi",
        "natural": "peak"
      },
      "geometry": {
        "type": "Point",
        "coordinates": [
          -2.6797467,
          42.9579654
        ]
      },
      "id": "node/1241755223"
    },
    {
      "type": "Feature",
      "properties": {
        "@id": "node/1241758533",
        "ele": "1188",
        "name": "Zerraluntxa",
        "natural": "peak"
      },
      "geometry": {
        "type": "Point",
        "coordinates": [
          -2.6993761,
          42.6020186
        ]
      },
      "id": "node/1241758533"
    },
    {
      "type": "Feature",
      "properties": {
        "@id": "node/1241759365",
        "ele": "606",
        "name": "Alto de Pozo Lagos",
        "natural": "peak"
      },
      "geometry": {
        "type": "Point",
        "coordinates": [
          -3.152701,
          43.0716549
        ]
      },
      "id": "node/1241759365"
    },
    {
      "type": "Feature",
      "properties": {
        "@id": "node/1241766039",
        "ele": "483",
        "name": "Pico de Cortinas",
        "natural": "peak"
      },
      "geometry": {
        "type": "Point",
        "coordinates": [
          -3.135648,
          43.0887439
        ]
      },
      "id": "node/1241766039"
    },
    {
      "type": "Feature",
      "properties": {
        "@id": "node/1242388298",
        "ele": "829",
        "name": "Pico del Fraile",
        "name:es": "Pico del Fraile",
        "name:eu": "Frailea haitz-punta",
        "natural": "peak",
        "wikidata": "Q12257932",
        "wikipedia": "eu:Fraideburu"
      },
      "geometry": {
        "type": "Point",
        "coordinates": [
          -3.0430274,
          42.9733265
        ]
      },
      "id": "node/1242388298"
    },
    {
      "type": "Feature",
      "properties": {
        "@id": "node/1248956019",
        "ele": "1319",
        "name": "Mota",
        "natural": "peak"
      },
      "geometry": {
        "type": "Point",
        "coordinates": [
          -3.1246404,
          42.7902505
        ]
      },
      "id": "node/1248956019"
    },
    {
      "type": "Feature",
      "properties": {
        "@id": "node/1249810796",
        "alt_name": "Aguilatos; Aguilato; El Aguilato; Leturriaga; Peña del Águila; Peña Blanca",
        "ele": "667",
        "name": "Aguilatos",
        "natural": "peak"
      },
      "geometry": {
        "type": "Point",
        "coordinates": [
          -3.0205038,
          43.2071654
        ]
      },
      "id": "node/1249810796"
    },
    {
      "type": "Feature",
      "properties": {
        "@id": "node/1249810838",
        "ele": "680",
        "name": "Txulutegi",
        "natural": "peak"
      },
      "geometry": {
        "type": "Point",
        "coordinates": [
          -2.5327728,
          42.933344
        ]
      },
      "id": "node/1249810838"
    },
    {
      "type": "Feature",
      "properties": {
        "@id": "node/1249810879",
        "ele": "1168",
        "name": "Coronas",
        "natural": "peak"
      },
      "geometry": {
        "type": "Point",
        "coordinates": [
          -3.0153916,
          42.8827327
        ]
      },
      "id": "node/1249810879"
    },
    {
      "type": "Feature",
      "properties": {
        "@id": "node/1249810945",
        "ele": "496",
        "name": "Pico de Vela",
        "natural": "peak"
      },
      "geometry": {
        "type": "Point",
        "coordinates": [
          -3.0437302,
          43.1462812
        ]
      },
      "id": "node/1249810945"
    },
    {
      "type": "Feature",
      "properties": {
        "@id": "node/1249811024",
        "ele": "1139",
        "name": "Alto del Calvario",
        "natural": "peak"
      },
      "geometry": {
        "type": "Point",
        "coordinates": [
          -2.7787766,
          42.6306751
        ]
      },
      "id": "node/1249811024"
    },
    {
      "type": "Feature",
      "properties": {
        "@id": "node/1249811036",
        "ele": "584",
        "name": "Bostarratxeta",
        "natural": "peak"
      },
      "geometry": {
        "type": "Point",
        "coordinates": [
          -2.9450472,
          43.0695093
        ]
      },
      "id": "node/1249811036"
    },
    {
      "type": "Feature",
      "properties": {
        "@id": "node/1249811173",
        "alt_name": "Basobarrena",
        "ele": "668",
        "name": "San Miguel",
        "natural": "peak"
      },
      "geometry": {
        "type": "Point",
        "coordinates": [
          -2.5234304,
          42.9021272
        ]
      },
      "id": "node/1249811173"
    },
    {
      "type": "Feature",
      "properties": {
        "@id": "node/1249811188",
        "ele": "674",
        "name": "Peña Parda",
        "natural": "peak"
      },
      "geometry": {
        "type": "Point",
        "coordinates": [
          -2.8352519,
          42.618298
        ]
      },
      "id": "node/1249811188"
    },
    {
      "type": "Feature",
      "properties": {
        "@id": "node/1249811292",
        "ele": "1184",
        "name": "Seperkuza",
        "natural": "peak"
      },
      "geometry": {
        "type": "Point",
        "coordinates": [
          -2.7893875,
          43.0073874
        ]
      },
      "id": "node/1249811292"
    },
    {
      "type": "Feature",
      "properties": {
        "@id": "node/1249811472",
        "alt_name": "Monte de Oro",
        "ele": "888",
        "name": "Atxabal",
        "natural": "peak",
        "summit:cross": "yes",
        "wikidata": "Q12254437"
      },
      "geometry": {
        "type": "Point",
        "coordinates": [
          -2.8207229,
          42.9317225
        ]
      },
      "id": "node/1249811472"
    },
    {
      "type": "Feature",
      "properties": {
        "@id": "node/1249811719",
        "ele": "641",
        "name": "Basarte",
        "natural": "peak"
      },
      "geometry": {
        "type": "Point",
        "coordinates": [
          -2.4017964,
          42.8983397
        ]
      },
      "id": "node/1249811719"
    },
    {
      "type": "Feature",
      "properties": {
        "@id": "node/1249811765",
        "ele": "412",
        "name": "Pico de Sojoguti",
        "natural": "peak"
      },
      "geometry": {
        "type": "Point",
        "coordinates": [
          -3.1164043,
          43.1134151
        ]
      },
      "id": "node/1249811765"
    },
    {
      "type": "Feature",
      "properties": {
        "@id": "node/1249811782",
        "name": "Alto del Jaral",
        "natural": "peak"
      },
      "geometry": {
        "type": "Point",
        "coordinates": [
          -2.5155388,
          42.8018053
        ]
      },
      "id": "node/1249811782"
    },
    {
      "type": "Feature",
      "properties": {
        "@id": "node/1249811862",
        "ele": "583",
        "name": "Babio",
        "natural": "peak",
        "wikidata": "Q112781737",
        "wikipedia": "eu:Babio"
      },
      "geometry": {
        "type": "Point",
        "coordinates": [
          -3.0292061,
          43.0501862
        ]
      },
      "id": "node/1249811862"
    },
    {
      "type": "Feature",
      "properties": {
        "@id": "node/1249811915",
        "name": "Santa Cruz",
        "natural": "peak"
      },
      "geometry": {
        "type": "Point",
        "coordinates": [
          -2.4846564,
          42.8549271
        ]
      },
      "id": "node/1249811915"
    },
    {
      "type": "Feature",
      "properties": {
        "@id": "node/1249811987",
        "ele": "994",
        "name": "Soila",
        "natural": "peak",
        "wikidata": "Q12267487"
      },
      "geometry": {
        "type": "Point",
        "coordinates": [
          -2.4178885,
          42.6911022
        ]
      },
      "id": "node/1249811987"
    },
    {
      "type": "Feature",
      "properties": {
        "@id": "node/1249812091",
        "name": "Larrinzai",
        "natural": "peak"
      },
      "geometry": {
        "type": "Point",
        "coordinates": [
          -2.8168214,
          42.8757756
        ]
      },
      "id": "node/1249812091"
    },
    {
      "type": "Feature",
      "properties": {
        "@id": "node/1249812152",
        "ele": "826",
        "name": "Aldamiz",
        "natural": "peak"
      },
      "geometry": {
        "type": "Point",
        "coordinates": [
          -2.7971325,
          42.9795396
        ]
      },
      "id": "node/1249812152"
    },
    {
      "type": "Feature",
      "properties": {
        "@id": "node/1249812276",
        "ele": "528",
        "name": "Alto de Garando de Menagarai",
        "natural": "peak"
      },
      "geometry": {
        "type": "Point",
        "coordinates": [
          -3.0675976,
          43.120741
        ]
      },
      "id": "node/1249812276"
    },
    {
      "type": "Feature",
      "properties": {
        "@id": "node/1249812366",
        "name": "Alto del Chato",
        "natural": "peak"
      },
      "geometry": {
        "type": "Point",
        "coordinates": [
          -2.498649,
          42.5900467
        ]
      },
      "id": "node/1249812366"
    },
    {
      "type": "Feature",
      "properties": {
        "@id": "node/1249812376",
        "alt_name": "Pico de Santa Kruz",
        "ele": "533",
        "name": "Burubio",
        "natural": "peak"
      },
      "geometry": {
        "type": "Point",
        "coordinates": [
          -3.018295,
          43.0373719
        ]
      },
      "id": "node/1249812376"
    },
    {
      "type": "Feature",
      "properties": {
        "@id": "node/1249812446",
        "name": "Peña Atauri",
        "natural": "peak"
      },
      "geometry": {
        "type": "Point",
        "coordinates": [
          -2.6628435,
          42.6509251
        ]
      },
      "id": "node/1249812446"
    },
    {
      "type": "Feature",
      "properties": {
        "@id": "node/1249812456",
        "name": "Urikalde",
        "natural": "peak"
      },
      "geometry": {
        "type": "Point",
        "coordinates": [
          -2.7735172,
          42.8815507
        ]
      },
      "id": "node/1249812456"
    },
    {
      "type": "Feature",
      "properties": {
        "@id": "node/1249812472",
        "name": "Alto de Usina",
        "natural": "peak"
      },
      "geometry": {
        "type": "Point",
        "coordinates": [
          -2.6063574,
          42.7887881
        ]
      },
      "id": "node/1249812472"
    },
    {
      "type": "Feature",
      "properties": {
        "@id": "node/1249812549",
        "ele": "904",
        "name": "Astaiz",
        "natural": "peak"
      },
      "geometry": {
        "type": "Point",
        "coordinates": [
          -2.8476868,
          43.0092856
        ]
      },
      "id": "node/1249812549"
    },
    {
      "type": "Feature",
      "properties": {
        "@id": "node/1249812576",
        "name": "Gorpidaran",
        "natural": "peak"
      },
      "geometry": {
        "type": "Point",
        "coordinates": [
          -2.3690806,
          42.9116552
        ]
      },
      "id": "node/1249812576"
    },
    {
      "type": "Feature",
      "properties": {
        "@id": "node/1249812617",
        "ele": "690",
        "name": "Bukario",
        "natural": "peak"
      },
      "geometry": {
        "type": "Point",
        "coordinates": [
          -2.4114786,
          42.9187629
        ]
      },
      "id": "node/1249812617"
    },
    {
      "type": "Feature",
      "properties": {
        "@id": "node/1249812832",
        "ele": "721",
        "name": "Kiputxeta",
        "natural": "peak"
      },
      "geometry": {
        "type": "Point",
        "coordinates": [
          -3.0085727,
          43.1902784
        ]
      },
      "id": "node/1249812832"
    },
    {
      "type": "Feature",
      "properties": {
        "@id": "node/1249812849",
        "name": "Los Tiles",
        "natural": "peak"
      },
      "geometry": {
        "type": "Point",
        "coordinates": [
          -2.3207383,
          42.7925723
        ]
      },
      "id": "node/1249812849"
    },
    {
      "type": "Feature",
      "properties": {
        "@id": "node/1249812874",
        "ele": "1094",
        "name": "Mentazpi",
        "natural": "peak"
      },
      "geometry": {
        "type": "Point",
        "coordinates": [
          -2.4964813,
          42.9604923
        ]
      },
      "id": "node/1249812874"
    },
    {
      "type": "Feature",
      "properties": {
        "@id": "node/1249812905",
        "ele": "453",
        "name": "Abaro",
        "natural": "peak"
      },
      "geometry": {
        "type": "Point",
        "coordinates": [
          -2.9527004,
          43.0442448
        ]
      },
      "id": "node/1249812905"
    },
    {
      "type": "Feature",
      "properties": {
        "@id": "node/1249812982",
        "name": "Peña Aspuru",
        "natural": "peak"
      },
      "geometry": {
        "type": "Point",
        "coordinates": [
          -2.6965861,
          42.6191508
        ]
      },
      "id": "node/1249812982"
    },
    {
      "type": "Feature",
      "properties": {
        "@id": "node/1249813049",
        "ele": "786",
        "name": "Olantiaga",
        "natural": "peak"
      },
      "geometry": {
        "type": "Point",
        "coordinates": [
          -2.714354,
          43.0252558
        ]
      },
      "id": "node/1249813049"
    },
    {
      "type": "Feature",
      "properties": {
        "@id": "node/1249813118",
        "ele": "858",
        "name": "Lezaldi",
        "natural": "peak"
      },
      "geometry": {
        "type": "Point",
        "coordinates": [
          -2.784073,
          42.976699
        ]
      },
      "id": "node/1249813118"
    },
    {
      "type": "Feature",
      "properties": {
        "@id": "node/1249813193",
        "alt_name": "Cumbre de Fuente Anillos",
        "ele": "1117",
        "name": "Urieta",
        "natural": "peak"
      },
      "geometry": {
        "type": "Point",
        "coordinates": [
          -3.1569262,
          43.0260859
        ]
      },
      "id": "node/1249813193"
    },
    {
      "type": "Feature",
      "properties": {
        "@id": "node/1249813350",
        "ele": "811",
        "name": "Alto de los Cerros",
        "natural": "peak"
      },
      "geometry": {
        "type": "Point",
        "coordinates": [
          -2.4980753,
          42.6580241
        ]
      },
      "id": "node/1249813350"
    },
    {
      "type": "Feature",
      "properties": {
        "@id": "node/1249813362",
        "ele": "603",
        "name": "Gaztelube",
        "natural": "peak"
      },
      "geometry": {
        "type": "Point",
        "coordinates": [
          -2.5035903,
          42.9128421
        ]
      },
      "id": "node/1249813362"
    },
    {
      "type": "Feature",
      "properties": {
        "@id": "node/1249813431",
        "name": "Peña Hueca",
        "natural": "peak"
      },
      "geometry": {
        "type": "Point",
        "coordinates": [
          -2.6701919,
          42.6570254
        ]
      },
      "id": "node/1249813431"
    },
    {
      "type": "Feature",
      "properties": {
        "@id": "node/1249813436",
        "ele": "704",
        "name": "Dundo",
        "natural": "peak"
      },
      "geometry": {
        "type": "Point",
        "coordinates": [
          -2.4792985,
          42.8994872
        ]
      },
      "id": "node/1249813436"
    },
    {
      "type": "Feature",
      "properties": {
        "@id": "node/1249813447",
        "name": "Punta Comuneria",
        "natural": "peak"
      },
      "geometry": {
        "type": "Point",
        "coordinates": [
          -2.5283503,
          42.7848209
        ]
      },
      "id": "node/1249813447"
    },
    {
      "type": "Feature",
      "properties": {
        "@id": "node/1249813510",
        "ele": "661",
        "name": "Larragain",
        "natural": "peak"
      },
      "geometry": {
        "type": "Point",
        "coordinates": [
          -2.5488045,
          43.0787598
        ]
      },
      "id": "node/1249813510"
    },
    {
      "type": "Feature",
      "properties": {
        "@id": "node/1249813521",
        "ele": "652",
        "name": "Iturmendi",
        "natural": "peak"
      },
      "geometry": {
        "type": "Point",
        "coordinates": [
          -2.4251889,
          42.8778492
        ]
      },
      "id": "node/1249813521"
    },
    {
      "type": "Feature",
      "properties": {
        "@id": "node/1249813533",
        "alt_name": "Gaztarri",
        "ele": "1176",
        "name": "Gaboñu / Artia",
        "natural": "peak",
        "wikidata": "Q112783172",
        "wikipedia": "eu:Gaboñu / Artia"
      },
      "geometry": {
        "type": "Point",
        "coordinates": [
          -2.4256962,
          42.9565313
        ]
      },
      "id": "node/1249813533"
    },
    {
      "type": "Feature",
      "properties": {
        "@id": "node/1249813558",
        "alt_name": "Ayala; La Majada",
        "ele": "699",
        "name": "Aiala",
        "natural": "peak",
        "wikidata": "Q56650139"
      },
      "geometry": {
        "type": "Point",
        "coordinates": [
          -2.5042893,
          42.8599208
        ]
      },
      "id": "node/1249813558"
    },
    {
      "type": "Feature",
      "properties": {
        "@id": "node/1249813566",
        "ele": "545",
        "name": "Alto de Curciegan",
        "natural": "peak"
      },
      "geometry": {
        "type": "Point",
        "coordinates": [
          -3.0610164,
          43.1412757
        ]
      },
      "id": "node/1249813566"
    },
    {
      "type": "Feature",
      "properties": {
        "@id": "node/1249813568",
        "name": "La Era",
        "natural": "peak"
      },
      "geometry": {
        "type": "Point",
        "coordinates": [
          -2.3194022,
          42.7861976
        ]
      },
      "id": "node/1249813568"
    },
    {
      "type": "Feature",
      "properties": {
        "@id": "node/1249813575",
        "ele": "593",
        "name": "Burgamendi",
        "natural": "peak"
      },
      "geometry": {
        "type": "Point",
        "coordinates": [
          -2.8784029,
          43.0078097
        ]
      },
      "id": "node/1249813575"
    },
    {
      "type": "Feature",
      "properties": {
        "@id": "node/1249813582",
        "name": "Peña Roja",
        "natural": "peak"
      },
      "geometry": {
        "type": "Point",
        "coordinates": [
          -2.754104,
          42.6523558
        ]
      },
      "id": "node/1249813582"
    },
    {
      "type": "Feature",
      "properties": {
        "@id": "node/1249813588",
        "ele": "808",
        "name": "Korroskibila",
        "natural": "peak"
      },
      "geometry": {
        "type": "Point",
        "coordinates": [
          -2.7028624,
          43.0220603
        ]
      },
      "id": "node/1249813588"
    },
    {
      "type": "Feature",
      "properties": {
        "@id": "node/1249813711",
        "ele": "309",
        "name": "Cumbre de Montecillo",
        "natural": "peak"
      },
      "geometry": {
        "type": "Point",
        "coordinates": [
          -3.1648417,
          43.1466941
        ]
      },
      "id": "node/1249813711"
    },
    {
      "type": "Feature",
      "properties": {
        "@id": "node/1249813817",
        "name": "Peña la Parra",
        "natural": "peak"
      },
      "geometry": {
        "type": "Point",
        "coordinates": [
          -2.3446811,
          42.6523792
        ]
      },
      "id": "node/1249813817"
    },
    {
      "type": "Feature",
      "properties": {
        "@id": "node/1249813826",
        "name": "Galzar",
        "natural": "peak"
      },
      "geometry": {
        "type": "Point",
        "coordinates": [
          -2.4851534,
          42.837998
        ]
      },
      "id": "node/1249813826"
    },
    {
      "type": "Feature",
      "properties": {
        "@id": "node/1249813928",
        "ele": "738",
        "name": "Peña Barlas",
        "natural": "peak"
      },
      "geometry": {
        "type": "Point",
        "coordinates": [
          -2.5994168,
          42.7140892
        ]
      },
      "id": "node/1249813928"
    },
    {
      "type": "Feature",
      "properties": {
        "@id": "node/1249814040",
        "ele": "843",
        "name": "Ollargan",
        "natural": "peak"
      },
      "geometry": {
        "type": "Point",
        "coordinates": [
          -2.6328416,
          43.0825747
        ]
      },
      "id": "node/1249814040"
    },
    {
      "type": "Feature",
      "properties": {
        "@id": "node/1249814043",
        "ele": "678",
        "name": "Altos de Heredia - Lalingain",
        "natural": "peak"
      },
      "geometry": {
        "type": "Point",
        "coordinates": [
          -2.4534165,
          42.8857054
        ]
      },
      "id": "node/1249814043"
    },
    {
      "type": "Feature",
      "properties": {
        "@id": "node/1249814047",
        "name": "Bideta",
        "natural": "peak"
      },
      "geometry": {
        "type": "Point",
        "coordinates": [
          -2.334803,
          42.7786607
        ]
      },
      "id": "node/1249814047"
    },
    {
      "type": "Feature",
      "properties": {
        "@id": "node/1249814057",
        "ele": "627",
        "name": "Pagoeta/Zalduegi",
        "natural": "peak"
      },
      "geometry": {
        "type": "Point",
        "coordinates": [
          -3.0115885,
          43.1830565
        ]
      },
      "id": "node/1249814057"
    },
    {
      "type": "Feature",
      "properties": {
        "@id": "node/1249814066",
        "ele": "553",
        "name": "Pando",
        "natural": "peak"
      },
      "geometry": {
        "type": "Point",
        "coordinates": [
          -3.1268033,
          43.1523972
        ]
      },
      "id": "node/1249814066"
    },
    {
      "type": "Feature",
      "properties": {
        "@id": "node/1249814081",
        "name": "Las Ilaras",
        "natural": "peak"
      },
      "geometry": {
        "type": "Point",
        "coordinates": [
          -2.4493668,
          42.8371526
        ]
      },
      "id": "node/1249814081"
    },
    {
      "type": "Feature",
      "properties": {
        "@id": "node/1249814084",
        "name": "Alto de la Cueva de la Raposa",
        "natural": "peak"
      },
      "geometry": {
        "type": "Point",
        "coordinates": [
          -2.585633,
          42.6434306
        ]
      },
      "id": "node/1249814084"
    },
    {
      "type": "Feature",
      "properties": {
        "@id": "node/1249814087",
        "alt_name": "Alto de San Antón",
        "ele": "543",
        "name": "Atxagan",
        "natural": "peak"
      },
      "geometry": {
        "type": "Point",
        "coordinates": [
          -2.9319662,
          43.0478995
        ]
      },
      "id": "node/1249814087"
    },
    {
      "type": "Feature",
      "properties": {
        "@id": "node/1249814147",
        "ele": "582",
        "name": "Alto del Grillo",
        "natural": "peak"
      },
      "geometry": {
        "type": "Point",
        "coordinates": [
          -2.7159158,
          42.9159919
        ]
      },
      "id": "node/1249814147"
    },
    {
      "type": "Feature",
      "properties": {
        "@id": "node/1249814159",
        "ele": "989",
        "name": "Peña del Medio",
        "natural": "peak"
      },
      "geometry": {
        "type": "Point",
        "coordinates": [
          -2.761869,
          42.6392445
        ]
      },
      "id": "node/1249814159"
    },
    {
      "type": "Feature",
      "properties": {
        "@id": "node/1249814242",
        "ele": "875",
        "name": "Arlobi",
        "natural": "peak"
      },
      "geometry": {
        "type": "Point",
        "coordinates": [
          -2.8301911,
          43.0305756
        ]
      },
      "id": "node/1249814242"
    },
    {
      "type": "Feature",
      "properties": {
        "@id": "node/1249814311",
        "ele": "1242",
        "name": "Malkorra",
        "natural": "peak",
        "wikidata": "Q12262919"
      },
      "geometry": {
        "type": "Point",
        "coordinates": [
          -2.3654294,
          42.9417177
        ]
      },
      "id": "node/1249814311"
    },
    {
      "type": "Feature",
      "properties": {
        "@id": "node/1249814448",
        "name": "Galzar",
        "natural": "peak"
      },
      "geometry": {
        "type": "Point",
        "coordinates": [
          -2.4212831,
          42.8564517
        ]
      },
      "id": "node/1249814448"
    },
    {
      "type": "Feature",
      "properties": {
        "@id": "node/1249814570",
        "ele": "746",
        "name": "Peña del Castillo",
        "name:eu": "Gazteluaren Haitza",
        "natural": "peak"
      },
      "geometry": {
        "type": "Point",
        "coordinates": [
          -2.5587787,
          42.7076912
        ]
      },
      "id": "node/1249814570"
    },
    {
      "type": "Feature",
      "properties": {
        "@id": "node/1249814639",
        "alt_name": "Andatoleta",
        "ele": "796",
        "name": "Andotoleta",
        "natural": "peak"
      },
      "geometry": {
        "type": "Point",
        "coordinates": [
          -2.8759865,
          43.0194146
        ]
      },
      "id": "node/1249814639"
    },
    {
      "type": "Feature",
      "properties": {
        "@id": "node/1249814668",
        "name": "Perretaño",
        "natural": "peak"
      },
      "geometry": {
        "type": "Point",
        "coordinates": [
          -2.3560816,
          42.9046577
        ]
      },
      "id": "node/1249814668"
    },
    {
      "type": "Feature",
      "properties": {
        "@id": "node/1249814715",
        "name": "Alto del Mojón",
        "natural": "peak"
      },
      "geometry": {
        "type": "Point",
        "coordinates": [
          -2.2747837,
          42.8043121
        ]
      },
      "id": "node/1249814715"
    },
    {
      "type": "Feature",
      "properties": {
        "@id": "node/1249814857",
        "alt_name": "Txakurmendi",
        "ele": "735",
        "name": "Mugarriluze",
        "natural": "peak",
        "wikidata": "Q12263862"
      },
      "geometry": {
        "type": "Point",
        "coordinates": [
          -2.9542254,
          43.1722272
        ]
      },
      "id": "node/1249814857"
    },
    {
      "type": "Feature",
      "properties": {
        "@id": "node/1249814988",
        "name": "Espurbeta",
        "natural": "peak"
      },
      "geometry": {
        "type": "Point",
        "coordinates": [
          -2.4315872,
          42.9096743
        ]
      },
      "id": "node/1249814988"
    },
    {
      "type": "Feature",
      "properties": {
        "@id": "node/1249815024",
        "ele": "822",
        "name": "Mojón Alto",
        "natural": "peak"
      },
      "geometry": {
        "type": "Point",
        "coordinates": [
          -2.8688212,
          43.0242242
        ]
      },
      "id": "node/1249815024"
    },
    {
      "type": "Feature",
      "properties": {
        "@id": "node/1249815173",
        "ele": "851",
        "name": "Zizkino",
        "natural": "peak"
      },
      "geometry": {
        "type": "Point",
        "coordinates": [
          -2.7108826,
          43.0145861
        ]
      },
      "id": "node/1249815173"
    },
    {
      "type": "Feature",
      "properties": {
        "@id": "node/1249815289",
        "alt_name": "Alpatizahar; Elpartizar; Peñas Elpartizar",
        "ele": "952",
        "name": "Alpartizahar",
        "natural": "peak"
      },
      "geometry": {
        "type": "Point",
        "coordinates": [
          -2.7773617,
          42.9909913
        ]
      },
      "id": "node/1249815289"
    },
    {
      "type": "Feature",
      "properties": {
        "@id": "node/1249815511",
        "ele": "640",
        "name": "Galzaragaza",
        "natural": "peak"
      },
      "geometry": {
        "type": "Point",
        "coordinates": [
          -2.4086051,
          42.8949102
        ]
      },
      "id": "node/1249815511"
    },
    {
      "type": "Feature",
      "properties": {
        "@id": "node/1249815647",
        "ele": "1089",
        "name": "Peña Alangua",
        "natural": "peak"
      },
      "geometry": {
        "type": "Point",
        "coordinates": [
          -2.3567693,
          42.8048473
        ]
      },
      "id": "node/1249815647"
    },
    {
      "type": "Feature",
      "properties": {
        "@id": "node/1249815732",
        "alt_name": "Pico de Unguia",
        "ele": "642",
        "name": "Eskorieta",
        "natural": "peak"
      },
      "geometry": {
        "type": "Point",
        "coordinates": [
          -3.0566057,
          43.073653
        ]
      },
      "id": "node/1249815732"
    },
    {
      "type": "Feature",
      "properties": {
        "@id": "node/1249815922",
        "ele": "1109",
        "name": "Montemayor",
        "natural": "peak"
      },
      "geometry": {
        "type": "Point",
        "coordinates": [
          -2.9517149,
          42.8654595
        ]
      },
      "id": "node/1249815922"
    },
    {
      "type": "Feature",
      "properties": {
        "@id": "node/1249815965",
        "ele": "511",
        "name": "Utxati",
        "natural": "peak"
      },
      "geometry": {
        "type": "Point",
        "coordinates": [
          -3.1414435,
          43.1104654
        ]
      },
      "id": "node/1249815965"
    },
    {
      "type": "Feature",
      "properties": {
        "@id": "node/1249816068",
        "name": "Cerro La Gallega",
        "natural": "peak"
      },
      "geometry": {
        "type": "Point",
        "coordinates": [
          -2.504692,
          42.6103091
        ]
      },
      "id": "node/1249816068"
    },
    {
      "type": "Feature",
      "properties": {
        "@id": "node/1249816077",
        "ele": "645",
        "name": "Bidabe",
        "natural": "peak"
      },
      "geometry": {
        "type": "Point",
        "coordinates": [
          -2.9507763,
          43.0777874
        ]
      },
      "id": "node/1249816077"
    },
    {
      "type": "Feature",
      "properties": {
        "@id": "node/1249816179",
        "ele": "597",
        "name": "Mendigurengana",
        "natural": "peak"
      },
      "geometry": {
        "type": "Point",
        "coordinates": [
          -2.7977592,
          42.8677646
        ]
      },
      "id": "node/1249816179"
    },
    {
      "type": "Feature",
      "properties": {
        "@id": "node/1249816202",
        "ele": "682",
        "name": "Alto Korozia",
        "natural": "peak"
      },
      "geometry": {
        "type": "Point",
        "coordinates": [
          -2.8050353,
          42.6961244
        ]
      },
      "id": "node/1249816202"
    },
    {
      "type": "Feature",
      "properties": {
        "@id": "node/1249816290",
        "name": "Beitia",
        "natural": "peak"
      },
      "geometry": {
        "type": "Point",
        "coordinates": [
          -2.3650676,
          42.9099399
        ]
      },
      "id": "node/1249816290"
    },
    {
      "type": "Feature",
      "properties": {
        "@id": "node/1249816326",
        "ele": "665",
        "name": "Letxerre",
        "natural": "peak"
      },
      "geometry": {
        "type": "Point",
        "coordinates": [
          -2.5195451,
          42.9339132
        ]
      },
      "id": "node/1249816326"
    },
    {
      "type": "Feature",
      "properties": {
        "@id": "node/1249816469",
        "alt_name": "Pena Caida",
        "ele": "1125",
        "name": "Bigate",
        "natural": "peak"
      },
      "geometry": {
        "type": "Point",
        "coordinates": [
          -2.2450097,
          42.8492456
        ]
      },
      "id": "node/1249816469"
    },
    {
      "type": "Feature",
      "properties": {
        "@id": "node/1249816576",
        "ele": "928",
        "name": "Cerro de San Cristóbal",
        "natural": "peak"
      },
      "geometry": {
        "type": "Point",
        "coordinates": [
          -2.5681488,
          42.6756882
        ]
      },
      "id": "node/1249816576"
    },
    {
      "type": "Feature",
      "properties": {
        "@id": "node/1249816633",
        "ele": "624",
        "name": "Sorogain",
        "natural": "peak"
      },
      "geometry": {
        "type": "Point",
        "coordinates": [
          -2.3990836,
          42.9041897
        ]
      },
      "id": "node/1249816633"
    },
    {
      "type": "Feature",
      "properties": {
        "@id": "node/1249816702",
        "ele": "1016",
        "name": "Nafakorta",
        "natural": "peak",
        "wikidata": "Q112789141",
        "wikipedia": "eu:Nafakorta"
      },
      "geometry": {
        "type": "Point",
        "coordinates": [
          -2.8648128,
          43.0491345
        ]
      },
      "id": "node/1249816702"
    },
    {
      "type": "Feature",
      "properties": {
        "@id": "node/1249816763",
        "name": "Otzamendi",
        "natural": "peak"
      },
      "geometry": {
        "type": "Point",
        "coordinates": [
          -2.4724597,
          42.8484416
        ]
      },
      "id": "node/1249816763"
    },
    {
      "type": "Feature",
      "properties": {
        "@id": "node/1249816818",
        "ele": "1055",
        "name": "Muela",
        "natural": "peak",
        "wikidata": "Q12263848"
      },
      "geometry": {
        "type": "Point",
        "coordinates": [
          -2.4292278,
          42.6715128
        ]
      },
      "id": "node/1249816818"
    },
    {
      "type": "Feature",
      "properties": {
        "@id": "node/1249816869",
        "ele": "851",
        "name": "Harrikurutze",
        "natural": "peak"
      },
      "geometry": {
        "type": "Point",
        "coordinates": [
          -2.7165696,
          43.0211942
        ]
      },
      "id": "node/1249816869"
    },
    {
      "type": "Feature",
      "properties": {
        "@id": "node/1249816918",
        "ele": "391",
        "name": "Pico de Quintana",
        "natural": "peak"
      },
      "geometry": {
        "type": "Point",
        "coordinates": [
          -3.1579802,
          43.108845
        ]
      },
      "id": "node/1249816918"
    },
    {
      "type": "Feature",
      "properties": {
        "@id": "node/1249816943",
        "ele": "734",
        "name": "Tantaibakar",
        "natural": "peak"
      },
      "geometry": {
        "type": "Point",
        "coordinates": [
          -2.6286434,
          43.0176065
        ]
      },
      "id": "node/1249816943"
    },
    {
      "type": "Feature",
      "properties": {
        "@id": "node/1249817001",
        "ele": "1099",
        "name": "Ungino",
        "natural": "peak",
        "wikidata": "Q12268575"
      },
      "geometry": {
        "type": "Point",
        "coordinates": [
          -3.1014813,
          43.0328798
        ]
      },
      "id": "node/1249817001"
    },
    {
      "type": "Feature",
      "properties": {
        "@id": "node/1249817060",
        "name": "Alto El Rey",
        "natural": "peak"
      },
      "geometry": {
        "type": "Point",
        "coordinates": [
          -2.5165285,
          42.6529659
        ]
      },
      "id": "node/1249817060"
    },
    {
      "type": "Feature",
      "properties": {
        "@id": "node/1249817069",
        "alt_name": "Huetos de Mendibil; Lurgorri; Cuetos de Mendibil; Las Minas; Cuetes; Kuetes",
        "ele": "624",
        "name": "Cuetos",
        "natural": "peak"
      },
      "geometry": {
        "type": "Point",
        "coordinates": [
          -2.9838412,
          43.0086032
        ]
      },
      "id": "node/1249817069"
    },
    {
      "type": "Feature",
      "properties": {
        "@id": "node/1249817177",
        "ele": "1158",
        "name": "Alto del Avellanal",
        "natural": "peak"
      },
      "geometry": {
        "type": "Point",
        "coordinates": [
          -2.5226691,
          42.6141338
        ]
      },
      "id": "node/1249817177"
    },
    {
      "type": "Feature",
      "properties": {
        "@id": "node/1249817188",
        "ele": "603",
        "name": "Intxorti",
        "natural": "peak"
      },
      "geometry": {
        "type": "Point",
        "coordinates": [
          -2.7976331,
          42.8348381
        ]
      },
      "id": "node/1249817188"
    },
    {
      "type": "Feature",
      "properties": {
        "@id": "node/1249817350",
        "name": "Otarro",
        "natural": "peak"
      },
      "geometry": {
        "type": "Point",
        "coordinates": [
          -2.4141239,
          42.9314993
        ]
      },
      "id": "node/1249817350"
    },
    {
      "type": "Feature",
      "properties": {
        "@id": "node/1249817520",
        "ele": "462",
        "name": "Alto de Orbe",
        "natural": "peak"
      },
      "geometry": {
        "type": "Point",
        "coordinates": [
          -3.013792,
          43.1717439
        ]
      },
      "id": "node/1249817520"
    },
    {
      "type": "Feature",
      "properties": {
        "@id": "node/1249817655",
        "name": "Peña de Mirandona",
        "natural": "peak"
      },
      "geometry": {
        "type": "Point",
        "coordinates": [
          -2.7363053,
          42.6233886
        ]
      },
      "id": "node/1249817655"
    },
    {
      "type": "Feature",
      "properties": {
        "@id": "node/1249817704",
        "ele": "687",
        "name": "Korraleta",
        "natural": "peak"
      },
      "geometry": {
        "type": "Point",
        "coordinates": [
          -2.7050993,
          43.0278617
        ]
      },
      "id": "node/1249817704"
    },
    {
      "type": "Feature",
      "properties": {
        "@id": "node/1249817776",
        "ele": "779",
        "name": "Lastui",
        "natural": "peak"
      },
      "geometry": {
        "type": "Point",
        "coordinates": [
          -2.8067033,
          42.9704296
        ]
      },
      "id": "node/1249817776"
    },
    {
      "type": "Feature",
      "properties": {
        "@id": "node/1249817891",
        "ele": "559",
        "name": "Alto de las Águilas",
        "natural": "peak"
      },
      "geometry": {
        "type": "Point",
        "coordinates": [
          -2.4781713,
          42.5362714
        ]
      },
      "id": "node/1249817891"
    },
    {
      "type": "Feature",
      "properties": {
        "@id": "node/1249817909",
        "name": "Bistarrieta",
        "natural": "peak"
      },
      "geometry": {
        "type": "Point",
        "coordinates": [
          -2.4715315,
          42.8439257
        ]
      },
      "id": "node/1249817909"
    },
    {
      "type": "Feature",
      "properties": {
        "@id": "node/1249817959",
        "ele": "418",
        "name": "Alto de Mendibarre",
        "natural": "peak"
      },
      "geometry": {
        "type": "Point",
        "coordinates": [
          -3.0427602,
          43.1306041
        ]
      },
      "id": "node/1249817959"
    },
    {
      "type": "Feature",
      "properties": {
        "@id": "node/1249817966",
        "name": "Zabalgana",
        "natural": "peak"
      },
      "geometry": {
        "type": "Point",
        "coordinates": [
          -2.536235,
          42.8663509
        ]
      },
      "id": "node/1249817966"
    },
    {
      "type": "Feature",
      "properties": {
        "@id": "node/1249817975",
        "name": "Gurtatia",
        "natural": "peak"
      },
      "geometry": {
        "type": "Point",
        "coordinates": [
          -2.5511731,
          42.6822498
        ]
      },
      "id": "node/1249817975"
    },
    {
      "type": "Feature",
      "properties": {
        "@id": "node/1249818051",
        "name": "San Miguelarrate",
        "natural": "peak"
      },
      "geometry": {
        "type": "Point",
        "coordinates": [
          -2.4691683,
          42.8654191
        ]
      },
      "id": "node/1249818051"
    },
    {
      "type": "Feature",
      "properties": {
        "@id": "node/1249818106",
        "name": "Alto de Iturrieta",
        "natural": "peak"
      },
      "geometry": {
        "type": "Point",
        "coordinates": [
          -2.3362541,
          42.7938252
        ]
      },
      "id": "node/1249818106"
    },
    {
      "type": "Feature",
      "properties": {
        "@id": "node/1249818191",
        "alt_name": "Alto de los Heros",
        "ele": "466",
        "name": "Ezkebarro",
        "natural": "peak"
      },
      "geometry": {
        "type": "Point",
        "coordinates": [
          -3.1409003,
          43.1371266
        ]
      },
      "id": "node/1249818191"
    },
    {
      "type": "Feature",
      "properties": {
        "@id": "node/1249818274",
        "ele": "570",
        "name": "Askiola",
        "natural": "peak"
      },
      "geometry": {
        "type": "Point",
        "coordinates": [
          -3.0495382,
          43.1442702
        ]
      },
      "id": "node/1249818274"
    },
    {
      "type": "Feature",
      "properties": {
        "@id": "node/1249818291",
        "name": "Peña del Cura",
        "natural": "peak"
      },
      "geometry": {
        "type": "Point",
        "coordinates": [
          -2.3868278,
          42.8041059
        ]
      },
      "id": "node/1249818291"
    },
    {
      "type": "Feature",
      "properties": {
        "@id": "node/1249818348",
        "ele": "594",
        "name": "Kuskumendi",
        "natural": "peak"
      },
      "geometry": {
        "type": "Point",
        "coordinates": [
          -2.9549168,
          43.0641378
        ]
      },
      "id": "node/1249818348"
    },
    {
      "type": "Feature",
      "properties": {
        "@id": "node/1249818402",
        "ele": "797",
        "name": "Alto del Molino",
        "natural": "peak"
      },
      "geometry": {
        "type": "Point",
        "coordinates": [
          -2.7560406,
          42.6469744
        ]
      },
      "id": "node/1249818402"
    },
    {
      "type": "Feature",
      "properties": {
        "@id": "node/1249818445",
        "ele": "902",
        "name": "Haginamendi",
        "natural": "peak"
      },
      "geometry": {
        "type": "Point",
        "coordinates": [
          -2.8425995,
          43.0311428
        ]
      },
      "id": "node/1249818445"
    },
    {
      "type": "Feature",
      "properties": {
        "@id": "node/1249818522",
        "alt_name": "Karamuzabal",
        "ele": "844",
        "name": "Kamurazabal",
        "natural": "peak"
      },
      "geometry": {
        "type": "Point",
        "coordinates": [
          -2.846935,
          42.9937129
        ]
      },
      "id": "node/1249818522"
    },
    {
      "type": "Feature",
      "properties": {
        "@id": "node/1249818630",
        "ele": "661",
        "name": "Nubarzeta",
        "natural": "peak"
      },
      "geometry": {
        "type": "Point",
        "coordinates": [
          -2.4670687,
          42.9355051
        ]
      },
      "id": "node/1249818630"
    },
    {
      "type": "Feature",
      "properties": {
        "@id": "node/1249818694",
        "ele": "601",
        "name": "Dendoriz",
        "natural": "peak"
      },
      "geometry": {
        "type": "Point",
        "coordinates": [
          -2.5411176,
          42.9060654
        ]
      },
      "id": "node/1249818694"
    },
    {
      "type": "Feature",
      "properties": {
        "@id": "node/1249818702",
        "name": "Cerro de Las Raposeras",
        "natural": "peak"
      },
      "geometry": {
        "type": "Point",
        "coordinates": [
          -2.5732842,
          42.7026604
        ]
      },
      "id": "node/1249818702"
    },
    {
      "type": "Feature",
      "properties": {
        "@id": "node/1249818760",
        "ele": "736",
        "name": "Olarre",
        "natural": "peak"
      },
      "geometry": {
        "type": "Point",
        "coordinates": [
          -2.6963732,
          43.0064065
        ]
      },
      "id": "node/1249818760"
    },
    {
      "type": "Feature",
      "properties": {
        "@id": "node/1249818779",
        "ele": "660",
        "name": "Usuburu",
        "natural": "peak"
      },
      "geometry": {
        "type": "Point",
        "coordinates": [
          -2.4319397,
          42.9053126
        ]
      },
      "id": "node/1249818779"
    },
    {
      "type": "Feature",
      "properties": {
        "@id": "node/1249818994",
        "ele": "621",
        "name": "Pico de Sierra Pando",
        "natural": "peak"
      },
      "geometry": {
        "type": "Point",
        "coordinates": [
          -3.1473066,
          43.0853225
        ]
      },
      "id": "node/1249818994"
    },
    {
      "type": "Feature",
      "properties": {
        "@id": "node/1249819036",
        "ele": "625",
        "name": "Ordoñana Mendia",
        "natural": "peak"
      },
      "geometry": {
        "type": "Point",
        "coordinates": [
          -2.3733383,
          42.8845372
        ]
      },
      "id": "node/1249819036"
    },
    {
      "type": "Feature",
      "properties": {
        "@id": "node/1249819067",
        "ele": "429",
        "name": "Arrikurze",
        "natural": "peak"
      },
      "geometry": {
        "type": "Point",
        "coordinates": [
          -2.9103333,
          43.0138998
        ]
      },
      "id": "node/1249819067"
    },
    {
      "type": "Feature",
      "properties": {
        "@id": "node/1249819137",
        "ele": "711",
        "name": "Monte Cabrera",
        "natural": "peak"
      },
      "geometry": {
        "type": "Point",
        "coordinates": [
          -2.8365659,
          42.6419586
        ]
      },
      "id": "node/1249819137"
    },
    {
      "type": "Feature",
      "properties": {
        "@id": "node/1249819188",
        "ele": "1341",
        "name": "Arroriano",
        "natural": "peak",
        "wikidata": "Q56903937"
      },
      "geometry": {
        "type": "Point",
        "coordinates": [
          -2.7736542,
          43.0233492
        ]
      },
      "id": "node/1249819188"
    },
    {
      "type": "Feature",
      "properties": {
        "@id": "node/1249819247",
        "ele": "695",
        "name": "Itxeta",
        "natural": "peak"
      },
      "geometry": {
        "type": "Point",
        "coordinates": [
          -2.722125,
          42.9806075
        ]
      },
      "id": "node/1249819247"
    },
    {
      "type": "Feature",
      "properties": {
        "@id": "node/1249819430",
        "ele": "659",
        "name": "Askaña",
        "natural": "peak"
      },
      "geometry": {
        "type": "Point",
        "coordinates": [
          -2.5098391,
          42.8989112
        ]
      },
      "id": "node/1249819430"
    },
    {
      "type": "Feature",
      "properties": {
        "@id": "node/1249819667",
        "ele": "1132",
        "name": "Alto del Pozo de Manda Agua",
        "natural": "peak"
      },
      "geometry": {
        "type": "Point",
        "coordinates": [
          -3.1269209,
          43.0165179
        ]
      },
      "id": "node/1249819667"
    },
    {
      "type": "Feature",
      "properties": {
        "@id": "node/1249819744",
        "ele": "893",
        "name": "Peña Puntón",
        "natural": "peak"
      },
      "geometry": {
        "type": "Point",
        "coordinates": [
          -2.3479126,
          42.7137416
        ]
      },
      "id": "node/1249819744"
    },
    {
      "type": "Feature",
      "properties": {
        "@id": "node/1249943769",
        "ele": "1126",
        "name": "Larrangoiti",
        "natural": "peak",
        "source": "Instituto Geográfico Nacional",
        "source:date": "201011",
        "wikidata": "Q12261919"
      },
      "geometry": {
        "type": "Point",
        "coordinates": [
          -2.4004649,
          42.9563758
        ]
      },
      "id": "node/1249943769"
    },
    {
      "type": "Feature",
      "properties": {
        "@id": "node/1249945654",
        "ele": "1240",
        "name": "Oburu",
        "natural": "peak",
        "source": "Instituto Geográfico Nacional",
        "source:date": "201011",
        "wikidata": "Q12264981"
      },
      "geometry": {
        "type": "Point",
        "coordinates": [
          -2.3626627,
          42.9468741
        ]
      },
      "id": "node/1249945654"
    },
    {
      "type": "Feature",
      "properties": {
        "@id": "node/1249949105",
        "alt_name": "Alto de los Castillos",
        "ele": "1342",
        "name": "Risco del Mojón Acuchillado",
        "natural": "peak"
      },
      "geometry": {
        "type": "Point",
        "coordinates": [
          -3.1571824,
          42.8034773
        ]
      },
      "id": "node/1249949105"
    },
    {
      "type": "Feature",
      "properties": {
        "@id": "node/1260547845",
        "alt_name": "Atxandita",
        "ele": "702",
        "name": "Goikogane",
        "natural": "peak",
        "source": "Instituto Geográfico Nacional",
        "source:date": "201011",
        "wikidata": "Q12258616"
      },
      "geometry": {
        "type": "Point",
        "coordinates": [
          -2.9470424,
          43.1706228
        ]
      },
      "id": "node/1260547845"
    },
    {
      "type": "Feature",
      "properties": {
        "@id": "node/1305192591",
        "ele": "954",
        "name": "Arbina",
        "natural": "peak"
      },
      "geometry": {
        "type": "Point",
        "coordinates": [
          -2.7941318,
          42.6342706
        ]
      },
      "id": "node/1305192591"
    },
    {
      "type": "Feature",
      "properties": {
        "@id": "node/1337212245",
        "alt_name": "Pinpil",
        "ele": "1279",
        "name": "Milpiribil",
        "natural": "peak",
        "wikidata": "Q12263661"
      },
      "geometry": {
        "type": "Point",
        "coordinates": [
          -2.3487563,
          42.9398902
        ]
      },
      "id": "node/1337212245"
    },
    {
      "type": "Feature",
      "properties": {
        "@id": "node/1380454890",
        "ele": "1319",
        "name": "Imeleku",
        "natural": "peak",
        "summit:cross": "no",
        "summit:register": "yes",
        "wikidata": "Q12259561",
        "wikipedia": "eu:Imeleku"
      },
      "geometry": {
        "type": "Point",
        "coordinates": [
          -2.3024281,
          42.915805
        ]
      },
      "id": "node/1380454890"
    },
    {
      "type": "Feature",
      "properties": {
        "@id": "node/1416296532",
        "alt_name": "Arkamu, Peña Arcamo, Peña de Arcamo",
        "ele": "875",
        "name": "Arkamo",
        "natural": "peak",
        "wikidata": "Q12253994"
      },
      "geometry": {
        "type": "Point",
        "coordinates": [
          -2.5482637,
          42.9534588
        ]
      },
      "id": "node/1416296532"
    },
    {
      "type": "Feature",
      "properties": {
        "@id": "node/1429020573",
        "ele": "931",
        "name": "Burbona Occidental",
        "natural": "peak"
      },
      "geometry": {
        "type": "Point",
        "coordinates": [
          -2.8541807,
          43.0215771
        ]
      },
      "id": "node/1429020573"
    },
    {
      "type": "Feature",
      "properties": {
        "@id": "node/1429347800",
        "ele": "934",
        "name": "Burbona Central",
        "natural": "peak"
      },
      "geometry": {
        "type": "Point",
        "coordinates": [
          -2.8447631,
          43.0229399
        ]
      },
      "id": "node/1429347800"
    },
    {
      "type": "Feature",
      "properties": {
        "@id": "node/1445512974",
        "ele": "1112",
        "name": "Santa Elena",
        "natural": "peak"
      },
      "geometry": {
        "type": "Point",
        "coordinates": [
          -2.4175687,
          42.8045635
        ]
      },
      "id": "node/1445512974"
    },
    {
      "type": "Feature",
      "properties": {
        "@id": "node/1445513011",
        "ele": "1108",
        "name": "Soil",
        "natural": "peak"
      },
      "geometry": {
        "type": "Point",
        "coordinates": [
          -2.4101135,
          42.8061553
        ]
      },
      "id": "node/1445513011"
    },
    {
      "type": "Feature",
      "properties": {
        "@id": "node/1485985904",
        "alt_name": "Tologorri",
        "ele": "1073",
        "name": "Iturrigorri / Tologorri",
        "natural": "peak",
        "wikidata": "Q12268033"
      },
      "geometry": {
        "type": "Point",
        "coordinates": [
          -3.0733459,
          43.0178875
        ]
      },
      "id": "node/1485985904"
    },
    {
      "type": "Feature",
      "properties": {
        "@id": "node/1531234579",
        "alt_name": "Atau",
        "ele": "1157",
        "name": "Surbe",
        "natural": "peak"
      },
      "geometry": {
        "type": "Point",
        "coordinates": [
          -2.2974906,
          42.8494003
        ]
      },
      "id": "node/1531234579"
    },
    {
      "type": "Feature",
      "properties": {
        "@id": "node/1534224249",
        "ele": "1072",
        "name": "La Cogolla",
        "natural": "peak"
      },
      "geometry": {
        "type": "Point",
        "coordinates": [
          -2.3188227,
          42.6569328
        ]
      },
      "id": "node/1534224249"
    },
    {
      "type": "Feature",
      "properties": {
        "@id": "node/1708707434",
        "ele": "807",
        "name": "Poiugan / Poiaran",
        "natural": "peak"
      },
      "geometry": {
        "type": "Point",
        "coordinates": [
          -2.7692281,
          42.9202313
        ]
      },
      "id": "node/1708707434"
    },
    {
      "type": "Feature",
      "properties": {
        "@id": "node/1743060410",
        "ele": "1111",
        "name": "Mugarriluze",
        "natural": "peak"
      },
      "geometry": {
        "type": "Point",
        "coordinates": [
          -2.5104921,
          42.9629264
        ]
      },
      "id": "node/1743060410"
    },
    {
      "type": "Feature",
      "properties": {
        "@id": "node/1743126358",
        "alt_name": "Saiturri",
        "ele": "1192",
        "name": "Aumategi",
        "natural": "peak",
        "wikidata": "Q12254492"
      },
      "geometry": {
        "type": "Point",
        "coordinates": [
          -2.4825236,
          42.964746
        ]
      },
      "id": "node/1743126358"
    },
    {
      "type": "Feature",
      "properties": {
        "@id": "node/1799465423",
        "ele": "1443",
        "name": "Palomares",
        "natural": "peak",
        "source": "ign",
        "wikidata": "Q12265475"
      },
      "geometry": {
        "type": "Point",
        "coordinates": [
          -2.6026645,
          42.6020387
        ]
      },
      "id": "node/1799465423"
    },
    {
      "type": "Feature",
      "properties": {
        "@id": "node/1929023999",
        "alt_name": "Allaitz Txiki",
        "ele": "1171",
        "name": "Allaiztxiki",
        "natural": "peak",
        "wikidata": "Q12253202"
      },
      "geometry": {
        "type": "Point",
        "coordinates": [
          -2.2954724,
          42.9070015
        ]
      },
      "id": "node/1929023999"
    },
    {
      "type": "Feature",
      "properties": {
        "@id": "node/2038231374",
        "ele": "1042",
        "name": "Semendia",
        "natural": "peak",
        "wikidata": "Q112784769",
        "wikipedia": "eu:Semendia"
      },
      "geometry": {
        "type": "Point",
        "coordinates": [
          -2.6294799,
          42.6207508
        ]
      },
      "id": "node/2038231374"
    },
    {
      "type": "Feature",
      "properties": {
        "@id": "node/2103276925",
        "ele": "1391",
        "name": "Peña del León",
        "natural": "peak",
        "wikidata": "Q12265814"
      },
      "geometry": {
        "type": "Point",
        "coordinates": [
          -2.5584316,
          42.6055965
        ]
      },
      "id": "node/2103276925"
    },
    {
      "type": "Feature",
      "properties": {
        "@id": "node/2119051571",
        "ele": "1180",
        "name": "Kapildui",
        "natural": "peak",
        "wikidata": "Q12261272"
      },
      "geometry": {
        "type": "Point",
        "coordinates": [
          -2.5377725,
          42.7661627
        ]
      },
      "id": "node/2119051571"
    },
    {
      "type": "Feature",
      "properties": {
        "@id": "node/2420497016",
        "alt_name": "Arrayalde; Arrubieta",
        "ele": "1049",
        "name": "Arraialde",
        "natural": "peak",
        "wikidata": "Q112780497",
        "wikipedia": "eu:Arraialde"
      },
      "geometry": {
        "type": "Point",
        "coordinates": [
          -2.5092578,
          42.7685594
        ]
      },
      "id": "node/2420497016"
    },
    {
      "type": "Feature",
      "properties": {
        "@id": "node/2420497017",
        "ele": "1042",
        "name": "Lete",
        "natural": "peak"
      },
      "geometry": {
        "type": "Point",
        "coordinates": [
          -2.5154001,
          42.7757766
        ]
      },
      "id": "node/2420497017"
    },
    {
      "type": "Feature",
      "properties": {
        "@id": "node/2420849578",
        "ele": "1025",
        "name": "Lorritxo",
        "natural": "peak",
        "wikidata": "Q12262599"
      },
      "geometry": {
        "type": "Point",
        "coordinates": [
          -2.8527354,
          42.8546935
        ]
      },
      "id": "node/2420849578"
    },