{
  "type": "FeatureCollection",
  "generator": "overpass-turbo",
  "copyright": "The data included in this document is from www.openstreetmap.org. The data is made available under ODbL.",
  "timestamp": "2025-04-22T16:08:16Z",
  "features": [
    {
      "type": "Feature",
      "properties": {
        "@id": "node/26862904",
        "alt_name": "Cap Llitzet",
        "alt_name:ca": "Cap Llitzet",
        "ele": "2321",
        "name": "Cap de la Gallina Pelada",
        "name:ca": "Cap de la Gallina Pelada",
        "natural": "peak",
        "prominence": "1000",
        "source": "Institut Cartogràfic de Catalunya",
        "source:prominence": "2321-1321 (Coll de la Trapa)",
        "summit:cross": "yes",
        "wikidata": "Q17482071",
        "wikipedia": "ca:Cap de la Gallina Pelada"
      },
      "geometry": {
        "type": "Point",
        "coordinates": [
          1.7380582,
          42.1894121
        ]
      },
      "id": "node/26862904"
    },
    {
      "type": "Feature",
      "properties": {
        "@id": "node/26864196",
        "alt_name": "Pedraforca",
        "alt_name:ca": "Pedraforca",
        "ele": "2506",
        "name": "Pollegó Superior",
        "name:ca": "Pollegó Superior",
        "natural": "peak",
        "prominence": "663",
        "source:prominence": "2506-1843 (El Collell)",
        "wikidata": "Q60847493",
        "wikipedia": "fr:Pollegó Superior"
      },
      "geometry": {
        "type": "Point",
        "coordinates": [
          1.7029318,
          42.2399434
        ]
      },
      "id": "node/26864196"
    },
    {
      "type": "Feature",
      "properties": {
        "@id": "node/370316524",
        "ele": "198.32",
        "name": "Puig de la Guàrdia",
        "name:ca": "Puig de la Guàrdia",
        "natural": "peak",
        "source": "Institut Cartogràfic i Geològic de Catalunya",
        "wikidata": "Q17482179",
        "wikimedia_commons": "Category:Puig de la Guàrdia (Collserola)",
        "wikipedia": "ca:Puig de la Guàrdia (Collserola)"
      },
      "geometry": {
        "type": "Point",
        "coordinates": [
          2.1360656,
          41.4765724
        ]
      },
      "id": "node/370316524"
    },
    {
      "type": "Feature",
      "properties": {
        "@id": "node/392393928",
        "ele": "534",
        "name": "Pic de l'Àliga",
        "natural": "peak"
      },
      "geometry": {
        "type": "Point",
        "coordinates": [
          1.9007931,
          41.3029337
        ]
      },
      "id": "node/392393928"
    },
    {
      "type": "Feature",
      "properties": {
        "@id": "node/392393929",
        "ele": "594",
        "name": "la Morella",
        "name:ca": "la Morella",
        "natural": "peak",
        "prominence": "189",
        "source:prominence": "ICGC map. Key col: Begues 405m",
        "wikidata": "Q8531595",
        "wikimedia_commons": "Category:La Morella",
        "wikipedia": "ca:La Morella (Begues)"
      },
      "geometry": {
        "type": "Point",
        "coordinates": [
          1.9154757,
          41.296514
        ]
      },
      "id": "node/392393929"
    },
    {
      "type": "Feature",
      "properties": {
        "@id": "node/392393930",
        "ele": "524.1",
        "name": "la Desfeta",
        "name:ca": "la Desfeta",
        "natural": "peak",
        "wikidata": "Q17481874",
        "wikipedia": "ca:La Desfeta"
      },
      "geometry": {
        "type": "Point",
        "coordinates": [
          1.9461226,
          41.3170566
        ]
      },
      "id": "node/392393930"
    },
    {
      "type": "Feature",
      "properties": {
        "@id": "node/392393931",
        "ele": "473",
        "name": "Puig Castellar",
        "name:ca": "Puig Castellar",
        "natural": "peak",
        "wikidata": "Q17481600",
        "wikipedia": "ca:Puig Castellar (Begues)"
      },
      "geometry": {
        "type": "Point",
        "coordinates": [
          1.9236202,
          41.3204328
        ]
      },
      "id": "node/392393931"
    },
    {
      "type": "Feature",
      "properties": {
        "@id": "node/392394075",
        "ele": "534.0",
        "name": "Puig de la Mola",
        "name:ca": "Puig de la Mola",
        "natural": "peak",
        "source": "Institut Cartogràfic i Geològic de Catalunya",
        "wikidata": "Q7259033",
        "wikimedia_commons": "Category:Puig de la Mola",
        "wikipedia": "ca:Puig de la Mola"
      },
      "geometry": {
        "type": "Point",
        "coordinates": [
          1.8479045,
          41.319325
        ]
      },
      "id": "node/392394075"
    },
    {
      "type": "Feature",
      "properties": {
        "@id": "node/429578641",
        "ele": "273",
        "name": "Turó de Montcada",
        "name:ca": "Turó de Montcada",
        "natural": "peak",
        "wikidata": "Q11953538",
        "wikimedia_commons": "Category:Turó de Montcada",
        "wikipedia": "ca:Turó de Montcada"
      },
      "geometry": {
        "type": "Point",
        "coordinates": [
          2.1766301,
          41.4772067
        ]
      },
      "id": "node/429578641"
    },
    {
      "type": "Feature",
      "properties": {
        "@id": "node/575175366",
        "ele": "1103.25",
        "name": "la Mola",
        "name:ca": "la Mola",
        "natural": "peak",
        "prominence": "462",
        "source": "Institut Cartogràfic i Geològic de Catalunya",
        "source:date": "2007",
        "summit:cross": "no",
        "summit:register": "no",
        "wikidata": "Q1844624",
        "wikipedia": "ca:La Mola (Sant Llorenç del Munt)"
      },
      "geometry": {
        "type": "Point",
        "coordinates": [
          2.0179235,
          41.6413052
        ]
      },
      "id": "node/575175366"
    },
    {
      "type": "Feature",
      "properties": {
        "@id": "node/575684047",
        "ele": "937",
        "name": "Fontfreda",
        "name:ca": "Fontfreda",
        "natural": "peak",
        "wikidata": "Q11922550"
      },
      "geometry": {
        "type": "Point",
        "coordinates": [
          2.1370181,
          41.913313
        ]
      },
      "id": "node/575684047"
    },
    {
      "type": "Feature",
      "properties": {
        "@id": "node/575712821",
        "ele": "2198.9",
        "name": "Cap de les Costes de l'Huguet",
        "name:ca": "Cap de les Costes de l'Huguet",
        "natural": "peak",
        "wikidata": "Q17481538",
        "wikipedia": "ca:Cap de les Costes de l'Huguet"
      },
      "geometry": {
        "type": "Point",
        "coordinates": [
          1.9486107,
          42.315325
        ]
      },
      "id": "node/575712821"
    },
    {
      "type": "Feature",
      "properties": {
        "@id": "node/575712924",
        "ele": "1500",
        "name": "Puig Roig",
        "name:ca": "Puig Roig",
        "natural": "peak",
        "wikidata": "Q17483375",
        "wikipedia": "ca:Puig Roig (Castellar de n'Hug)"
      },
      "geometry": {
        "type": "Point",
        "coordinates": [
          1.9457782,
          42.2745374
        ]
      },
      "id": "node/575712924"
    },
    {
      "type": "Feature",
      "properties": {
        "@id": "node/575712971",
        "ele": "1400",
        "name": "Roques del Bruc",
        "name:ca": "Roques del Bruc",
        "natural": "peak",
        "prominence": "208",
        "wikidata": "Q11946264",
        "wikipedia": "ca:Roques del Bruc"
      },
      "geometry": {
        "type": "Point",
        "coordinates": [
          1.999057,
          42.2576154
        ]
      },
      "id": "node/575712971"
    },
    {
      "type": "Feature",
      "properties": {
        "@id": "node/575712982",
        "ele": "1442.1",
        "name": "Sant Eloi",
        "name:ca": "Sant Eloi",
        "natural": "peak",
        "source": "Institut Cartogràfic de Catalunya",
        "wikidata": "Q17483466",
        "wikipedia": "ca:Sant Eloi (Castellar de n'Hug)"
      },
      "geometry": {
        "type": "Point",
        "coordinates": [
          2.0171909,
          42.2565233
        ]
      },
      "id": "node/575712982"
    },
    {
      "type": "Feature",
      "properties": {
        "@id": "node/575713018",
        "ele": "2031.1",
        "name": "Pleta Roja",
        "name:ca": "Pleta Roja",
        "natural": "peak",
        "source": "Institut Cartogràfic de Catalunya",
        "wikidata": "Q17483052",
        "wikipedia": "ca:La Pleta Roja"
      },
      "geometry": {
        "type": "Point",
        "coordinates": [
          2.0138186,
          42.307395
        ]
      },
      "id": "node/575713018"
    },
    {
      "type": "Feature",
      "properties": {
        "@id": "node/575713025",
        "ele": "2066.5",
        "name": "la Creueta",
        "name:ca": "la Creueta",
        "natural": "peak",
        "prominence": "195",
        "source": "Institut Cartogràfic de Catalunya",
        "source:prominence": "ICGC map. Key col: Coll de la Bassa 1872m",
        "wikidata": "Q17481836",
        "wikipedia": "ca:La Creueta (Castellar de n'Hug)"
      },
      "geometry": {
        "type": "Point",
        "coordinates": [
          2.0023053,
          42.3055519
        ]
      },
      "id": "node/575713025"
    },
    {
      "type": "Feature",
      "properties": {
        "@id": "node/575715021",
        "ele": "730",
        "natural": "peak"
      },
      "geometry": {
        "type": "Point",
        "coordinates": [
          1.6158446,
          41.695902
        ]
      },
      "id": "node/575715021"
    },
    {
      "type": "Feature",
      "properties": {
        "@id": "node/575715109",
        "ele": "776.0",
        "name": "Turó de Bacardit",
        "natural": "peak"
      },
      "geometry": {
        "type": "Point",
        "coordinates": [
          1.6645379,
          41.7094166
        ]
      },
      "id": "node/575715109"
    },
    {
      "type": "Feature",
      "properties": {
        "@id": "node/575787784",
        "ele": "948.9",
        "name": "Serrat de Torrielles",
        "name:ca": "Serrat de Torrielles",
        "natural": "peak",
        "wikidata": "Q17483686",
        "wikipedia": "ca:Serrat de Torrielles"
      },
      "geometry": {
        "type": "Point",
        "coordinates": [
          1.6973658,
          42.0364687
        ]
      },
      "id": "node/575787784"
    },
    {
      "type": "Feature",
      "properties": {
        "@id": "node/575889354",
        "ele": "583.4",
        "name": "Puig d'Aubesa",
        "name:ca": "Puig d'Aubesa",
        "natural": "peak",
        "wikidata": "Q11943496",
        "wikipedia": "ca:Puig d'Aubesa"
      },
      "geometry": {
        "type": "Point",
        "coordinates": [
          1.6969368,
          41.8519046
        ]
      },
      "id": "node/575889354"
    },
    {
      "type": "Feature",
      "properties": {
        "@id": "node/576145365",
        "ele": "700",
        "name": "Serral de la Bullida",
        "name:ca": "Serral de la Bullida",
        "natural": "peak",
        "wikidata": "Q17481419",
        "wikipedia": "ca:Serral de la Bullida"
      },
      "geometry": {
        "type": "Point",
        "coordinates": [
          1.5810051,
          41.507411
        ]
      },
      "id": "node/576145365"
    },
    {
      "type": "Feature",
      "properties": {
        "@id": "node/576179162",
        "ele": "286.9",
        "name": "Puig de Pota de Cavall",
        "name:ca": "Puig de Pota de Cavall",
        "natural": "peak",
        "source": "Institut Cartogràfic i Geològic de Catalunya",
        "wikidata": "Q17483129",
        "wikipedia": "ca:Puig de Pota de Cavall"
      },
      "geometry": {
        "type": "Point",
        "coordinates": [
          1.8329022,
          41.2692524
        ]
      },
      "id": "node/576179162"
    },
    {
      "type": "Feature",
      "properties": {
        "@id": "node/576180793",
        "ele": "646",
        "name": "la Morella",
        "name:ca": "la Morella",
        "natural": "peak",
        "wikidata": "Q17183494",
        "wikipedia": "ca:La Morella (Rellinars)"
      },
      "geometry": {
        "type": "Point",
        "coordinates": [
          1.9305079,
          41.658005
        ]
      },
      "id": "node/576180793"
    },
    {
      "type": "Feature",
      "properties": {
        "@id": "node/576359314",
        "ele": "2280.8",
        "natural": "peak"
      },
      "geometry": {
        "type": "Point",
        "coordinates": [
          1.7554155,
          42.1790416
        ]
      },
      "id": "node/576359314"
    },
    {
      "type": "Feature",
      "properties": {
        "@id": "node/576730066",
        "ele": "1021",
        "name": "Turó del Mas",
        "name:ca": "Turó del Mas",
        "natural": "peak",
        "wikidata": "Q17482494",
        "wikipedia": "ca:Turó del Mas"
      },
      "geometry": {
        "type": "Point",
        "coordinates": [
          2.3184112,
          41.7922807
        ]
      },
      "id": "node/576730066"
    },
    {
      "type": "Feature",
      "properties": {
        "@id": "node/576778625",
        "ele": "1453",
        "name": "Tossal de Cal Bertran",
        "name:ca": "Tossal de Cal Bertran",
        "natural": "peak"
      },
      "geometry": {
        "type": "Point",
        "coordinates": [
          1.7168079,
          42.0844711
        ]
      },
      "id": "node/576778625"
    },
    {
      "type": "Feature",
      "properties": {
        "@id": "node/576779016",
        "ele": "736",
        "name": "Puig d'Orpinell",
        "name:ca": "Puig d'Orpinell",
        "natural": "peak"
      },
      "geometry": {
        "type": "Point",
        "coordinates": [
          1.6059223,
          41.5129994
        ]
      },
      "id": "node/576779016"
    },
    {
      "type": "Feature",
      "properties": {
        "@id": "node/576936368",
        "ele": "725",
        "name": "Turó de Cantacorbs",
        "name:ca": "Turó de Cantacorbs",
        "natural": "peak",
        "wikidata": "Q11953501",
        "wikipedia": "ca:Turó de Cantacorbs"
      },
      "geometry": {
        "type": "Point",
        "coordinates": [
          1.5717884,
          41.481577
        ]
      },
      "id": "node/576936368"
    },
    {
      "type": "Feature",
      "properties": {
        "@id": "node/576956081",
        "ele": "1369.6",
        "name": "les Creus",
        "name:ca": "les Creus",
        "natural": "peak"
      },
      "geometry": {
        "type": "Point",
        "coordinates": [
          1.9369611,
          42.2584787
        ]
      },
      "id": "node/576956081"
    },
    {
      "type": "Feature",
      "properties": {
        "@id": "node/576956087",
        "ele": "1231.8",
        "name": "Puigcal",
        "name:ca": "Puigcal",
        "natural": "peak",
        "wikidata": "Q17483159",
        "wikipedia": "ca:Puigcal"
      },
      "geometry": {
        "type": "Point",
        "coordinates": [
          1.9338199,
          42.2537787
        ]
      },
      "id": "node/576956087"
    },
    {
      "type": "Feature",
      "properties": {
        "@id": "node/576990282",
        "ele": "2038.9",
        "name": "Roca Roja",
        "name:ca": "Roca Roja",
        "natural": "peak",
        "source": "Institut Cartogràfic i Geològic de Catalunya",
        "wikidata": "Q11945954",
        "wikipedia": "ca:Roca Roja (Josa i Tuixén)"
      },
      "geometry": {
        "type": "Point",
        "coordinates": [
          1.6846204,
          42.2564441
        ]
      },
      "id": "node/576990282"
    },
    {
      "type": "Feature",
      "properties": {
        "@id": "node/576994202",
        "ele": "512",
        "name": "Turó del Pi de Malla",
        "name:ca": "Turó del Pi de Malla",
        "natural": "peak",
        "wikidata": "Q11953735",
        "wikipedia": "ca:Turó del Pi de Malla"
      },
      "geometry": {
        "type": "Point",
        "coordinates": [
          1.771719,
          41.8639404
        ]
      },
      "id": "node/576994202"
    },
    {
      "type": "Feature",
      "properties": {
        "@id": "node/576994347",
        "ele": "411",
        "name": "el Castellot",
        "name:ca": "el Castellot",
        "natural": "peak",
        "wikidata": "Q11918234",
        "wikipedia": "ca:El Castellot (Balsareny)"
      },
      "geometry": {
        "type": "Point",
        "coordinates": [
          1.8606553,
          41.8858879
        ]
      },
      "id": "node/576994347"
    },
    {
      "type": "Feature",
      "properties": {
        "@id": "node/577015740",
        "ele": "522",
        "name": "Puig-alter",
        "name:ca": "Puig-alter",
        "natural": "peak",
        "wikidata": "Q11943322",
        "wikipedia": "ca:Puig-alter"
      },
      "geometry": {
        "type": "Point",
        "coordinates": [
          1.7855428,
          41.81393
        ]
      },
      "id": "node/577015740"
    },
    {
      "type": "Feature",
      "properties": {
        "@id": "node/577058139",
        "alt_name": "Gos Fred",
        "ele": "1767.5",
        "name": "Gotsfred",
        "name:ca": "Gotsfred",
        "natural": "peak"
      },
      "geometry": {
        "type": "Point",
        "coordinates": [
          1.7400128,
          42.2609262
        ]
      },
      "id": "node/577058139"
    },
    {
      "type": "Feature",
      "properties": {
        "@id": "node/577058208",
        "ele": "1375.9",
        "name": "Roc dels Quatre Batlles",
        "name:ca": "Roc dels Quatre Batlles",
        "natural": "peak"
      },
      "geometry": {
        "type": "Point",
        "coordinates": [
          1.8450328,
          42.2369732
        ]
      },
      "id": "node/577058208"
    },
    {
      "type": "Feature",
      "properties": {
        "@id": "node/577133662",
        "ele": "868",
        "name": "Puig-oriol",
        "name:ca": "Puig-oriol",
        "natural": "peak",
        "wikidata": "Q17483155"
      },
      "geometry": {
        "type": "Point",
        "coordinates": [
          2.1470644,
          41.9176748
        ]
      },
      "id": "node/577133662"
    },
    {
      "type": "Feature",
      "properties": {
        "@id": "node/577187452",
        "ele": "476",
        "name": "Serrat de l'Alou",
        "name:ca": "Serrat de l'Alou",
        "natural": "peak",
        "wikidata": "Q17586896",
        "wikipedia": "ca:Serrat de l'Alou"
      },
      "geometry": {
        "type": "Point",
        "coordinates": [
          1.8970139,
          41.8574699
        ]
      },
      "id": "node/577187452"
    },
    {
      "type": "Feature",
      "properties": {
        "@id": "node/597455501",
        "ele": "998.9",
        "name": "Turó de Sant Elies",
        "name:ca": "Turó de Sant Elies",
        "natural": "peak",
        "source": "Institut Cartogràfic i Geològic de Catalunya",
        "wikidata": "Q7856605",
        "wikipedia": "ca:Turó de Sant Elies"
      },
      "geometry": {
        "type": "Point",
        "coordinates": [
          2.3796807,
          41.7300718
        ]
      },
      "id": "node/597455501"
    },
    {
      "type": "Feature",
      "properties": {
        "@id": "node/643805160",
        "ele": "287.39",
        "name": "Turó de Collserola",
        "name:ca": "Turó de Collserola",
        "natural": "peak"
      },
      "geometry": {
        "type": "Point",
        "coordinates": [
          2.1350955,
          41.4219439
        ]
      },
      "id": "node/643805160"
    },
    {
      "type": "Feature",
      "properties": {
        "@id": "node/643805170",
        "ele": "476.2",
        "name": "Turó de Miralluna",
        "name:ca": "Turó de Miralluna",
        "natural": "peak",
        "source": "Institut Cartogràfic de Catalunya"
      },
      "geometry": {
        "type": "Point",
        "coordinates": [
          2.1153268,
          41.4276503
        ]
      },
      "id": "node/643805170"
    },
    {
      "type": "Feature",
      "properties": {
        "@id": "node/643805179",
        "check_date": "2024-08-06",
        "ele": "475",
        "name": "Turó del Puig",
        "name:ca": "Turó del Puig",
        "natural": "peak",
        "wikidata": "Q11953742",
        "wikimedia_commons": "Category:Turó del Puig (Barcelona)",
        "wikipedia": "ca:Turó del Puig (Barcelona)"
      },
      "geometry": {
        "type": "Point",
        "coordinates": [
          2.1095598,
          41.4283167
        ]
      },
      "id": "node/643805179"
    },
    {
      "type": "Feature",
      "properties": {
        "@id": "node/643805192",
        "ele": "412.84",
        "name": "Turó del Penitent",
        "name:ca": "Turó del Penitent",
        "natural": "peak"
      },
      "geometry": {
        "type": "Point",
        "coordinates": [
          2.0991977,
          41.4301634
        ]
      },
      "id": "node/643805192"
    },
    {
      "type": "Feature",
      "properties": {
        "@id": "node/643805204",
        "ele": "374.9",
        "name": "Turó dels Mussols",
        "name:ca": "Turó dels Mussols",
        "natural": "peak"
      },
      "geometry": {
        "type": "Point",
        "coordinates": [
          2.107096,
          41.423366
        ]
      },
      "id": "node/643805204"
    },
    {
      "type": "Feature",
      "properties": {
        "@id": "node/643805215",
        "ele": "354.19",
        "name": "Turó d'en Ferrer",
        "name:ca": "Turó d'en Ferrer",
        "natural": "peak"
      },
      "geometry": {
        "type": "Point",
        "coordinates": [
          2.1063287,
          41.4211089
        ]
      },
      "id": "node/643805215"
    },
    {
      "type": "Feature",
      "properties": {
        "@id": "node/643805226",
        "ele": "438.8",
        "name": "Turó de Sant Cebrià",
        "name:ca": "Turó de Sant Cebrià",
        "natural": "peak"
      },
      "geometry": {
        "type": "Point",
        "coordinates": [
          2.128869,
          41.4360793
        ]
      },
      "id": "node/643805226"
    },
    {
      "type": "Feature",
      "properties": {
        "@id": "node/643805237",
        "ele": "445.8",
        "name": "Turó de Santa Maria",
        "name:ca": "Turó de Santa Maria",
        "natural": "peak",
        "source": "Institut Cartogràfic i Geològic de Catalunya",
        "wikidata": "Q17483537",
        "wikimedia_commons": "Category:Turó de Santa Maria",
        "wikipedia": "ca:Turó de Santa Maria"
      },
      "geometry": {
        "type": "Point",
        "coordinates": [
          2.1280736,
          41.4338771
        ]
      },
      "id": "node/643805237"
    },
    {
      "type": "Feature",
      "properties": {
        "@id": "node/643825505",
        "alt_name": "Turó de la Magarola",
        "alt_name:ca": "Turó de la Magarola",
        "ele": "430.3",
        "name": "Turó del Maltall de Magarola",
        "name:ca": "Turó del Maltall de Magarola",
        "natural": "peak",
        "source": "Institut Cartogràfic i Geològic de Catalunya",
        "wikidata": "Q17482418",
        "wikimedia_commons": "Category:Turó de la Magarola",
        "wikipedia": "ca:Turó de la Magarola"
      },
      "geometry": {
        "type": "Point",
        "coordinates": [
          2.1296882,
          41.442154
        ]
      },
      "id": "node/643825505"
    },
    {
      "type": "Feature",
      "properties": {
        "@id": "node/643825525",
        "ele": "422.4",
        "name": "Turó de Valldaura",
        "name:ca": "Turó de Valldaura",
        "natural": "peak",
        "source": "Institut Cartogràfic i Geològic de Catalunya",
        "wikidata": "Q11953580",
        "wikimedia_commons": "Category:Turó de Valldaura",
        "wikipedia": "ca:Turó de Valldaura"
      },
      "geometry": {
        "type": "Point",
        "coordinates": [
          2.1328071,
          41.444688
        ]
      },
      "id": "node/643825525"
    },
    {
      "type": "Feature",
      "properties": {
        "@id": "node/643825538",
        "ele": "368.2",
        "name": "Turó del Trac",
        "name:ca": "Turó del Trac",
        "natural": "peak",
        "source": "Institut Cartogràfic i Geològic de Catalunya",
        "wikidata": "Q17483744",
        "wikimedia_commons": "Category:Turó del Trac",
        "wikipedia": "ca:Turó del Trac"
      },
      "geometry": {
        "type": "Point",
        "coordinates": [
          2.1363628,
          41.4428138
        ]
      },
      "id": "node/643825538"
    },
    {
      "type": "Feature",
      "properties": {
        "@id": "node/676594970",
        "alt_name": "Puig d'Ossa",
        "ele": "389",
        "name": "Sant Pere Màrtir",
        "name:ca": "Sant Pere Màrtir",
        "natural": "peak",
        "source": "Instituto Cartográfico de Cataluña",
        "wikidata": "Q17482898",
        "wikimedia_commons": "Category:Mountain of Sant Pere Màrtir",
        "wikipedia": "ca:Puig d'Ossa"
      },
      "geometry": {
        "type": "Point",
        "coordinates": [
          2.0981102,
          41.3934503
        ]
      },
      "id": "node/676594970"
    },
    {
      "type": "Feature",
      "properties": {
        "@id": "node/724274491",
        "ele": "957.7",
        "name": "els Cortins",
        "name:ca": "els Cortins",
        "natural": "peak",
        "wikidata": "Q101414578",
        "wikipedia": "ca:Els Cortins"
      },
      "geometry": {
        "type": "Point",
        "coordinates": [
          2.0012963,
          41.6765498
        ]
      },
      "id": "node/724274491"
    },
    {
      "type": "Feature",
      "properties": {
        "@id": "node/886029215",
        "ele": "1869.5",
        "name": "Cogulló d'Estela",
        "name:ca": "Cogulló d'Estela",
        "natural": "peak",
        "source": "Institut Cartogràfic i Geològic de Catalunya",
        "wikidata": "Q11914430",
        "wikipedia": "ca:Cogulló d'Estela"
      },
      "geometry": {
        "type": "Point",
        "coordinates": [
          1.7870862,
          42.1216048
        ]
      },
      "id": "node/886029215"
    },
    {
      "type": "Feature",
      "properties": {
        "@id": "node/948708552",
        "ele": "356.7",
        "name": "Sant Antoni",
        "name:ca": "Sant Antoni",
        "name:en": "St. Antoni hill",
        "natural": "peak",
        "wikidata": "Q115509528"
      },
      "geometry": {
        "type": "Point",
        "coordinates": [
          2.0026888,
          41.3697731
        ]
      },
      "id": "node/948708552"
    },
    {
      "type": "Feature",
      "properties": {
        "@id": "node/948718683",
        "ele": "1307.9",
        "name": "Cabrera",
        "name:ca": "Cabrera",
        "natural": "peak"
      },
      "geometry": {
        "type": "Point",
        "coordinates": [
          2.4072345,
          42.0756342
        ]
      },
      "id": "node/948718683"
    },
    {
      "type": "Feature",
      "properties": {
        "@id": "node/1071400857",
        "ele": "440",
        "name": "Turó de Mont",
        "name:ca": "Turó de Mont",
        "natural": "peak"
      },
      "geometry": {
        "type": "Point",
        "coordinates": [
          2.1128509,
          41.417537
        ]
      },
      "id": "node/1071400857"
    },
    {
      "type": "Feature",
      "properties": {
        "@id": "node/1082248597",
        "ele": "687",
        "name": "Turó Roig",
        "name:ca": "Turó Roig",
        "natural": "peak"
      },
      "geometry": {
        "type": "Point",
        "coordinates": [
          1.9608469,
          41.6317121
        ]
      },
      "id": "node/1082248597"
    },
    {
      "type": "Feature",
      "properties": {
        "@id": "node/1082311267",
        "ele": "815.4",
        "name": "Punta dels Caus Cremats",
        "natural": "peak",
        "wikidata": "Q117950887"
      },
      "geometry": {
        "type": "Point",
        "coordinates": [
          1.9847343,
          41.6287929
        ]
      },
      "id": "node/1082311267"
    },
    {
      "type": "Feature",
      "properties": {
        "@id": "node/1086183088",
        "ele": "619.6",
        "name": "Turó de Sant Joan",
        "name:ca": "Turó de Sant Joan",
        "natural": "peak",
        "wikidata": "Q17483482",
        "wikipedia": "ca:Turó de Sant Joan (Terrassa)"
      },
      "geometry": {
        "type": "Point",
        "coordinates": [
          2.0043108,
          41.6064545
        ]
      },
      "id": "node/1086183088"
    },
    {
      "type": "Feature",
      "properties": {
        "@id": "node/1086184116",
        "ele": "801.2",
        "name": "el Cavall Bernat",
        "name:ca": "el Cavall Bernat",
        "natural": "peak",
        "prominence": "28",
        "source": "Institut Cartogràfic i Geològic de Catalunya",
        "source:prominence": "ICGC map. Key col: 773m",
        "wikidata": "Q17481649",
        "wikipedia": "ca:Cavall Bernat (Matadepera)"
      },
      "geometry": {
        "type": "Point",
        "coordinates": [
          2.0150767,
          41.6280816
        ]
      },
      "id": "node/1086184116"
    },
    {
      "type": "Feature",
      "properties": {
        "@id": "node/1106581147",
        "ele": "852.0",
        "name": "Roca de les Onze Hores",
        "name:ca": "Roca de les Onze Hores",
        "natural": "peak",
        "source": "Institut Cartogràfic i Geològic de Catalunya"
      },
      "geometry": {
        "type": "Point",
        "coordinates": [
          2.01987,
          41.6286166
        ]
      },
      "id": "node/1106581147"
    },
    {
      "type": "Feature",
      "properties": {
        "@id": "node/1106581153",
        "ele": "822.3",
        "name": "Roca de l'Esquirol",
        "natural": "peak",
        "source": "Institut Cartogràfic i Geològic de Catalunya"
      },
      "geometry": {
        "type": "Point",
        "coordinates": [
          2.0174706,
          41.6281955
        ]
      },
      "id": "node/1106581153"
    },
    {
      "type": "Feature",
      "properties": {
        "@id": "node/1210801762",
        "ele": "1705.4",
        "name": "les Agudes",
        "name:ca": "les Agudes",
        "natural": "peak",
        "ref": "ftp://geofons.icc.cat/fitxes/100CIMS/296107006.pdf",
        "source": "Institut Cartogràfic i Geològic de Catalunya",
        "wikidata": "Q6529125",
        "wikipedia": "ca:Les Agudes (Massís del Montseny)"
      },
      "geometry": {
        "type": "Point",
        "coordinates": [
          2.4439459,
          41.7893241
        ]
      },
      "id": "node/1210801762"
    },
    {
      "type": "Feature",
      "properties": {
        "@id": "node/1222094938",
        "ele": "725.6",
        "natural": "peak",
        "source": "ICGC"
      },
      "geometry": {
        "type": "Point",
        "coordinates": [
          1.9827421,
          41.6211322
        ]
      },
      "id": "node/1222094938"
    },
    {
      "type": "Feature",
      "properties": {
        "@id": "node/1241548320",
        "ele": "299.8",
        "name": "Turó de Can Tomàs",
        "name:ca": "Turó de Can Tomàs",
        "natural": "peak"
      },
      "geometry": {
        "type": "Point",
        "coordinates": [
          2.4737266,
          41.7161083
        ]
      },
      "id": "node/1241548320"
    },
    {
      "type": "Feature",
      "properties": {
        "@id": "node/1241548337",
        "ele": "339.9",
        "name": "Turó del Beco",
        "name:ca": "Turó del Beco",
        "natural": "peak"
      },
      "geometry": {
        "type": "Point",
        "coordinates": [
          1.9257124,
          41.4246763
        ]
      },
      "id": "node/1241548337"
    },
    {
      "type": "Feature",
      "properties": {
        "@id": "node/1241548384",
        "ele": "396",
        "name": "Puigcastell",
        "name:ca": "Puigcastell",
        "natural": "peak",
        "population": "397",
        "wikidata": "Q11943812",
        "wikipedia": "ca:Puigcastell"
      },
      "geometry": {
        "type": "Point",
        "coordinates": [
          2.5121462,
          41.6594199
        ]
      },
      "id": "node/1241548384"
    },
    {
      "type": "Feature",
      "properties": {
        "@id": "node/1241548943",
        "ele": "1098.7",
        "name": "Trona de Clarella",
        "name:ca": "Trona de Clarella",
        "natural": "peak"
      },
      "geometry": {
        "type": "Point",
        "coordinates": [
          2.2886883,
          42.1067946
        ]
      },
      "id": "node/1241548943"
    },
    {
      "type": "Feature",
      "properties": {
        "@id": "node/1241549107",
        "ele": "321",
        "name": "Pedra Miradora",
        "name:ca": "Pedra Miradora",
        "natural": "peak",
        "wikidata": "Q11940665",
        "wikipedia": "ca:Pedra Miradora"
      },
      "geometry": {
        "type": "Point",
        "coordinates": [
          2.5072662,
          41.6753461
        ]
      },
      "id": "node/1241549107"
    },
    {
      "type": "Feature",
      "properties": {
        "@id": "node/1241549275",
        "ele": "431.7",
        "name": "Turó de l'Artiga",
        "name:ca": "Turó de l'Artiga",
        "natural": "peak",
        "wikidata": "Q17481268",
        "wikipedia": "ca:Turó de l'Artiga"
      },
      "geometry": {
        "type": "Point",
        "coordinates": [
          1.6082181,
          41.3756969
        ]
      },
      "id": "node/1241549275"
    },
    {
      "type": "Feature",
      "properties": {
        "@id": "node/1241549438",
        "ele": "392.1",
        "name": "Puig Morer",
        "name:ca": "Puig Morer",
        "natural": "peak",
        "wikidata": "Q11943408",
        "wikipedia": "ca:Puig Morer"
      },
      "geometry": {
        "type": "Point",
        "coordinates": [
          1.8534193,
          41.3413586
        ]
      },
      "id": "node/1241549438"
    },
    {
      "type": "Feature",
      "properties": {
        "@id": "node/1241549621",
        "ele": "523.5",
        "name": "Pla de les Mentides",
        "name:ca": "Pla de les Mentides",
        "natural": "peak",
        "wikidata": "Q11941836",
        "wikipedia": "ca:Pla de les Mentides"
      },
      "geometry": {
        "type": "Point",
        "coordinates": [
          1.8356535,
          41.3711763
        ]
      },
      "id": "node/1241549621"
    },
    {
      "type": "Feature",
      "properties": {
        "@id": "node/1241549807",
        "ele": "261",
        "name": "Turó del Veguer",
        "name:ca": "Turó del Veguer",
        "natural": "peak",
        "wikidata": "Q17483823",
        "wikipedia": "ca:Turó del Veguer"
      },
      "geometry": {
        "type": "Point",
        "coordinates": [
          1.7381787,
          41.2946666
        ]
      },
      "id": "node/1241549807"
    },
    {
      "type": "Feature",
      "properties": {
        "@id": "node/1241549848",
        "name": "Rocar d'en Serra",
        "name:ca": "Rocar d'en Serra",
        "natural": "peak",
        "wikidata": "Q11946096",
        "wikipedia": "ca:Rocar d'en Serra"
      },
      "geometry": {
        "type": "Point",
        "coordinates": [
          2.3898972,
          41.5601239
        ]
      },
      "id": "node/1241549848"
    },
    {
      "type": "Feature",
      "properties": {
        "@id": "node/1241550014",
        "ele": "184.1",
        "name": "Turó de Can Pellofa",
        "name:ca": "Turó de Can Pellofa",
        "natural": "peak"
      },
      "geometry": {
        "type": "Point",
        "coordinates": [
          2.6563713,
          41.6511744
        ]
      },
      "id": "node/1241550014"
    },
    {
      "type": "Feature",
      "properties": {
        "@id": "node/1241550203",
        "ele": "615",
        "name": "Puig Rodó",
        "name:ca": "Puig Rodó",
        "natural": "peak",
        "wikidata": "Q17483343",
        "wikipedia": "ca:Puig Rodó (Vilanova de Sau)"
      },
      "geometry": {
        "type": "Point",
        "coordinates": [
          2.3932923,
          41.9378159
        ]
      },
      "id": "node/1241550203"
    },
    {
      "type": "Feature",
      "properties": {
        "@id": "node/1241550589",
        "ele": "223.4",
        "name": "Turó d'en Punsola",
        "name:ca": "Turó d'en Punsola",
        "natural": "peak"
      },
      "geometry": {
        "type": "Point",
        "coordinates": [
          2.3966207,
          41.5321357
        ]
      },
      "id": "node/1241550589"
    },
    {
      "type": "Feature",
      "properties": {
        "@id": "node/1241550875",
        "ele": "550.5",
        "name": "Turó del Mig",
        "name:ca": "Turó del Mig",
        "natural": "peak",
        "source": "Institut Cartogràfic i Geològic de Catalunya",
        "wikidata": "Q11953722",
        "wikipedia": "ca:Turó del Mig (Arenys de Munt)"
      },
      "geometry": {
        "type": "Point",
        "coordinates": [
          2.4994815,
          41.6075573
        ]
      },
      "id": "node/1241550875"
    },
    {
      "type": "Feature",
      "properties": {
        "@id": "node/1241551006",
        "ele": "672.6",
        "name": "Tossal de Portella",
        "name:ca": "Tossal de Portella",
        "natural": "peak",
        "wikidata": "Q17483072",
        "wikipedia": "ca:Tossal de Portella"
      },
      "geometry": {
        "type": "Point",
        "coordinates": [
          1.5128513,
          41.6706418
        ]
      },
      "id": "node/1241551006"
    },
    {
      "type": "Feature",
      "properties": {
        "@id": "node/1241551151",
        "ele": "706",
        "name": "Turó de Solanes",
        "name:ca": "Turó de Solanes",
        "natural": "peak",
        "prominence": "184",
        "wikidata": "Q11953568",
        "wikipedia": "ca:Turó de Solanes (Caldes de Montbui)"
      },
      "geometry": {
        "type": "Point",
        "coordinates": [
          2.1469255,
          41.6824617
        ]
      },
      "id": "node/1241551151"
    },
    {
      "type": "Feature",
      "properties": {
        "@id": "node/1241551244",
        "ele": "307.6",
        "name": "Turó d'en Gall",
        "name:ca": "Turó d'en Gall",
        "natural": "peak"
      },
      "geometry": {
        "type": "Point",
        "coordinates": [
          2.7664126,
          41.7262345
        ]
      },
      "id": "node/1241551244"
    },
    {
      "type": "Feature",
      "properties": {
        "@id": "node/1241551657",
        "ele": "222.6",
        "name": "Turó del Vicari",
        "name:ca": "Turó del Vicari",
        "natural": "peak"
      },
      "geometry": {
        "type": "Point",
        "coordinates": [
          2.6003158,
          41.7163618
        ]
      },
      "id": "node/1241551657"
    },
    {
      "type": "Feature",
      "properties": {
        "@id": "node/1241551757",
        "ele": "360.6",
        "name": "Castellet",
        "name:ca": "Castellet",
        "natural": "peak",
        "wikidata": "Q11913175",
        "wikipedia": "ca:Castellet (Piera)"
      },
      "geometry": {
        "type": "Point",
        "coordinates": [
          1.7121605,
          41.5087033
        ]
      },
      "id": "node/1241551757"
    },
    {
      "type": "Feature",
      "properties": {
        "@id": "node/1241551774",
        "ele": "301",
        "name": "Roca Foradada",
        "name:ca": "Roca Foradada",
        "natural": "peak"
      },
      "geometry": {
        "type": "Point",
        "coordinates": [
          1.8001877,
          41.3230016
        ]
      },
      "id": "node/1241551774"
    },
    {
      "type": "Feature",
      "properties": {
        "@id": "node/1241551813",
        "ele": "686.1",
        "name": "Turó de la Casa Nova",
        "name:ca": "Turó de la Casa Nova",
        "natural": "peak"
      },
      "geometry": {
        "type": "Point",
        "coordinates": [
          2.3718601,
          41.9712426
        ]
      },
      "id": "node/1241551813"
    },
    {
      "type": "Feature",
      "properties": {
        "@id": "node/1241551974",
        "ele": "352.2",
        "name": "Turó de les Llebres",
        "name:ca": "Turó de les Llebres",
        "natural": "peak",
        "wikidata": "Q11953681",
        "wikipedia": "ca:Turó de les Llebres"
      },
      "geometry": {
        "type": "Point",
        "coordinates": [
          1.7745438,
          41.3419612
        ]
      },
      "id": "node/1241551974"
    },
    {
      "type": "Feature",
      "properties": {
        "@id": "node/1241552018",
        "alt_name": "Turó del Cadastre",
        "ele": "375",
        "name": "Turó de Rodis",
        "name:ca": "Turó de Rodis",
        "natural": "peak",
        "wikidata": "Q121549043"
      },
      "geometry": {
        "type": "Point",
        "coordinates": [
          2.5189221,
          41.6794982
        ]
      },
      "id": "node/1241552018"
    },
    {
      "type": "Feature",
      "properties": {
        "@id": "node/1241552214",
        "ele": "628.4",
        "name": "Puig d'en Caselles",
        "name:ca": "Puig d'en Caselles",
        "natural": "peak"
      },
      "geometry": {
        "type": "Point",
        "coordinates": [
          2.6141133,
          41.6776241
        ]
      },
      "id": "node/1241552214"
    },
    {
      "type": "Feature",
      "properties": {
        "@id": "node/1241552259",
        "ele": "332",
        "name": "Pujol Florit",
        "name:ca": "Pujol Florit",
        "natural": "peak",
        "wikidata": "Q11943878",
        "wikipedia": "ca:Pujol Florit"
      },
      "geometry": {
        "type": "Point",
        "coordinates": [
          1.6672226,
          41.2709119
        ]
      },
      "id": "node/1241552259"
    },
    {
      "type": "Feature",
      "properties": {
        "@id": "node/1241552263",
        "ele": "546.4",
        "name": "Montpedrós",
        "name:ca": "Montpedrós",
        "natural": "peak",
        "wikidata": "Q11937495",
        "wikipedia": "ca:Montpedrós (Mediona)"
      },
      "geometry": {
        "type": "Point",
        "coordinates": [
          1.6354038,
          41.4533259
        ]
      },
      "id": "node/1241552263"
    },
    {
      "type": "Feature",
      "properties": {
        "@id": "node/1241552355",
        "ele": "848",
        "name": "Puiggrifó",
        "name:ca": "Puiggrifó",
        "natural": "peak",
        "wikidata": "Q11943832",
        "wikipedia": "ca:Puiggrifó"
      },
      "geometry": {
        "type": "Point",
        "coordinates": [
          2.3180155,
          41.8591762
        ]
      },
      "id": "node/1241552355"
    },
    {
      "type": "Feature",
      "properties": {
        "@id": "node/1241552430",
        "alt_name": "el Cim",
        "ele": "1528",
        "name": "el Roig",
        "name:ca": "el Roig",
        "natural": "peak",
        "wikidata": "Q17483374",
        "wikipedia": "ca:El Roig"
      },
      "geometry": {
        "type": "Point",
        "coordinates": [
          1.9228567,
          42.1683379
        ]
      },
      "id": "node/1241552430"
    },
    {
      "type": "Feature",
      "properties": {
        "@id": "node/1241553446",
        "ele": "394.6",
        "name": "Turó de Ca l'Isidre",
        "name:ca": "Turó de Ca l'Isidre",
        "natural": "peak"
      },
      "geometry": {
        "type": "Point",
        "coordinates": [
          2.459471,
          41.7274548
        ]
      },
      "id": "node/1241553446"
    },
    {
      "type": "Feature",
      "properties": {
        "@id": "node/1241553793",
        "ele": "255.8",
        "name": "Turó de les Rovires",
        "name:ca": "Turó de les Rovires",
        "natural": "peak"
      },
      "geometry": {
        "type": "Point",
        "coordinates": [
          2.4051652,
          41.5792924
        ]
      },
      "id": "node/1241553793"
    },
    {
      "type": "Feature",
      "properties": {
        "@id": "node/1241553907",
        "ele": "220",
        "name": "Turó del Fum",
        "name:ca": "Turó del Fum",
        "natural": "peak",
        "wikidata": "Q11953710",
        "wikipedia": "ca:Turó del Fum"
      },
      "geometry": {
        "type": "Point",
        "coordinates": [
          2.5887509,
          41.7153638
        ]
      },
      "id": "node/1241553907"
    },
    {
      "type": "Feature",
      "properties": {
        "@id": "node/1241554057",
        "ele": "425.8",
        "name": "Turó de Can Xandri",
        "name:ca": "Turó de Can Xandri",
        "natural": "peak",
        "wikidata": "Q11953499",
        "wikimedia_commons": "Category:Turó de Can Xandri",
        "wikipedia": "ca:Turó de Can Xandri"
      },
      "geometry": {
        "type": "Point",
        "coordinates": [
          1.9258607,
          41.4413601
        ]
      },
      "id": "node/1241554057"
    },
    {
      "type": "Feature",
      "properties": {
        "@id": "node/1241554174",
        "ele": "156.2",
        "name": "Turó del Bosc Gran",
        "name:ca": "Turó del Bosc Gran",
        "natural": "peak"
      },
      "geometry": {
        "type": "Point",
        "coordinates": [
          2.713955,
          41.6429809
        ]
      },
      "id": "node/1241554174"
    },
    {
      "type": "Feature",
      "properties": {
        "@id": "node/1241554318",
        "name": "Serrat de la Vila",
        "name:ca": "Serrat de la Vila",
        "natural": "peak",
        "wikidata": "Q18008822",
        "wikipedia": "ca:Serrat de la Vila (Santa Maria d'Oló)"
      },
      "geometry": {
        "type": "Point",
        "coordinates": [
          2.1143094,
          41.8906607
        ]
      },
      "id": "node/1241554318"
    },
    {
      "type": "Feature",
      "properties": {
        "@id": "node/1241554768",
        "ele": "424",
        "name": "Muntanya de Can Mata del Racó",
        "name:ca": "Muntanya de Can Mata del Racó",
        "natural": "peak"
      },
      "geometry": {
        "type": "Point",
        "coordinates": [
          1.8041806,
          41.3944149
        ]
      },
      "id": "node/1241554768"
    },
    {
      "type": "Feature",
      "properties": {
        "@id": "node/1241554902",
        "ele": "721.9",
        "name": "Tossal de la Pobla",
        "name:ca": "Tossal de la Pobla",
        "natural": "peak"
      },
      "geometry": {
        "type": "Point",
        "coordinates": [
          1.4224445,
          41.6973634
        ]
      },
      "id": "node/1241554902"
    },
    {
      "type": "Feature",
      "properties": {
        "@id": "node/1241555051",
        "ele": "445",
        "name": "Puig Telló",
        "name:ca": "Puig Telló",
        "natural": "peak"
      },
      "geometry": {
        "type": "Point",
        "coordinates": [
          1.8230095,
          41.6771658
        ]
      },
      "id": "node/1241555051"
    },
    {
      "type": "Feature",
      "properties": {
        "@id": "node/1241555290",
        "ele": "542.4",
        "name": "Turó de Xauxa",
        "name:ca": "Turó de Xauxa",
        "natural": "peak"
      },
      "geometry": {
        "type": "Point",
        "coordinates": [
          2.485161,
          41.7429377
        ]
      },
      "id": "node/1241555290"
    },
    {
      "type": "Feature",
      "properties": {
        "@id": "node/1241555402",
        "ele": "341.1",
        "name": "Turó del Pi de la Jeia",
        "name:ca": "Turó del Pi de la Jeia",
        "natural": "peak",
        "wikidata": "Q11953736",
        "wikipedia": "ca:Turó del Pi de la Jeia"
      },
      "geometry": {
        "type": "Point",
        "coordinates": [
          1.6940347,
          41.2976377
        ]
      },
      "id": "node/1241555402"
    },
    {
      "type": "Feature",
      "properties": {
        "@id": "node/1241555479",
        "ele": "807.9",
        "name": "Roca de Castellà",
        "name:ca": "Roca de Castellà",
        "natural": "peak",
        "wikidata": "Q11945975",
        "wikipedia": "ca:Roca de Castellà"
      },
      "geometry": {
        "type": "Point",
        "coordinates": [
          1.4665092,
          41.5171182
        ]
      },
      "id": "node/1241555479"
    },
    {
      "type": "Feature",
      "properties": {
        "@id": "node/1241556110",
        "ele": "323.4",
        "name": "Turó dels Oriols",
        "name:ca": "Turó dels Oriols",
        "natural": "peak",
        "wikidata": "Q11953778",
        "wikipedia": "ca:Turó dels Oriols"
      },
      "geometry": {
        "type": "Point",
        "coordinates": [
          2.3945738,
          41.5384839
        ]
      },
      "id": "node/1241556110"
    },
    {
      "type": "Feature",
      "properties": {
        "@id": "node/1241556387",
        "check_date": "2024-08-23",
        "ele": "196.9",
        "name": "Turó del Gall",
        "name:ca": "Turó del Gall",
        "natural": "peak",
        "wikidata": "Q17482070",
        "wikipedia": "ca:Turó del Gall (Castelldefels)"
      },
      "geometry": {
        "type": "Point",
        "coordinates": [
          1.961454,
          41.2902077
        ]
      },
      "id": "node/1241556387"
    },
    {
      "type": "Feature",
      "properties": {
        "@id": "node/1241556417",
        "ele": "468",
        "name": "Turó del Llop",
        "name:ca": "Turó del Llop",
        "natural": "peak",
        "wikidata": "Q11953717",
        "wikipedia": "ca:Turó del Llop"
      },
      "geometry": {
        "type": "Point",
        "coordinates": [
          2.0530684,
          41.6038869
        ]
      },
      "id": "node/1241556417"
    },
    {
      "type": "Feature",
      "properties": {
        "@id": "node/1241556659",
        "ele": "351.4",
        "name": "Turó de Can Perico",
        "name:ca": "Turó de Can Perico",
        "natural": "peak"
      },
      "geometry": {
        "type": "Point",
        "coordinates": [
          1.8948239,
          41.4437306
        ]
      },
      "id": "node/1241556659"
    },
    {
      "type": "Feature",
      "properties": {
        "@id": "node/1241556983",
        "ele": "417.5",
        "name": "Muntanya dels Vidrers",
        "natural": "peak"
      },
      "geometry": {
        "type": "Point",
        "coordinates": [
          1.8264638,
          41.3872501
        ]
      },
      "id": "node/1241556983"
    },
    {
      "type": "Feature",
      "properties": {
        "@id": "node/1241557740",
        "ele": "294.8",
        "name": "Turó de la Simona",
        "name:ca": "Turó de la Simona",
        "natural": "peak"
      },
      "geometry": {
        "type": "Point",
        "coordinates": [
          2.3596958,
          41.5894498
        ]
      },
      "id": "node/1241557740"
    },
    {
      "type": "Feature",
      "properties": {
        "@id": "node/1241558119",
        "ele": "357.0",
        "name": "Turó de Cal Beco",
        "name:ca": "Turó de Cal Beco",
        "natural": "peak"
      },
      "geometry": {
        "type": "Point",
        "coordinates": [
          1.9176245,
          41.3831304
        ]
      },
      "id": "node/1241558119"
    },
    {
      "type": "Feature",
      "properties": {
        "@id": "node/1241558121",
        "ele": "620.2",
        "name": "Turó de la Cuspinera",
        "name:ca": "Turó de la Cuspinera",
        "natural": "peak"
      },
      "geometry": {
        "type": "Point",
        "coordinates": [
          2.264153,
          41.7227245
        ]
      },
      "id": "node/1241558121"
    },
    {
      "type": "Feature",
      "properties": {
        "@id": "node/1241558729",
        "ele": "559.5",
        "name": "Turó de Canyadell",
        "name:ca": "Turó de Canyadell",
        "natural": "peak"
      },
      "geometry": {
        "type": "Point",
        "coordinates": [
          2.6090443,
          41.6754059
        ]
      },
      "id": "node/1241558729"
    },
    {
      "type": "Feature",
      "properties": {
        "@id": "node/1241559957",
        "ele": "273.4",
        "name": "Turó Gros de Terra Negra",
        "name:ca": "Turó Gros de Terra Negra",
        "natural": "peak",
        "wikidata": "Q17483656",
        "wikipedia": "ca:Turó Gros de Terra Negra"
      },
      "geometry": {
        "type": "Point",
        "coordinates": [
          2.6517567,
          41.722196
        ]
      },
      "id": "node/1241559957"
    },
    {
      "type": "Feature",
      "properties": {
        "@id": "node/1241560351",
        "ele": "799.4",
        "name": "el Muronell",
        "name:ca": "el Muronell",
        "natural": "peak"
      },
      "geometry": {
        "type": "Point",
        "coordinates": [
          1.9866893,
          41.6730399
        ]
      },
      "id": "node/1241560351"
    },
    {
      "type": "Feature",
      "properties": {
        "@id": "node/1241560525",
        "ele": "913.5",
        "name": "Serrat Rodo",
        "name:ca": "Serrat Rodo",
        "natural": "peak",
        "wikidata": "Q11948916",
        "wikipedia": "ca:Serrat Rodó (Collsuspina)"
      },
      "geometry": {
        "type": "Point",
        "coordinates": [
          2.1814109,
          41.8096017
        ]
      },
      "id": "node/1241560525"
    },
    {
      "type": "Feature",
      "properties": {
        "@id": "node/1241560893",
        "ele": "274.8",
        "name": "el Puig",
        "name:ca": "el Puig",
        "natural": "peak"
      },
      "geometry": {
        "type": "Point",
        "coordinates": [
          1.8654623,
          41.5572794
        ]
      },
      "id": "node/1241560893"
    },
    {
      "type": "Feature",
      "properties": {
        "@id": "node/1241560979",
        "ele": "400",
        "name": "Turó Gros",
        "name:ca": "Turó Gros",
        "natural": "peak",
        "wikidata": "Q11953423",
        "wikipedia": "ca:Turó Gros (Caldes de Montbui)"
      },
      "geometry": {
        "type": "Point",
        "coordinates": [
          2.1860817,
          41.6459634
        ]
      },
      "id": "node/1241560979"
    },
    {
      "type": "Feature",
      "properties": {
        "@id": "node/1241561871",
        "ele": "586.5",
        "name": "Turó de Sant Gregori",
        "name:ca": "Turó de Sant Gregori",
        "natural": "peak",
        "wikidata": "Q11953556",
        "wikipedia": "ca:Turó de Sant Gregori"
      },
      "geometry": {
        "type": "Point",
        "coordinates": [
          1.496496,
          41.6477209
        ]
      },
      "id": "node/1241561871"
    },
    {
      "type": "Feature",
      "properties": {
        "@id": "node/1241562479",
        "ele": "318.3",
        "name": "Turó de Marfull",
        "name:ca": "Turó de Marfull",
        "natural": "peak",
        "wikidata": "Q11953528",
        "wikipedia": "ca:Turó de Marfull"
      },
      "geometry": {
        "type": "Point",
        "coordinates": [
          2.5442786,
          41.70256
        ]
      },
      "id": "node/1241562479"
    },
    {
      "type": "Feature",
      "properties": {
        "@id": "node/1241562788",
        "ele": "857.9",
        "name": "Turó Gran",
        "name:ca": "Turó Gran",
        "natural": "peak"
      },
      "geometry": {
        "type": "Point",
        "coordinates": [
          2.4056395,
          41.766637
        ]
      },
      "id": "node/1241562788"
    },
    {
      "type": "Feature",
      "properties": {
        "@id": "node/1241562834",
        "description": "Turó de la Feu, popularment conegut com Roca de l'Àngel.",
        "ele": "413",
        "name": "Turó de la Feu",
        "natural": "peak"
      },
      "geometry": {
        "type": "Point",
        "coordinates": [
          2.3826371,
          41.540741
        ]
      },
      "id": "node/1241562834"
    },
    {
      "type": "Feature",
      "properties": {
        "@id": "node/1241563479",
        "ele": "1135",
        "name": "Puig Torrat",
        "name:ca": "Puig Torrat",
        "natural": "peak",
        "wikidata": "Q17483147",
        "wikipedia": "ca:Puig Torrat (Vilanova de Sau)"
      },
      "geometry": {
        "type": "Point",
        "coordinates": [
          2.4743427,
          41.9220233
        ]
      },
      "id": "node/1241563479"
    },
    {
      "type": "Feature",
      "properties": {
        "@id": "node/1241564734",
        "ele": "1601",
        "name": "Serra dels Lladres",
        "name:ca": "Serra dels Lladres",
        "natural": "peak",
        "prominence": "293"
      },
      "geometry": {
        "type": "Point",
        "coordinates": [
          1.7724088,
          42.1022754
        ]
      },
      "id": "node/1241564734"
    },
    {
      "type": "Feature",
      "properties": {
        "@id": "node/1241565004",
        "ele": "509.3",
        "name": "Turó dels Escorpins",
        "name:ca": "Turó dels Escorpins",
        "natural": "peak"
      },
      "geometry": {
        "type": "Point",
        "coordinates": [
          1.968497,
          41.587238
        ]
      },
      "id": "node/1241565004"
    },
    {
      "type": "Feature",
      "properties": {
        "@id": "node/1241565798",
        "ele": "959",
        "name": "Turó dels Corbs",
        "name:ca": "Turó dels Corbs",
        "natural": "peak"
      },
      "geometry": {
        "type": "Point",
        "coordinates": [
          2.3045357,
          41.7439106
        ]
      },
      "id": "node/1241565798"
    },
    {
      "type": "Feature",
      "properties": {
        "@id": "node/1241565858",
        "ele": "169.2",
        "name": "el Quinto",
        "name:ca": "el Quinto",
        "natural": "peak",
        "wikidata": "Q17483239",
        "wikipedia": "ca:El Quinto"
      },
      "geometry": {
        "type": "Point",
        "coordinates": [
          1.6536815,
          41.2399245
        ]
      },
      "id": "node/1241565858"
    },
    {
      "type": "Feature",
      "properties": {
        "@id": "node/1241565974",
        "ele": "749.3",
        "name": "Tossal d'en Roca",
        "name:ca": "Tossal d'en Roca",
        "natural": "peak",
        "wikidata": "Q11952672",
        "wikipedia": "ca:Tossal d'en Roca"
      },
      "geometry": {
        "type": "Point",
        "coordinates": [
          1.4184234,
          41.7100129
        ]
      },
      "id": "node/1241565974"
    },
    {
      "type": "Feature",
      "properties": {
        "@id": "node/1241566080",
        "ele": "212.2",
        "name": "Turó de la Salindanga",
        "natural": "peak",
        "wikidata": "Q17483445",
        "wikipedia": "ca:Turó de la Salindanga"
      },
      "geometry": {
        "type": "Point",
        "coordinates": [
          1.8620349,
          41.6192724
        ]
      },
      "id": "node/1241566080"
    },
    {
      "type": "Feature",
      "properties": {
        "@id": "node/1241566178",
        "ele": "880.3",
        "name": "Turó de Llançà",
        "name:ca": "Turó de Llançà",
        "natural": "peak"
      },
      "geometry": {
        "type": "Point",
        "coordinates": [
          2.3558242,
          41.774082
        ]
      },
      "id": "node/1241566178"
    },
    {
      "type": "Feature",
      "properties": {
        "@id": "node/1241566186",
        "ele": "696",
        "name": "Turó de Comadebò",
        "name:ca": "Turó de Comadebò",
        "natural": "peak",
        "wikidata": "Q11953512",
        "wikipedia": "ca:Turó de Comadebò"
      },
      "geometry": {
        "type": "Point",
        "coordinates": [
          2.2479454,
          42.0707338
        ]
      },
      "id": "node/1241566186"
    },
    {
      "type": "Feature",
      "properties": {
        "@id": "node/1241566208",
        "ele": "533",
        "name": "les Solius",
        "name:ca": "les Solius",
        "natural": "peak",
        "wikidata": "Q11931702",
        "wikipedia": "ca:Les Solius"
      },
      "geometry": {
        "type": "Point",
        "coordinates": [
          1.8867643,
          41.3084671
        ]
      },
      "id": "node/1241566208"
    },
    {
      "type": "Feature",
      "properties": {
        "@id": "node/1241566505",
        "ele": "472.7",
        "name": "Puig Escampador",
        "name:ca": "Puig Escampador",
        "natural": "peak",
        "wikidata": "Q17481935",
        "wikipedia": "ca:Puig Escampador"
      },
      "geometry": {
        "type": "Point",
        "coordinates": [
          1.8560852,
          41.3305186
        ]
      },
      "id": "node/1241566505"
    },
    {
      "type": "Feature",
      "properties": {
        "@id": "node/1241566966",
        "ele": "606.1",
        "name": "Turó de la Batallola",
        "name:ca": "Turó de la Batallola",
        "natural": "peak"
      },
      "geometry": {
        "type": "Point",
        "coordinates": [
          2.2506824,
          42.0784163
        ]
      },
      "id": "node/1241566966"
    },
    {
      "type": "Feature",
      "properties": {
        "@id": "node/1241568345",
        "ele": "466.1",
        "name": "Puig d'en Morgades",
        "name:ca": "Puig d'en Morgades",
        "natural": "peak",
        "source": "Institut Cartogràfic i Geològic de Catalunya",
        "wikidata": "Q17482792",
        "wikipedia": "ca:Puig d'en Morgades"
      },
      "geometry": {
        "type": "Point",
        "coordinates": [
          1.5934678,
          41.3574063
        ]
      },
      "id": "node/1241568345"
    },
    {
      "type": "Feature",
      "properties": {
        "@id": "node/1241568363",
        "ele": "433.1",
        "name": "Turó d'en Pascol",
        "name:ca": "Turó d'en Pascol",
        "natural": "peak"
      },
      "geometry": {
        "type": "Point",
        "coordinates": [
          2.3441357,
          41.5427759
        ]
      },
      "id": "node/1241568363"
    },
    {
      "type": "Feature",
      "properties": {
        "@id": "node/1241569129",
        "ele": "227.5",
        "name": "Turó de la Roqueta",
        "name:ca": "Turó de la Roqueta",
        "natural": "peak",
        "wikidata": "Q11953654",
        "wikipedia": "ca:Turó de la Roqueta"
      },
      "geometry": {
        "type": "Point",
        "coordinates": [
          1.7448789,
          41.2953262
        ]
      },
      "id": "node/1241569129"
    },
    {
      "type": "Feature",
      "properties": {
        "@id": "node/1241569622",
        "ele": "673",
        "name": "la Talaia",
        "name:ca": "la Talaia",
        "natural": "peak",
        "wikidata": "Q11930840",
        "wikipedia": "ca:La Talaia (la Llacuna)"
      },
      "geometry": {
        "type": "Point",
        "coordinates": [
          1.5591371,
          41.5053817
        ]
      },
      "id": "node/1241569622"
    },
    {
      "type": "Feature",
      "properties": {
        "@id": "node/1241570912",
        "ele": "1018.8",
        "name": "el Mojó",
        "name:ca": "el Mojó",
        "natural": "peak",
        "wikidata": "Q17482638",
        "wikipedia": "ca:El Mojó"
      },
      "geometry": {
        "type": "Point",
        "coordinates": [
          2.3222739,
          41.7272604
        ]
      },
      "id": "node/1241570912"
    },
    {
      "type": "Feature",
      "properties": {
        "@id": "node/1241571215",
        "ele": "742.3",
        "name": "Tossal Petit",
        "name:ca": "Tossal Petit",
        "natural": "peak",
        "wikidata": "Q11952637",
        "wikipedia": "ca:Tossal Petit (Pujalt)"
      },
      "geometry": {
        "type": "Point",
        "coordinates": [
          1.4263823,
          41.7014205
        ]
      },
      "id": "node/1241571215"
    },
    {
      "type": "Feature",
      "properties": {
        "@id": "node/1241571541",
        "ele": "900.3",
        "name": "Turó Rodó",
        "name:ca": "Turó Rodó",
        "natural": "peak"
      },
      "geometry": {
        "type": "Point",
        "coordinates": [
          2.2043051,
          42.0225783
        ]
      },
      "id": "node/1241571541"
    },
    {
      "type": "Feature",
      "properties": {
        "@id": "node/1241571811",
        "ele": "805.9",
        "name": "la Trona",
        "name:ca": "la Trona",
        "natural": "peak",
        "wikidata": "Q17483764",
        "wikipedia": "ca:La Trona (Sant Martí de Centelles)"
      },
      "geometry": {
        "type": "Point",
        "coordinates": [
          2.2412855,
          41.7331316
        ]
      },
      "id": "node/1241571811"
    },
    {
      "type": "Feature",
      "properties": {
        "@id": "node/1241571827",
        "ele": "657.1",
        "name": "Turó de l'Horta",
        "name:ca": "Turó de l'Horta",
        "natural": "peak",
        "wikidata": "Q17482242",
        "wikipedia": "ca:Turó de l'Horta"
      },
      "geometry": {
        "type": "Point",
        "coordinates": [
          1.5457152,
          41.435984
        ]
      },
      "id": "node/1241571827"
    },
    {
      "type": "Feature",
      "properties": {
        "@id": "node/1241571885",
        "ele": "1772",
        "name": "Roc de les Estoselles",
        "natural": "peak",
        "prominence": "199",
        "source": "ICGC"
      },
      "geometry": {
        "type": "Point",
        "coordinates": [
          1.7531239,
          42.2622011
        ]
      },
      "id": "node/1241571885"
    },
    {
      "type": "Feature",
      "properties": {
        "@id": "node/1241572401",
        "ele": "398.7",
        "name": "Turó de la Serra",
        "name:ca": "Turó de la Serra",
        "natural": "peak",
        "wikidata": "Q11953663",
        "wikipedia": "ca:Turó de la Serra (Font-rubí)"
      },
      "geometry": {
        "type": "Point",
        "coordinates": [
          1.6611222,
          41.4332422
        ]
      },
      "id": "node/1241572401"
    },
    {
      "type": "Feature",
      "properties": {
        "@id": "node/1241572519",
        "ele": "105.7",
        "name": "Turó de Can Simó",
        "name:ca": "Turó de Can Simó",
        "natural": "peak",
        "wikidata": "Q17481504",
        "wikipedia": "ca:Turó de Can Simó"
      },
      "geometry": {
        "type": "Point",
        "coordinates": [
          2.6817951,
          41.7362303
        ]
      },
      "id": "node/1241572519"
    },
    {
      "type": "Feature",
      "properties": {
        "@id": "node/1241599131",
        "ele": "991",
        "name": "Turó de Degollats",
        "name:ca": "Turó de Degollats",
        "natural": "peak",
        "source": "Instituto Geográfico Nacional",
        "source:date": "201011"
      },
      "geometry": {
        "type": "Point",
        "coordinates": [
          2.3112706,
          42.1082147
        ]
      },
      "id": "node/1241599131"
    },
    {
      "type": "Feature",
      "properties": {
        "@id": "node/1249943351",
        "ele": "1172.1",
        "name": "Salga Aguda",
        "name:ca": "Salga Aguda",
        "natural": "peak",
        "source": "Institut Cartogràfic de Catalunya",
        "summit:cross": "yes",
        "wikidata": "Q17483443",
        "wikipedia": "ca:Salga Aguda"
      },
      "geometry": {
        "type": "Point",
        "coordinates": [
          1.9514086,
          42.1192589
        ]
      },
      "id": "node/1249943351"
    },
    {
      "type": "Feature",
      "properties": {
        "@id": "node/1249943361",
        "ele": "576",
        "name": "Turó de la Creu d'en Mabres",
        "name:ca": "Turó de la Creu d'en Mabres",
        "natural": "peak",
        "wikidata": "Q11953623",
        "wikipedia": "ca:Turó de la Creu d'en Mabres"
      },
      "geometry": {
        "type": "Point",
        "coordinates": [
          1.6928971,
          41.5786492
        ]
      },
      "id": "node/1249943361"
    },
    {
      "type": "Feature",
      "properties": {
        "@id": "node/1249943404",
        "ele": "109",
        "name": "Turó de les Fontetes",
        "name:ca": "Turó de les Fontetes",
        "natural": "peak",
        "wikidata": "Q11953679",
        "wikipedia": "ca:Turó de les Fontetes"
      },
      "geometry": {
        "type": "Point",
        "coordinates": [
          2.1476955,
          41.4871437
        ]
      },
      "id": "node/1249943404"
    },
    {
      "type": "Feature",
      "properties": {
        "@id": "node/1249943411",
        "ele": "333.8",
        "name": "Turó d'Agullàdols",
        "name:ca": "Turó d'Agullàdols",
        "natural": "peak",
        "wikidata": "Q17481196",
        "wikipedia": "ca:Turó d'Agullàdols"
      },
      "geometry": {
        "type": "Point",
        "coordinates": [
          1.6979812,
          41.4767944
        ]
      },
      "id": "node/1249943411"
    },
    {
      "type": "Feature",
      "properties": {
        "@id": "node/1249943418",
        "ele": "983",
        "name": "Puigsagordi",
        "name:ca": "Puigsagordi",
        "natural": "peak",
        "wikidata": "Q11943848",
        "wikipedia": "ca:Puigsagordi (Balenyà)"
      },
      "geometry": {
        "type": "Point",
        "coordinates": [
          2.2014873,
          41.8037683
        ]
      },
      "id": "node/1249943418"
    },
    {
      "type": "Feature",
      "properties": {
        "@id": "node/1249943430",
        "ele": "211.8",
        "name": "Turó del Castell d'Arraona",
        "name:ca": "Turó del Castell d'Arraona",
        "natural": "peak",
        "wikidata": "Q17481589",
        "wikipedia": "ca:Turó del Castell d'Arraona"
      },
      "geometry": {
        "type": "Point",
        "coordinates": [
          2.1122512,
          41.564246
        ]
      },
      "id": "node/1249943430"
    },
    {
      "type": "Feature",
      "properties": {
        "@id": "node/1249943442",
        "ele": "87",
        "name": "el Calamot",
        "natural": "peak"
      },
      "geometry": {
        "type": "Point",
        "coordinates": [
          1.9931836,
          41.3008597
        ]
      },
      "id": "node/1249943442"
    },
    {
      "type": "Feature",
      "properties": {
        "@id": "node/1249943450",
        "ele": "422.2",
        "name": "Turó de Pedrells",
        "name:ca": "Turó de Pedrells",
        "natural": "peak",
        "wikidata": "Q11953543",
        "wikipedia": "ca:Turó de Pedrells"
      },
      "geometry": {
        "type": "Point",
        "coordinates": [
          2.3384363,
          41.5217952
        ]
      },
      "id": "node/1249943450"
    },
    {
      "type": "Feature",
      "properties": {
        "@id": "node/1249943520",
        "ele": "730",
        "name": "Turó d'Esperanius",
        "name:ca": "Turó d'Esperanius",
        "natural": "peak",
        "wikidata": "Q11953434",
        "wikipedia": "ca:Turó d'Esperanius"
      },
      "geometry": {
        "type": "Point",
        "coordinates": [
          1.4825223,
          41.5059754
        ]
      },
      "id": "node/1249943520"
    },
    {
      "type": "Feature",
      "properties": {
        "@id": "node/1249943542",
        "name": "Turó de la Glorieta",
        "name:ca": "Turó de la Glorieta",
        "natural": "peak"
      },
      "geometry": {
        "type": "Point",
        "coordinates": [
          2.4873626,
          41.5734051
        ]
      },
      "id": "node/1249943542"
    },
    {
      "type": "Feature",
      "properties": {
        "@id": "node/1249943609",
        "ele": "410.7",
        "name": "Turó dels Casalots",
        "name:ca": "Turó dels Casalots",
        "natural": "peak",
        "wikidata": "Q11953763",
        "wikipedia": "ca:Turó dels Casalots"
      },
      "geometry": {
        "type": "Point",
        "coordinates": [
          1.6668794,
          41.4433816
        ]
      },
      "id": "node/1249943609"
    },
    {
      "type": "Feature",
      "properties": {
        "@id": "node/1249943779",
        "ele": "284.9",
        "name": "Puig d'Àliga",
        "name:ca": "Puig d'Àliga",
        "natural": "peak",
        "wikidata": "Q11943551",
        "wikipedia": "ca:Puig d'Àliga"
      },
      "geometry": {
        "type": "Point",
        "coordinates": [
          1.6683073,
          41.262133
        ]
      },
      "id": "node/1249943779"
    },
    {
      "type": "Feature",
      "properties": {
        "@id": "node/1249943922",
        "ele": "240.4",
        "name": "Turó de la Guàrdia",
        "name:ca": "Turó de la Guàrdia",
        "natural": "peak",
        "wikidata": "Q11953639",
        "wikipedia": "ca:Turó de la Guàrdia (Pineda de Mar)"
      },
      "geometry": {
        "type": "Point",
        "coordinates": [
          2.685743,
          41.6450337
        ]
      },
      "id": "node/1249943922"
    },
    {
      "type": "Feature",
      "properties": {
        "@id": "node/1249943930",
        "ele": "932",
        "name": "l'Alzina Grossa",
        "name:ca": "l'Alzina Grossa",
        "natural": "peak",
        "wikidata": "Q11930041",
        "wikipedia": "ca:L'Alzina Grossa (Lluçà)"
      },
      "geometry": {
        "type": "Point",
        "coordinates": [
          2.0576616,
          42.1182994
        ]
      },
      "id": "node/1249943930"
    },
    {
      "type": "Feature",
      "properties": {
        "@id": "node/1249943942",
        "alt_name": "Turó del Bori;Roca d'Adroc",
        "ele": "155.1",
        "name": "Roca de Droc",
        "name:ca": "Roca de Droc",
        "natural": "peak",
        "wikidata": "Q11945982",
        "wikipedia": "ca:Roca de Droc"
      },
      "geometry": {
        "type": "Point",
        "coordinates": [
          1.986694,
          41.4362259
        ]
      },
      "id": "node/1249943942"
    },
    {
      "type": "Feature",
      "properties": {
        "@id": "node/1249943947",
        "ele": "589.2",
        "name": "Turó d'en Marranet",
        "name:ca": "Turó d'en Marranet",
        "natural": "peak",
        "wikidata": "Q11953456",
        "wikipedia": "ca:Turó d'en Marranet"
      },
      "geometry": {
        "type": "Point",
        "coordinates": [
          1.7233821,
          41.5504776
        ]
      },
      "id": "node/1249943947"
    },
    {
      "type": "Feature",
      "properties": {
        "@id": "node/1249943951",
        "ele": "488",
        "name": "Pujol del Riba",
        "name:ca": "Pujol del Riba",
        "natural": "peak",
        "wikidata": "Q17483197",
        "wikipedia": "ca:Pujol del Riba"
      },
      "geometry": {
        "type": "Point",
        "coordinates": [
          1.6083243,
          41.4355135
        ]
      },
      "id": "node/1249943951"
    },
    {
      "type": "Feature",
      "properties": {
        "@id": "node/1249943956",
        "ele": "682",
        "name": "Serrat dels tres Hereus",
        "name:ca": "Serrat dels tres Hereus",
        "natural": "peak",
        "wikidata": "Q11949407",
        "wikipedia": "ca:Serrat dels Lladres (Avià)"
      },
      "geometry": {
        "type": "Point",
        "coordinates": [
          1.8468546,
          42.0448349
        ]
      },
      "id": "node/1249943956"
    },
    {
      "type": "Feature",
      "properties": {
        "@id": "node/1249944003",
        "ele": "466.3",
        "name": "la Coscollada",
        "name:ca": "la Coscollada",
        "natural": "peak",
        "wikidata": "Q11930415",
        "wikimedia_commons": "Category:La Coscollada",
        "wikipedia": "ca:La Coscollada"
      },
      "geometry": {
        "type": "Point",
        "coordinates": [
          2.2298852,
          41.4924733
        ]
      },
      "id": "node/1249944003"
    },
    {
      "type": "Feature",
      "properties": {
        "@id": "node/1249944055",
        "ele": "482",
        "name": "la Talaia",
        "name:ca": "la Talaia",
        "natural": "peak",
        "wikidata": "Q11930837",
        "wikipedia": "ca:La Talaia (Sant Martí Sarroca)"
      },
      "geometry": {
        "type": "Point",
        "coordinates": [
          1.57621,
          41.366841
        ]
      },
      "id": "node/1249944055"
    },
    {
      "type": "Feature",
      "properties": {
        "@id": "node/1249944112",
        "alt_name": "Turó de Montadell",
        "ele": "138",
        "name": "Turó de la Peira",
        "name:ca": "Turó de la Peira",
        "natural": "peak",
        "wikidata": "Q17482961",
        "wikimedia_commons": "Category:Turó de la Peira",
        "wikipedia": "ca:Turó de la Peira (muntanya)"
      },
      "geometry": {
        "type": "Point",
        "coordinates": [
          2.1655021,
          41.4327916
        ]
      },
      "id": "node/1249944112"
    },
    {
      "type": "Feature",
      "properties": {
        "@id": "node/1249944127",
        "ele": "521.8",
        "name": "Puig Alt",
        "name:ca": "Puig Alt",
        "natural": "peak"
      },
      "geometry": {
        "type": "Point",
        "coordinates": [
          2.1836405,
          41.6634375
        ]
      },
      "id": "node/1249944127"
    },
    {
      "type": "Feature",
      "properties": {
        "@id": "node/1249944224",
        "check_date": "2024-08-23",
        "ele": "192",
        "name": "el Pedró",
        "name:ca": "el Pedró",
        "natural": "peak",
        "wikidata": "Q17482953",
        "wikimedia_commons": "Category:El Pedró (Sant Climent de Llobregat)",
        "wikipedia": "ca:El Pedró (Sant Climent de Llobregat)"
      },
      "geometry": {
        "type": "Point",
        "coordinates": [
          1.9959937,
          41.3326082
        ]
      },
      "id": "node/1249944224"
    },
    {
      "type": "Feature",
      "properties": {
        "@id": "node/1249944367",
        "ele": "1010.8",
        "name": "Turó d'en Rec",
        "name:ca": "Turó d'en Rec",
        "natural": "peak",
        "source": "Institut Cartogràfic i Geològic de Catalunya"
      },
      "geometry": {
        "type": "Point",
        "coordinates": [
          2.3187912,
          41.7430899
        ]
      },
      "id": "node/1249944367"
    },
    {
      "type": "Feature",
      "properties": {
        "@id": "node/1249944441",
        "ele": "271.1",
        "name": "Turó dels Ametllers",
        "name:ca": "Turó dels Ametllers",
        "natural": "peak"
      },
      "geometry": {
        "type": "Point",
        "coordinates": [
          1.7935544,
          41.4872134
        ]
      },
      "id": "node/1249944441"
    },
    {
      "type": "Feature",
      "properties": {
        "@id": "node/1249944484",
        "check_date": "2024-08-23",
        "ele": "184",
        "name": "Turó d'en Vinader",
        "name:ca": "Turó d'en Vinader",
        "natural": "peak",
        "wikidata": "Q11953467",
        "wikipedia": "ca:Turó d'en Vinader"
      },
      "geometry": {
        "type": "Point",
        "coordinates": [
          1.968278,
          41.2930335
        ]
      },
      "id": "node/1249944484"
    },
    {
      "type": "Feature",
      "properties": {
        "@id": "node/1249944493",
        "ele": "242.7",
        "name": "Turó de la Picarola",
        "name:ca": "Turó de la Picarola",
        "natural": "peak",
        "wikidata": "Q11953645",
        "wikipedia": "ca:Turó de la Picarola"
      },
      "geometry": {
        "type": "Point",
        "coordinates": [
          1.6480145,
          41.2476371
        ]
      },
      "id": "node/1249944493"
    },
    {
      "type": "Feature",
      "properties": {
        "@id": "node/1249944513",
        "ele": "1643",
        "name": "Serrat de Fulleracs",
        "name:ca": "Serrat de Fulleracs",
        "natural": "peak",
        "wikidata": "Q11948993",
        "wikipedia": "ca:Serrat de Fulleracs"
      },
      "geometry": {
        "type": "Point",
        "coordinates": [
          1.9093957,
          42.1896381
        ]
      },
      "id": "node/1249944513"
    },
    {
      "type": "Feature",
      "properties": {
        "@id": "node/1249944737",
        "ele": "801.7",
        "name": "Puig de Mas Fonoll",
        "name:ca": "Puig de Mas Fonoll",
        "natural": "peak",
        "wikidata": "Q11943596",
        "wikipedia": "ca:Puig de Mas Fonoll"
      },
      "geometry": {
        "type": "Point",
        "coordinates": [
          1.5155392,
          41.400488
        ]
      },
      "id": "node/1249944737"
    },
    {
      "type": "Feature",
      "properties": {
        "@id": "node/1249944776",
        "ele": "317.9",
        "name": "Turó de Can Gibert",
        "name:ca": "Turó de Can Gibert",
        "natural": "peak",
        "wikidata": "Q17483778",
        "wikipedia": "ca:Turó de Can Gibert"
      },
      "geometry": {
        "type": "Point",
        "coordinates": [
          2.6557689,
          41.6426642
        ]
      },
      "id": "node/1249944776"
    },
    {
      "type": "Feature",
      "properties": {
        "@id": "node/1249944814",
        "ele": "1324",
        "name": "l'Artigassa",
        "name:ca": "L'Artigassa",
        "natural": "peak",
        "wikidata": "Q11930064",
        "wikipedia": "ca:L'Artigassa"
      },
      "geometry": {
        "type": "Point",
        "coordinates": [
          1.9270819,
          42.2243734
        ]
      },
      "id": "node/1249944814"
    },
    {
      "type": "Feature",
      "properties": {
        "@id": "node/1249944917",
        "ele": "457.8",
        "name": "Turó de Castellruf",
        "name:ca": "Turó de Castellruf",
        "natural": "peak"
      },
      "geometry": {
        "type": "Point",
        "coordinates": [
          2.2662271,
          41.5147163
        ]
      },
      "id": "node/1249944917"
    },
    {
      "type": "Feature",
      "properties": {
        "@id": "node/1249944945",
        "ele": "257.9",
        "name": "Puig del Rossinyol",
        "name:ca": "Puig del Rossinyol",
        "natural": "peak",
        "wikidata": "Q17483411",
        "wikimedia_commons": "Category:Puig del Rossinyol (el Papiol)",
        "wikipedia": "ca:Puig del Rossinyol (el Papiol)"
      },
      "geometry": {
        "type": "Point",
        "coordinates": [
          2.0271702,
          41.4468022
        ]
      },
      "id": "node/1249944945"
    },
    {
      "type": "Feature",
      "properties": {
        "@id": "node/1249945253",
        "ele": "564",
        "name": "el Sotarró",
        "name:ca": "el Sotarró",
        "natural": "peak",
        "wikidata": "Q11918593",
        "wikipedia": "ca:El Sotarro"
      },
      "geometry": {
        "type": "Point",
        "coordinates": [
          1.9263477,
          41.34972
        ]
      },
      "id": "node/1249945253"
    },
    {
      "type": "Feature",
      "properties": {
        "@id": "node/1249945329",
        "ele": "269.1",
        "name": "la Talaia",
        "name:ca": "la Talaia",
        "natural": "peak",
        "wikidata": "Q11930832",
        "wikipedia": "ca:La Talaia (Castellet i la Gornal)"
      },
      "geometry": {
        "type": "Point",
        "coordinates": [
          1.6709138,
          41.2497448
        ]
      },
      "id": "node/1249945329"
    },
    {
      "type": "Feature",
      "properties": {
        "@id": "node/1249945543",
        "ele": "368.1",
        "name": "Turó del Reig",
        "name:ca": "Turó del Reig",
        "natural": "peak",
        "wikidata": "Q17483266",
        "wikipedia": "ca:Turó del Reig"
      },
      "geometry": {
        "type": "Point",
        "coordinates": [
          2.2555163,
          41.4958577
        ]
      },
      "id": "node/1249945543"
    },
    {
      "type": "Feature",
      "properties": {
        "@id": "node/1249945557",
        "ele": "527.3",
        "name": "Puig Aguilar",
        "name:ca": "Puig Aguilar",
        "natural": "peak",
        "wikidata": "Q17483111",
        "wikipedia": "ca:Puig Aguilar"
      },
      "geometry": {
        "type": "Point",
        "coordinates": [
          2.4534363,
          41.6161794
        ]
      },
      "id": "node/1249945557"
    },
    {
      "type": "Feature",
      "properties": {
        "@id": "node/1249945628",
        "ele": "246",
        "name": "Penya del Llamp",
        "name:ca": "Penya del Llamp",
        "natural": "peak",
        "wikidata": "Q11940826",
        "wikipedia": "ca:Penya del Llamp"
      },
      "geometry": {
        "type": "Point",
        "coordinates": [
          1.846565,
          41.2426454
        ]
      },
      "id": "node/1249945628"
    },
    {
      "type": "Feature",
      "properties": {
        "@id": "node/1249945743",
        "ele": "2500",
        "name": "el Calderer",
        "name:ca": "el Calderer",
        "natural": "peak",
        "wikidata": "Q11918202",
        "wikipedia": "ca:El Calderer"
      },
      "geometry": {
        "type": "Point",
        "coordinates": [
          1.7061948,
          42.2390165
        ]
      },
      "id": "node/1249945743"
    },
    {
      "type": "Feature",
      "properties": {
        "@id": "node/1249945828",
        "ele": "765.3",
        "name": "Puig Gros",
        "name:ca": "Puig Gros",
        "natural": "peak",
        "wikidata": "Q11943389",
        "wikipedia": "ca:Puig Gros (Argençola)"
      },
      "geometry": {
        "type": "Point",
        "coordinates": [
          1.4367187,
          41.5957536
        ]
      },
      "id": "node/1249945828"
    },
    {
      "type": "Feature",
      "properties": {
        "@id": "node/1249945898",
        "ele": "481.2",
        "name": "Turó de Can Ginebreda",
        "name:ca": "Turó de Can Ginebreda",
        "natural": "peak"
      },
      "geometry": {
        "type": "Point",
        "coordinates": [
          1.868165,
          41.4220643
        ]
      },
      "id": "node/1249945898"
    },
    {
      "type": "Feature",
      "properties": {
        "@id": "node/1249945924",
        "ele": "878.4",
        "name": "Cingle de les Casesvelles",
        "name:ca": "Cingle de les Casesvelles",
        "natural": "peak",
        "wikidata": "Q11913854",
        "wikipedia": "ca:Cingle de les Casesvelles"
      },
      "geometry": {
        "type": "Point",
        "coordinates": [
          1.5089837,
          41.4457827
        ]
      },
      "id": "node/1249945924"
    },
    {
      "type": "Feature",
      "properties": {
        "@id": "node/1249946125",
        "ele": "496.7",
        "name": "Serral de la Masia",
        "name:ca": "Serral de la Masia",
        "natural": "peak"
      },
      "geometry": {
        "type": "Point",
        "coordinates": [
          1.6110589,
          41.4861199
        ]
      },
      "id": "node/1249946125"
    },
    {
      "type": "Feature",
      "properties": {
        "@id": "node/1249946254",
        "ele": "853.5",
        "name": "Puig Codina",
        "name:ca": "Puig Codina",
        "natural": "peak",
        "wikidata": "Q17481683",
        "wikipedia": "ca:Puig Codina"
      },
      "geometry": {
        "type": "Point",
        "coordinates": [
          1.9817472,
          41.6304722
        ]
      },
      "id": "node/1249946254"
    },
    {
      "type": "Feature",
      "properties": {
        "@id": "node/1249946455",
        "ele": "328.9",
        "name": "Montgoi",
        "name:ca": "Montgoi",
        "natural": "peak",
        "wikidata": "Q11937454",
        "wikipedia": "ca:Montgoi"
      },
      "geometry": {
        "type": "Point",
        "coordinates": [
          1.9243913,
          41.4572366
        ]
      },
      "id": "node/1249946455"
    },
    {
      "type": "Feature",
      "properties": {
        "@id": "node/1249946625",
        "ele": "55.2",
        "name": "la Rodona",
        "name:ca": "la Rodona",
        "natural": "peak",
        "wikidata": "Q11930752",
        "wikipedia": "ca:La Rodona (Sitges)"
      },
      "geometry": {
        "type": "Point",
        "coordinates": [
          1.7643293,
          41.2230325
        ]
      },
      "id": "node/1249946625"
    },
    {
      "type": "Feature",
      "properties": {
        "@id": "node/1249947142",
        "ele": "337",
        "name": "Puig de Can Mata",
        "name:ca": "Puig de Can Mata",
        "natural": "peak",
        "wikidata": "Q17481495",
        "wikipedia": "ca:Puig de Can Mata"
      },
      "geometry": {
        "type": "Point",
        "coordinates": [
          1.6197209,
          41.3572102
        ]
      },
      "id": "node/1249947142"
    },
    {
      "type": "Feature",
      "properties": {
        "@id": "node/1249947227",
        "ele": "407.3",
        "name": "Turó d'en Cabanyes",
        "name:ca": "Turó d'en Cabanyes",
        "natural": "peak",
        "wikidata": "Q17481436",
        "wikipedia": "ca:Turó d'en Cabanyes"
      },
      "geometry": {
        "type": "Point",
        "coordinates": [
          2.4230306,
          41.5742743
        ]
      },
      "id": "node/1249947227"
    },
    {
      "type": "Feature",
      "properties": {
        "@id": "node/1249947254",
        "ele": "1755",
        "name": "Cap de la Baga Alta",
        "name:ca": "Cap de la Baga Alta",
        "natural": "peak",
        "wikidata": "Q17481291",
        "wikipedia": "ca:Cap de la Baga Alta"
      },
      "geometry": {
        "type": "Point",
        "coordinates": [
          1.9540727,
          42.1993294
        ]
      },
      "id": "node/1249947254"
    },
    {
      "type": "Feature",
      "properties": {
        "@id": "node/1249947303",
        "ele": "208.1",
        "name": "Turó del Valent",
        "name:ca": "Turó del Valent",
        "natural": "peak"
      },
      "geometry": {
        "type": "Point",
        "coordinates": [
          1.9817238,
          41.4949898
        ]
      },
      "id": "node/1249947303"
    },
    {
      "type": "Feature",
      "properties": {
        "@id": "node/1249947310",
        "ele": "438",
        "name": "Turó de les Guixeres",
        "name:ca": "Turó de les Guixeres",
        "natural": "peak",
        "wikidata": "Q11953683",
        "wikipedia": "ca:Turó de les Guixeres"
      },
      "geometry": {
        "type": "Point",
        "coordinates": [
          1.6243943,
          41.5985063
        ]
      },
      "id": "node/1249947310"
    },
    {
      "type": "Feature",
      "properties": {
        "@id": "node/1249947555",
        "ele": "514",
        "name": "Puig de l'Antiga",
        "name:ca": "Puig de l'Antiga",
        "natural": "peak",
        "wikidata": "Q11943655",
        "wikipedia": "ca:Puig de l'Antiga"
      },
      "geometry": {
        "type": "Point",
        "coordinates": [
          1.8708693,
          41.3432678
        ]
      },
      "id": "node/1249947555"
    },
    {
      "type": "Feature",
      "properties": {
        "@id": "node/1249947633",
        "ele": "257.9",
        "name": "Puig del Monars",
        "name:ca": "Puig del Monars",
        "natural": "peak",
        "wikidata": "Q11943773",
        "wikipedia": "ca:Puig del Monars"
      },
      "geometry": {
        "type": "Point",
        "coordinates": [
          1.7882346,
          41.3051011
        ]
      },
      "id": "node/1249947633"
    },
    {
      "type": "Feature",
      "properties": {
        "@id": "node/1249947812",
        "ele": "402.18",
        "name": "Turó de Donadéu",
        "name:ca": "Turó de Donadéu",
        "natural": "peak",
        "wikidata": "Q11953520",
        "wikipedia": "ca:Turó de Donadeu"
      },
      "geometry": {
        "type": "Point",
        "coordinates": [
          2.220521,
          41.4976528
        ]
      },
      "id": "node/1249947812"
    },
    {
      "type": "Feature",
      "properties": {
        "@id": "node/1249947957",
        "ele": "736.7",
        "name": "Puig de Bou",
        "name:ca": "Puig de Bou",
        "natural": "peak",
        "wikidata": "Q17481409",
        "wikipedia": "ca:Puig de Bou"
      },
      "geometry": {
        "type": "Point",
        "coordinates": [
          1.4638538,
          41.5261594
        ]
      },
      "id": "node/1249947957"
    },
    {
      "type": "Feature",
      "properties": {
        "@id": "node/1249948042",
        "check_date": "2024-08-06",
        "ele": "163.6",
        "name": "Puig Pedrós de l'Obac",
        "name:ca": "Puig Pedrós de l'Obac",
        "natural": "peak",
        "wikidata": "Q17482957",
        "wikimedia_commons": "Category:Puig Pedrós de l'Obac",
        "wikipedia": "ca:Puig Pedrós de l'Obac"
      },
      "geometry": {
        "type": "Point",
        "coordinates": [
          2.0263245,
          41.4649566
        ]
      },
      "id": "node/1249948042"
    },
    {
      "type": "Feature",
      "properties": {
        "@id": "node/1249948115",
        "name": "Pujol Gran",
        "name:ca": "Pujol Gran",
        "natural": "peak",
        "wikidata": "Q11943880",
        "wikipedia": "ca:Pujol Gran"
      },
      "geometry": {
        "type": "Point",
        "coordinates": [
          1.6215235,
          41.4478642
        ]
      },
      "id": "node/1249948115"
    },
    {
      "type": "Feature",
      "properties": {
        "@id": "node/1249948170",
        "ele": "2079",
        "name": "el Pedró (Rasos de Peguera)",
        "natural": "peak",
        "prominence": "419",
        "source:prominence": "ICGC map. Key col: 1660m"
      },
      "geometry": {
        "type": "Point",
        "coordinates": [
          1.7787539,
          42.1473154
        ]
      },
      "id": "node/1249948170"
    },
    {
      "type": "Feature",
      "properties": {
        "@id": "node/1249948298",
        "ele": "846.5",
        "name": "l'Agulla Grossa",
        "name:ca": "l'Agulla Grossa",
        "natural": "peak",
        "source": "Institut Cartogràfic i Geològic de Catalunya",
        "wikidata": "Q17481195",
        "wikipedia": "ca:L'Agulla Grossa (Santa Maria de Miralles)"
      },
      "geometry": {
        "type": "Point",
        "coordinates": [
          1.4963576,
          41.5171591
        ]
      },
      "id": "node/1249948298"
    },
    {
      "type": "Feature",
      "properties": {
        "@id": "node/1249948569",
        "ele": "390",
        "name": "Turó d'en Corts",
        "name:ca": "Turó d'en Corts",
        "natural": "peak",
        "reg_name": "Puig Aguilar",
        "wikidata": "Q17481786",
        "wikipedia": "ca:Turó d'en Corts"
      },
      "geometry": {
        "type": "Point",
        "coordinates": [
          2.1018001,
          41.4051603
        ]
      },
      "id": "node/1249948569"
    },
    {
      "type": "Feature",
      "properties": {
        "@id": "node/1249948600",
        "ele": "429",
        "name": "Puig de l'Olla",
        "name:ca": "Puig de l'Olla",
        "natural": "peak",
        "wikidata": "Q17482886",
        "wikipedia": "ca:Puig de l'Olla"
      },
      "geometry": {
        "type": "Point",
        "coordinates": [
          1.9305648,
          41.2858837
        ]
      },
      "id": "node/1249948600"
    },
    {
      "type": "Feature",
      "properties": {
        "@id": "node/1249948942",
        "check_date": "2024-08-23",
        "ele": "329",
        "name": "Puig Rodó",
        "name:ca": "Puig Rodó",
        "natural": "peak",
        "wikidata": "Q11943431",
        "wikipedia": "ca:Puig Rodó (Avinyonet del Penedès)"
      },
      "geometry": {
        "type": "Point",
        "coordinates": [
          1.8042845,
          41.3628079
        ]
      },
      "id": "node/1249948942"
    },
    {
      "type": "Feature",
      "properties": {
        "@id": "node/1249948966",
        "ele": "1354",
        "name": "Cap del Tossal",
        "name:ca": "Cap del Tossal",
        "natural": "peak",
        "wikidata": "Q11912154",
        "wikipedia": "ca:Cap del Tossal"
      },
      "geometry": {
        "type": "Point",
        "coordinates": [
          1.8567371,
          42.2309539
        ]
      },
      "id": "node/1249948966"
    },
    {
      "type": "Feature",
      "properties": {
        "@id": "node/1249949044",
        "ele": "1012",
        "name": "Puig Sec",
        "name:ca": "Puig Sec",
        "natural": "peak",
        "wikidata": "Q11943456",
        "wikipedia": "ca:Puig Sec (l'Esquirol)"
      },
      "geometry": {
        "type": "Point",
        "coordinates": [
          2.3851631,
          42.0648665
        ]
      },
      "id": "node/1249949044"
    },
    {
      "type": "Feature",
      "properties": {
        "@id": "node/1249949174",
        "name": "Roca Aguilera",
        "name:ca": "Roca Aguilera",
        "natural": "peak",
        "wikidata": "Q17481189",
        "wikipedia": "ca:Roca Aguilera (Mediona)"
      },
      "geometry": {
        "type": "Point",
        "coordinates": [
          1.6492452,
          41.4826907
        ]
      },
      "id": "node/1249949174"
    },
    {
      "type": "Feature",
      "properties": {
        "@id": "node/1249949183",
        "ele": "739.5",
        "name": "Puig de la Força",
        "name:ca": "Puig de la Força",
        "natural": "peak"
      },
      "geometry": {
        "type": "Point",
        "coordinates": [
          2.3890005,
          41.9810391
        ]
      },
      "id": "node/1249949183"
    },
    {
      "type": "Feature",
      "properties": {
        "@id": "node/1249949201",
        "ele": "827",
        "name": "Turó de les Rovires",
        "name:ca": "Turó de les Rovires",
        "natural": "peak"
      },
      "geometry": {
        "type": "Point",
        "coordinates": [
          1.9922756,
          41.6488432
        ]
      },
      "id": "node/1249949201"
    },
    {
      "type": "Feature",
      "properties": {
        "@id": "node/1249949369",
        "name": "Puig dels Tudons",
        "name:ca": "Puig dels Tudons",
        "natural": "peak"
      },
      "geometry": {
        "type": "Point",
        "coordinates": [
          2.1481886,
          41.5228646
        ]
      },
      "id": "node/1249949369"
    },
    {
      "type": "Feature",
      "properties": {
        "@id": "node/1249949400",
        "ele": "751",
        "name": "Morrocurt",
        "name:ca": "Morrocurt",
        "natural": "peak",
        "wikidata": "Q17482816",
        "wikipedia": "ca:Morrocurt"
      },
      "geometry": {
        "type": "Point",
        "coordinates": [
          1.5915666,
          41.6419901
        ]
      },
      "id": "node/1249949400"
    },
    {
      "type": "Feature",
      "properties": {
        "@id": "node/1249949419",
        "ele": "289.2",
        "name": "els Crous",
        "name:ca": "els Crous",
        "natural": "peak",
        "wikidata": "Q11918954",
        "wikipedia": "ca:Els Crous (Sant Cebrià de Vallalta)"
      },
      "geometry": {
        "type": "Point",
        "coordinates": [
          2.5891123,
          41.6349163
        ]
      },
      "id": "node/1249949419"
    },
    {
      "type": "Feature",
      "properties": {
        "@id": "node/1249949472",
        "alt_name": "Serrat Penjat",
        "ele": "873.2",
        "name": "el Penjat",
        "natural": "peak"
      },