{
  "type": "FeatureCollection",
  "generator": "overpass-turbo",
  "copyright": "The data included in this document is from www.openstreetmap.org. The data is made available under ODbL.",
  "timestamp": "2025-04-22T16:09:21Z",
  "features": [
    {
      "type": "Feature",
      "properties": {
        "@id": "node/26862655",
        "ele": "2049",
        "name": "Campiña",
        "natural": "peak"
      },
      "geometry": {
        "type": "Point",
        "coordinates": [
          -3.0549937,
          42.0390289
        ]
      },
      "id": "node/26862655"
    },
    {
      "type": "Feature",
      "properties": {
        "@id": "node/552880503",
        "ele": "1369",
        "name": "Peña Amaya",
        "natural": "peak",
        "wikidata": "Q5855758",
        "wikimedia_commons": "Category:Peña Amaya",
        "wikipedia": "es:Peña Amaya"
      },
      "geometry": {
        "type": "Point",
        "coordinates": [
          -4.1445113,
          42.6616971
        ]
      },
      "id": "node/552880503"
    },
    {
      "type": "Feature",
      "properties": {
        "@id": "node/576290635",
        "ele": "1336",
        "name": "La Flecha",
        "natural": "peak"
      },
      "geometry": {
        "type": "Point",
        "coordinates": [
          -3.0441583,
          41.8900437
        ]
      },
      "id": "node/576290635"
    },
    {
      "type": "Feature",
      "properties": {
        "@id": "node/576322251",
        "ele": "2029",
        "name": "Cabeza Aguilez",
        "natural": "peak"
      },
      "geometry": {
        "type": "Point",
        "coordinates": [
          -3.1833777,
          42.2423971
        ]
      },
      "id": "node/576322251"
    },
    {
      "type": "Feature",
      "properties": {
        "@id": "node/576322419",
        "ele": "1929",
        "name": "Torruco Zarzabala",
        "natural": "peak"
      },
      "geometry": {
        "type": "Point",
        "coordinates": [
          -3.1462764,
          42.2408751
        ]
      },
      "id": "node/576322419"
    },
    {
      "type": "Feature",
      "properties": {
        "@id": "node/576322435",
        "ele": "1968",
        "name": "Piñuela",
        "natural": "peak"
      },
      "geometry": {
        "type": "Point",
        "coordinates": [
          -3.1609407,
          42.2365219
        ]
      },
      "id": "node/576322435"
    },
    {
      "type": "Feature",
      "properties": {
        "@id": "node/576854174",
        "ele": "1324",
        "name": "Junta los Altos",
        "natural": "peak"
      },
      "geometry": {
        "type": "Point",
        "coordinates": [
          -3.0589795,
          41.8909865
        ]
      },
      "id": "node/576854174"
    },
    {
      "type": "Feature",
      "properties": {
        "@id": "node/585328685",
        "ele": "688",
        "name": "Cerro de Treviño",
        "name:es": "Cerro de Treviño",
        "name:eu": "Trebiñuko muinoa",
        "natural": "peak",
        "source": "ITACyL"
      },
      "geometry": {
        "type": "Point",
        "coordinates": [
          -2.747092,
          42.7380764
        ]
      },
      "id": "node/585328685"
    },
    {
      "type": "Feature",
      "properties": {
        "@id": "node/588969496",
        "alt_name": "Errosteta;El Brozal",
        "ele": "914",
        "name": "Areatza / Rosteta",
        "natural": "peak"
      },
      "geometry": {
        "type": "Point",
        "coordinates": [
          -2.688175,
          42.7759932
        ]
      },
      "id": "node/588969496"
    },
    {
      "type": "Feature",
      "properties": {
        "@id": "node/679416403",
        "alt_name": "Peña Landarraga",
        "ele": "963",
        "name": "Landarraga",
        "natural": "peak"
      },
      "geometry": {
        "type": "Point",
        "coordinates": [
          -2.6274354,
          42.769376
        ]
      },
      "id": "node/679416403"
    },
    {
      "type": "Feature",
      "properties": {
        "@id": "node/683384479",
        "ele": "895",
        "name": "Askorri",
        "natural": "peak"
      },
      "geometry": {
        "type": "Point",
        "coordinates": [
          -2.648414,
          42.7657956
        ]
      },
      "id": "node/683384479"
    },
    {
      "type": "Feature",
      "properties": {
        "@id": "node/860943636",
        "ele": "1625",
        "name": "Picón del Fraile",
        "natural": "peak",
        "wikidata": "Q110253546",
        "wikipedia": "es:Picón del Fraile"
      },
      "geometry": {
        "type": "Point",
        "coordinates": [
          -3.6493426,
          43.1801641
        ]
      },
      "id": "node/860943636"
    },
    {
      "type": "Feature",
      "properties": {
        "@id": "node/948465770",
        "alt_name": "Cuervo",
        "ele": "999.60",
        "name": "Arrieta",
        "natural": "peak",
        "wikidata": "Q12254127",
        "wikipedia": "eu:Arrieta (mendia)"
      },
      "geometry": {
        "type": "Point",
        "coordinates": [
          -2.7053658,
          42.7843007
        ]
      },
      "id": "node/948465770"
    },
    {
      "type": "Feature",
      "properties": {
        "@id": "node/948466075",
        "ele": "976.30",
        "name": "Busto",
        "natural": "peak",
        "wikidata": "Q115500071"
      },
      "geometry": {
        "type": "Point",
        "coordinates": [
          -2.755002,
          42.7937411
        ]
      },
      "id": "node/948466075"
    },
    {
      "type": "Feature",
      "properties": {
        "@id": "node/948477300",
        "ele": "1718",
        "name": "Castro Valnera",
        "natural": "peak",
        "old_name": "Castro de Agua Sal",
        "wikidata": "Q2748808",
        "wikipedia": "es:Castro Valnera"
      },
      "geometry": {
        "type": "Point",
        "coordinates": [
          -3.6818999,
          43.145849
        ]
      },
      "id": "node/948477300"
    },
    {
      "type": "Feature",
      "properties": {
        "@id": "node/948538006",
        "ele": "1932.20",
        "name": "Mencilla",
        "natural": "peak",
        "wikidata": "Q115506020"
      },
      "geometry": {
        "type": "Point",
        "coordinates": [
          -3.3122849,
          42.1859064
        ]
      },
      "id": "node/948538006"
    },
    {
      "type": "Feature",
      "properties": {
        "@id": "node/948538284",
        "ele": "961.00",
        "name": "Guardia",
        "natural": "peak"
      },
      "geometry": {
        "type": "Point",
        "coordinates": [
          -3.281247,
          42.9908701
        ]
      },
      "id": "node/948538284"
    },
    {
      "type": "Feature",
      "properties": {
        "@id": "node/948539769",
        "ele": "901.10",
        "name": "El Cerro",
        "natural": "peak",
        "wikidata": "Q115502911"
      },
      "geometry": {
        "type": "Point",
        "coordinates": [
          -2.7483389,
          42.7099109
        ]
      },
      "id": "node/948539769"
    },
    {
      "type": "Feature",
      "properties": {
        "@id": "node/948539891",
        "ele": "1434.20",
        "name": "Humarrero",
        "natural": "peak",
        "wikidata": "Q115504225"
      },
      "geometry": {
        "type": "Point",
        "coordinates": [
          -3.2290275,
          42.0861268
        ]
      },
      "id": "node/948539891"
    },
    {
      "type": "Feature",
      "properties": {
        "@id": "node/948540377",
        "ele": "1143.10",
        "name": "Dulla",
        "natural": "peak",
        "wikidata": "Q115502843"
      },
      "geometry": {
        "type": "Point",
        "coordinates": [
          -3.7153433,
          43.0086698
        ]
      },
      "id": "node/948540377"
    },
    {
      "type": "Feature",
      "properties": {
        "@id": "node/948541114",
        "ele": "1038",
        "name": "Castillete de Pancorbo",
        "natural": "peak",
        "wikidata": "Q115501277"
      },
      "geometry": {
        "type": "Point",
        "coordinates": [
          -3.1211353,
          42.6421548
        ]
      },
      "id": "node/948541114"
    },
    {
      "type": "Feature",
      "properties": {
        "@id": "node/948541730",
        "ele": "1091.50",
        "name": "Bedón",
        "natural": "peak",
        "wikidata": "Q115499709"
      },
      "geometry": {
        "type": "Point",
        "coordinates": [
          -3.5317661,
          43.0442924
        ]
      },
      "id": "node/948541730"
    },
    {
      "type": "Feature",
      "properties": {
        "@id": "node/948542018",
        "ele": "1328.90",
        "name": "Pico de la Sierra",
        "natural": "peak",
        "wikidata": "Q115508001"
      },
      "geometry": {
        "type": "Point",
        "coordinates": [
          -3.5495488,
          41.9442649
        ]
      },
      "id": "node/948542018"
    },
    {
      "type": "Feature",
      "properties": {
        "@id": "node/948542743",
        "ele": "1023.70",
        "name": "San Miguel",
        "natural": "peak",
        "wikidata": "Q115509407"
      },
      "geometry": {
        "type": "Point",
        "coordinates": [
          -3.9781195,
          42.5891961
        ]
      },
      "id": "node/948542743"
    },
    {
      "type": "Feature",
      "properties": {
        "@id": "node/948543732",
        "ele": "1566.00",
        "name": "Torruco",
        "natural": "peak",
        "wikidata": "Q115510740"
      },
      "geometry": {
        "type": "Point",
        "coordinates": [
          -3.3975272,
          42.2162788
        ]
      },
      "id": "node/948543732"
    },
    {
      "type": "Feature",
      "properties": {
        "@id": "node/948543851",
        "ele": "927.90",
        "name": "Luzón",
        "natural": "peak",
        "wikidata": "Q115505572"
      },
      "geometry": {
        "type": "Point",
        "coordinates": [
          -3.3681838,
          42.8678176
        ]
      },
      "id": "node/948543851"
    },
    {
      "type": "Feature",
      "properties": {
        "@id": "node/948544507",
        "ele": "1049.30",
        "name": "Paredes",
        "natural": "peak",
        "wikidata": "Q115507382"
      },
      "geometry": {
        "type": "Point",
        "coordinates": [
          -3.2032112,
          43.0410948
        ]
      },
      "id": "node/948544507"
    },
    {
      "type": "Feature",
      "properties": {
        "@id": "node/948544731",
        "ele": "1068.90",
        "name": "Recuenco",
        "natural": "peak",
        "wikidata": "Q115508775"
      },
      "geometry": {
        "type": "Point",
        "coordinates": [
          -3.0976324,
          42.7487121
        ]
      },
      "id": "node/948544731"
    },
    {
      "type": "Feature",
      "properties": {
        "@id": "node/948549100",
        "ele": "1229.60",
        "name": "Peña del Buey",
        "natural": "peak"
      },
      "geometry": {
        "type": "Point",
        "coordinates": [
          -3.1491804,
          42.6786748
        ]
      },
      "id": "node/948549100"
    },
    {
      "type": "Feature",
      "properties": {
        "@id": "node/948549214",
        "ele": "1139.10",
        "name": "Sauce",
        "natural": "peak",
        "wikidata": "Q115509757"
      },
      "geometry": {
        "type": "Point",
        "coordinates": [
          -3.4657373,
          42.2775264
        ]
      },
      "id": "node/948549214"
    },
    {
      "type": "Feature",
      "properties": {
        "@id": "node/948549368",
        "ele": "862.10",
        "name": "Fresnedo",
        "natural": "peak",
        "wikidata": "Q115503576"
      },
      "geometry": {
        "type": "Point",
        "coordinates": [
          -3.5351576,
          42.9933418
        ]
      },
      "id": "node/948549368"
    },
    {
      "type": "Feature",
      "properties": {
        "@id": "node/948550287",
        "alt_name": "Peñalba de Lérdano",
        "ele": "1243.90",
        "name": "Peñalba",
        "natural": "peak",
        "wikidata": "Q115507781"
      },
      "geometry": {
        "type": "Point",
        "coordinates": [
          -3.3088053,
          43.0518534
        ]
      },
      "id": "node/948550287"
    },
    {
      "type": "Feature",
      "properties": {
        "@id": "node/948555196",
        "ele": "1297.40",
        "name": "Revillallanos",
        "natural": "peak"
      },
      "geometry": {
        "type": "Point",
        "coordinates": [
          -3.2005162,
          42.8233291
        ]
      },
      "id": "node/948555196"
    },
    {
      "type": "Feature",
      "properties": {
        "@id": "node/948559198",
        "ele": "1042.60",
        "name": "Hoyas",
        "natural": "peak",
        "wikidata": "Q115504200"
      },
      "geometry": {
        "type": "Point",
        "coordinates": [
          -3.4974925,
          42.4501226
        ]
      },
      "id": "node/948559198"
    },
    {
      "type": "Feature",
      "properties": {
        "@id": "node/948559320",
        "ele": "1140.70",
        "name": "Cuerno",
        "natural": "peak",
        "wikidata": "Q115502539"
      },
      "geometry": {
        "type": "Point",
        "coordinates": [
          -3.3232688,
          41.834399
        ]
      },
      "id": "node/948559320"
    },
    {
      "type": "Feature",
      "properties": {
        "@id": "node/948561040",
        "ele": "1889.50",
        "name": "Pico Ahedillo",
        "natural": "peak"
      },
      "geometry": {
        "type": "Point",
        "coordinates": [
          -3.1179286,
          42.0606775
        ]
      },
      "id": "node/948561040"
    },
    {
      "type": "Feature",
      "properties": {
        "@id": "node/948562144",
        "ele": "1493.20",
        "name": "Alto del Caballo",
        "natural": "peak"
      },
      "geometry": {
        "type": "Point",
        "coordinates": [
          -3.5298888,
          43.124814
        ]
      },
      "id": "node/948562144"
    },
    {
      "type": "Feature",
      "properties": {
        "@id": "node/948563288",
        "ele": "1188.60",
        "name": "San Cristóbal",
        "natural": "peak",
        "wikidata": "Q115509257"
      },
      "geometry": {
        "type": "Point",
        "coordinates": [
          -3.3705267,
          41.8617519
        ]
      },
      "id": "node/948563288"
    },
    {
      "type": "Feature",
      "properties": {
        "@id": "node/948564473",
        "ele": "1358.10",
        "name": "San Vicente",
        "natural": "peak",
        "wikidata": "Q115509500"
      },
      "geometry": {
        "type": "Point",
        "coordinates": [
          -3.1996234,
          42.0421999
        ]
      },
      "id": "node/948564473"
    },
    {
      "type": "Feature",
      "properties": {
        "@id": "node/948564753",
        "ele": "926.00",
        "name": "Castarreño",
        "natural": "peak",
        "wikidata": "Q115501204"
      },
      "geometry": {
        "type": "Point",
        "coordinates": [
          -4.0508211,
          42.3935979
        ]
      },
      "id": "node/948564753"
    },
    {
      "type": "Feature",
      "properties": {
        "@id": "node/948565141",
        "ele": "1375.70",
        "name": "Muela",
        "natural": "peak",
        "wikidata": "Q115506786"
      },
      "geometry": {
        "type": "Point",
        "coordinates": [
          -3.5051814,
          42.0910178
        ]
      },
      "id": "node/948565141"
    },
    {
      "type": "Feature",
      "properties": {
        "@id": "node/948566055",
        "ele": "916.80",
        "name": "Pantarra",
        "natural": "peak",
        "wikidata": "Q115507351"
      },
      "geometry": {
        "type": "Point",
        "coordinates": [
          -3.611425,
          43.0044517
        ]
      },
      "id": "node/948566055"
    },
    {
      "type": "Feature",
      "properties": {
        "@id": "node/948566525",
        "ele": "1019.40",
        "name": "Cuerno Blanco",
        "natural": "peak",
        "wikidata": "Q115502553"
      },
      "geometry": {
        "type": "Point",
        "coordinates": [
          -3.550595,
          41.5964702
        ]
      },
      "id": "node/948566525"
    },
    {
      "type": "Feature",
      "properties": {
        "@id": "node/948568983",
        "ele": "1780.90",
        "name": "Mogosa",
        "natural": "peak",
        "wikidata": "Q115506226"
      },
      "geometry": {
        "type": "Point",
        "coordinates": [
          -3.2415378,
          42.1646972
        ]
      },
      "id": "node/948568983"
    },
    {
      "type": "Feature",
      "properties": {
        "@id": "node/948570145",
        "ele": "1397.70",
        "name": "Las Torres",
        "natural": "peak"
      },
      "geometry": {
        "type": "Point",
        "coordinates": [
          -3.1633687,
          41.9464272
        ]
      },
      "id": "node/948570145"
    },
    {
      "type": "Feature",
      "properties": {
        "@id": "node/948573371",
        "ele": "1338",
        "name": "Flor",
        "natural": "peak",
        "wikidata": "Q115503499"
      },
      "geometry": {
        "type": "Point",
        "coordinates": [
          -3.1642689,
          42.7292065
        ]
      },
      "id": "node/948573371"
    },
    {
      "type": "Feature",
      "properties": {
        "@id": "node/948573783",
        "ele": "903.10",
        "name": "Cotero Quemado",
        "natural": "peak",
        "wikidata": "Q115502255"
      },
      "geometry": {
        "type": "Point",
        "coordinates": [
          -3.3307263,
          42.9582334
        ]
      },
      "id": "node/948573783"
    },
    {
      "type": "Feature",
      "properties": {
        "@id": "node/948574779",
        "ele": "653.90",
        "name": "San Miguel",
        "natural": "peak",
        "wikidata": "Q115509405"
      },
      "geometry": {
        "type": "Point",
        "coordinates": [
          -3.2025338,
          43.1511478
        ]
      },
      "id": "node/948574779"
    },
    {
      "type": "Feature",
      "properties": {
        "@id": "node/948576307",
        "ele": "1005.20",
        "name": "Morotas",
        "natural": "peak",
        "wikidata": "Q115506657"
      },
      "geometry": {
        "type": "Point",
        "coordinates": [
          -3.5810588,
          42.0192521
        ]
      },
      "id": "node/948576307"
    },
    {
      "type": "Feature",
      "properties": {
        "@id": "node/948576961",
        "ele": "1084.40",
        "name": "Santiuste",
        "natural": "peak",
        "wikidata": "Q115509701"
      },
      "geometry": {
        "type": "Point",
        "coordinates": [
          -3.2670944,
          41.9486526
        ]
      },
      "id": "node/948576961"
    },
    {
      "type": "Feature",
      "properties": {
        "@id": "node/948582049",
        "ele": "1094.20",
        "name": "Castro Grande",
        "natural": "peak",
        "wikidata": "Q115501364"
      },
      "geometry": {
        "type": "Point",
        "coordinates": [
          -3.223474,
          43.0896558
        ]
      },
      "id": "node/948582049"
    },
    {
      "type": "Feature",
      "properties": {
        "@id": "node/948582566",
        "ele": "1306.40",
        "name": "Picotas",
        "natural": "peak",
        "wikidata": "Q115508058"
      },
      "geometry": {
        "type": "Point",
        "coordinates": [
          -3.3563927,
          42.1615239
        ]
      },
      "id": "node/948582566"
    },
    {
      "type": "Feature",
      "properties": {
        "@id": "node/948584531",
        "ele": "1084.90",
        "name": "San Vicente",
        "natural": "peak",
        "wikidata": "Q115509499"
      },
      "geometry": {
        "type": "Point",
        "coordinates": [
          -3.5108854,
          42.3514607
        ]
      },
      "id": "node/948584531"
    },
    {
      "type": "Feature",
      "properties": {
        "@id": "node/948584651",
        "ele": "1378.70",
        "name": "Aguila",
        "natural": "peak",
        "wikidata": "Q115498831"
      },
      "geometry": {
        "type": "Point",
        "coordinates": [
          -3.370291,
          41.9357426
        ]
      },
      "id": "node/948584651"
    },
    {
      "type": "Feature",
      "properties": {
        "@id": "node/948586871",
        "ele": "1108.00",
        "name": "Escaño",
        "natural": "peak",
        "wikidata": "Q115503292"
      },
      "geometry": {
        "type": "Point",
        "coordinates": [
          -3.6637671,
          42.9438264
        ]
      },
      "id": "node/948586871"
    },
    {
      "type": "Feature",
      "properties": {
        "@id": "node/948588882",
        "ele": "1333",
        "name": "Peña Corva",
        "natural": "peak",
        "wikidata": "Q115507657"
      },
      "geometry": {
        "type": "Point",
        "coordinates": [
          -3.5369469,
          42.8598722
        ]
      },
      "id": "node/948588882"
    },
    {
      "type": "Feature",
      "properties": {
        "@id": "node/948591896",
        "ele": "1082.40",
        "name": "Matagrande",
        "natural": "peak",
        "wikidata": "Q115505908"
      },
      "geometry": {
        "type": "Point",
        "coordinates": [
          -3.5312854,
          42.3782734
        ]
      },
      "id": "node/948591896"
    },
    {
      "type": "Feature",
      "properties": {
        "@id": "node/948592536",
        "ele": "2130",
        "name": "San Millán",
        "natural": "peak",
        "wikidata": "Q48781639",
        "wikipedia": "es:Pico San Millán"
      },
      "geometry": {
        "type": "Point",
        "coordinates": [
          -3.2062781,
          42.231904
        ]
      },
      "id": "node/948592536"
    },
    {
      "type": "Feature",
      "properties": {
        "@id": "node/948594099",
        "alt_name": "Palogán",
        "ele": "1028.70",
        "name": "Pagogan",
        "natural": "peak",
        "wikidata": "Q115507307"
      },
      "geometry": {
        "type": "Point",
        "coordinates": [
          -2.6145359,
          42.7682744
        ]
      },
      "id": "node/948594099"
    },
    {
      "type": "Feature",
      "properties": {
        "@id": "node/948595926",
        "ele": "962.30",
        "name": "Pelada",
        "natural": "peak",
        "wikidata": "Q115507536"
      },
      "geometry": {
        "type": "Point",
        "coordinates": [
          -3.3904309,
          43.0074745
        ]
      },
      "id": "node/948595926"
    },
    {
      "type": "Feature",
      "properties": {
        "@id": "node/948597739",
        "ele": "1413.80",
        "loc_name": "Peña el Castro",
        "name": "Peña la Valdosa",
        "natural": "peak"
      },
      "geometry": {
        "type": "Point",
        "coordinates": [
          -3.5060513,
          41.9496055
        ]
      },
      "id": "node/948597739"
    },
    {
      "type": "Feature",
      "properties": {
        "@id": "node/1151056515",
        "ele": "1907",
        "name": "Tobolraza",
        "natural": "peak"
      },
      "geometry": {
        "type": "Point",
        "coordinates": [
          -3.1344529,
          42.2409205
        ]
      },
      "id": "node/1151056515"
    },
    {
      "type": "Feature",
      "properties": {
        "@id": "node/1151056529",
        "ele": "2051",
        "name": "Otero",
        "natural": "peak"
      },
      "geometry": {
        "type": "Point",
        "coordinates": [
          -3.1024337,
          42.2318712
        ]
      },
      "id": "node/1151056529"
    },
    {
      "type": "Feature",
      "properties": {
        "@id": "node/1157590834",
        "name": "Collada Regajales",
        "natural": "peak"
      },
      "geometry": {
        "type": "Point",
        "coordinates": [
          -3.2085938,
          42.2144483
        ]
      },
      "id": "node/1157590834"
    },
    {
      "type": "Feature",
      "properties": {
        "@id": "node/1230829578",
        "ele": "851",
        "name": "Cruz de Motrico",
        "natural": "peak",
        "summit:cross": "yes",
        "wikidata": "Q8351959",
        "wikipedia": "es:Cruz de Motrico"
      },
      "geometry": {
        "type": "Point",
        "coordinates": [
          -2.916053,
          42.6318227
        ]
      },
      "id": "node/1230829578"
    },
    {
      "type": "Feature",
      "properties": {
        "@id": "node/1241717827",
        "ele": "950",
        "name": "Peña de la Horca",
        "natural": "peak"
      },
      "geometry": {
        "type": "Point",
        "coordinates": [
          -3.1081505,
          42.871635
        ]
      },
      "id": "node/1241717827"
    },
    {
      "type": "Feature",
      "properties": {
        "@id": "node/1242348619",
        "ele": "938",
        "name": "Alto Tozo",
        "natural": "peak"
      },
      "geometry": {
        "type": "Point",
        "coordinates": [
          -3.3473647,
          42.7616676
        ]
      },
      "id": "node/1242348619"
    },
    {
      "type": "Feature",
      "properties": {
        "@id": "node/1242349400",
        "ele": "927",
        "name": "Alto de Santervás",
        "natural": "peak"
      },
      "geometry": {
        "type": "Point",
        "coordinates": [
          -3.7116908,
          42.3844954
        ]
      },
      "id": "node/1242349400"
    },
    {
      "type": "Feature",
      "properties": {
        "@id": "node/1242350184",
        "ele": "1212",
        "name": "Alto de las Mojoneras",
        "natural": "peak"
      },
      "geometry": {
        "type": "Point",
        "coordinates": [
          -3.2768759,
          42.3164035
        ]
      },
      "id": "node/1242350184"
    },
    {
      "type": "Feature",
      "properties": {
        "@id": "node/1242353607",
        "ele": "941",
        "name": "Peña del Morete",
        "natural": "peak",
        "place": "locality"
      },
      "geometry": {
        "type": "Point",
        "coordinates": [
          -3.1333672,
          42.6514731
        ]
      },
      "id": "node/1242353607"
    },
    {
      "type": "Feature",
      "properties": {
        "@id": "node/1242371848",
        "ele": "844",
        "name": "Alto de la Torrecilla",
        "natural": "peak"
      },
      "geometry": {
        "type": "Point",
        "coordinates": [
          -3.3804953,
          42.9874866
        ]
      },
      "id": "node/1242371848"
    },
    {
      "type": "Feature",
      "properties": {
        "@id": "node/1242374733",
        "ele": "910",
        "name": "Alto del Basil",
        "natural": "peak"
      },
      "geometry": {
        "type": "Point",
        "coordinates": [
          -3.1385312,
          42.8710052
        ]
      },
      "id": "node/1242374733"
    },
    {
      "type": "Feature",
      "properties": {
        "@id": "node/1242378343",
        "ele": "943",
        "name": "Cerro del Castillo",
        "natural": "peak"
      },
      "geometry": {
        "type": "Point",
        "coordinates": [
          -3.1233686,
          42.6392706
        ]
      },
      "id": "node/1242378343"
    },
    {
      "type": "Feature",
      "properties": {
        "@id": "node/1242388474",
        "ele": "964",
        "name": "Cerro del Grajo",
        "natural": "peak"
      },
      "geometry": {
        "type": "Point",
        "coordinates": [
          -3.6899988,
          42.362969
        ]
      },
      "id": "node/1242388474"
    },
    {
      "type": "Feature",
      "properties": {
        "@id": "node/1242388541",
        "ele": "995",
        "name": "Alto del Cubillo",
        "natural": "peak"
      },
      "geometry": {
        "type": "Point",
        "coordinates": [
          -3.5794376,
          42.4042084
        ]
      },
      "id": "node/1242388541"
    },
    {
      "type": "Feature",
      "properties": {
        "@id": "node/1242390821",
        "ele": "575",
        "name": "Cerro de Ribabuitres",
        "natural": "peak"
      },
      "geometry": {
        "type": "Point",
        "coordinates": [
          -3.1470947,
          43.0681915
        ]
      },
      "id": "node/1242390821"
    },
    {
      "type": "Feature",
      "properties": {
        "@id": "node/1242397249",
        "ele": "1151",
        "name": "Cerro de la Muela",
        "natural": "peak"
      },
      "geometry": {
        "type": "Point",
        "coordinates": [
          -3.7150729,
          43.0086522
        ]
      },
      "id": "node/1242397249"
    },
    {
      "type": "Feature",
      "properties": {
        "@id": "node/1242405238",
        "ele": "1164",
        "name": "Peña Grande",
        "natural": "peak",
        "place": "locality"
      },
      "geometry": {
        "type": "Point",
        "coordinates": [
          -3.0333016,
          41.9434026
        ]
      },
      "id": "node/1242405238"
    },
    {
      "type": "Feature",
      "properties": {
        "@id": "node/1242411400",
        "ele": "724",
        "name": "Alto de los Tornos",
        "natural": "peak"
      },
      "geometry": {
        "type": "Point",
        "coordinates": [
          -3.7151802,
          42.8721466
        ]
      },
      "id": "node/1242411400"
    },
    {
      "type": "Feature",
      "properties": {
        "@id": "node/1242413296",
        "ele": "966",
        "name": "Alto de Nuestra Señora",
        "natural": "peak"
      },
      "geometry": {
        "type": "Point",
        "coordinates": [
          -3.6347646,
          42.3783966
        ]
      },
      "id": "node/1242413296"
    },
    {
      "type": "Feature",
      "properties": {
        "@id": "node/1242413593",
        "ele": "963",
        "name": "Cerro de San Miguel",
        "natural": "peak"
      },
      "geometry": {
        "type": "Point",
        "coordinates": [
          -3.7036397,
          42.3506438
        ]
      },
      "id": "node/1242413593"
    },
    {
      "type": "Feature",
      "properties": {
        "@id": "node/1242427845",
        "ele": "757",
        "name": "Peña del Mazo",
        "natural": "peak"
      },
      "geometry": {
        "type": "Point",
        "coordinates": [
          -3.1018892,
          42.6412679
        ]
      },
      "id": "node/1242427845"
    },
    {
      "type": "Feature",
      "properties": {
        "@id": "node/1242433764",
        "ele": "1036",
        "name": "Peña Picada",
        "natural": "peak"
      },
      "geometry": {
        "type": "Point",
        "coordinates": [
          -3.4358237,
          41.9610717
        ]
      },
      "id": "node/1242433764"
    },
    {
      "type": "Feature",
      "properties": {
        "@id": "node/1242434491",
        "ele": "1206",
        "name": "Alto de la Rózola o de las Peñas",
        "natural": "peak"
      },
      "geometry": {
        "type": "Point",
        "coordinates": [
          -3.277641,
          42.3197184
        ]
      },
      "id": "node/1242434491"
    },
    {
      "type": "Feature",
      "properties": {
        "@id": "node/1242434549",
        "ele": "901",
        "name": "Alto del Alguacil",
        "natural": "peak"
      },
      "geometry": {
        "type": "Point",
        "coordinates": [
          -3.7611944,
          42.9170857
        ]
      },
      "id": "node/1242434549"
    },
    {
      "type": "Feature",
      "properties": {
        "@id": "node/1242437194",
        "ele": "953",
        "name": "Cerro Guerra",
        "natural": "peak"
      },
      "geometry": {
        "type": "Point",
        "coordinates": [
          -3.7090691,
          42.3158832
        ]
      },
      "id": "node/1242437194"
    },
    {
      "type": "Feature",
      "properties": {
        "@id": "node/1242443839",
        "ele": "1092",
        "name": "Alto de San Cristóbal",
        "natural": "peak",
        "wikidata": "Q23992310"
      },
      "geometry": {
        "type": "Point",
        "coordinates": [
          -3.6313379,
          42.8552257
        ]
      },
      "id": "node/1242443839"
    },
    {
      "type": "Feature",
      "properties": {
        "@id": "node/1242451594",
        "ele": "1056",
        "name": "El Setal",
        "natural": "peak"
      },
      "geometry": {
        "type": "Point",
        "coordinates": [
          -3.4428223,
          43.0630542
        ]
      },
      "id": "node/1242451594"
    },
    {
      "type": "Feature",
      "properties": {
        "@id": "node/1242454487",
        "ele": "866",
        "name": "La Cubilla",
        "natural": "peak"
      },
      "geometry": {
        "type": "Point",
        "coordinates": [
          -3.2563835,
          42.9299017
        ]
      },
      "id": "node/1242454487"
    },
    {
      "type": "Feature",
      "properties": {
        "@id": "node/1242454755",
        "ele": "955",
        "name": "Pico Castros",
        "natural": "peak"
      },
      "geometry": {
        "type": "Point",
        "coordinates": [
          -3.3548699,
          42.7644864
        ]
      },
      "id": "node/1242454755"
    },
    {
      "type": "Feature",
      "properties": {
        "@id": "node/1242456465",
        "ele": "936",
        "name": "Peña Cabezada",
        "natural": "peak"
      },
      "geometry": {
        "type": "Point",
        "coordinates": [
          -3.6723597,
          42.7670983
        ]
      },
      "id": "node/1242456465"
    },
    {
      "type": "Feature",
      "properties": {
        "@id": "node/1242463005",
        "ele": "954",
        "name": "Alto de Pedernales",
        "natural": "peak"
      },
      "geometry": {
        "type": "Point",
        "coordinates": [
          -3.6929081,
          42.303507
        ]
      },
      "id": "node/1242463005"
    },
    {
      "type": "Feature",
      "properties": {
        "@id": "node/1242487759",
        "ele": "1314",
        "name": "El Montecillo",
        "natural": "peak"
      },
      "geometry": {
        "type": "Point",
        "coordinates": [
          -3.0607298,
          41.9466052
        ]
      },
      "id": "node/1242487759"
    },
    {
      "type": "Feature",
      "properties": {
        "@id": "node/1242488073",
        "ele": "962",
        "name": "Alto de Santimia",
        "natural": "peak",
        "source": "Mapa topográfico Ejército 1955"
      },
      "geometry": {
        "type": "Point",
        "coordinates": [
          -3.6761391,
          42.371754
        ]
      },
      "id": "node/1242488073"
    },
    {
      "type": "Feature",
      "properties": {
        "@id": "node/1242489350",
        "ele": "955",
        "name": "Cuesta del Rey",
        "natural": "peak"
      },
      "geometry": {
        "type": "Point",
        "coordinates": [
          -3.7030391,
          42.3898749
        ]
      },
      "id": "node/1242489350"
    },
    {
      "type": "Feature",
      "properties": {
        "@id": "node/1243230166",
        "ele": "1412",
        "name": "Pico Marica",
        "natural": "peak"
      },
      "geometry": {
        "type": "Point",
        "coordinates": [
          -3.0056338,
          41.9267207
        ]
      },
      "id": "node/1243230166"
    },
    {
      "type": "Feature",
      "properties": {
        "@id": "node/1249814893",
        "ele": "1362",
        "name": "Cueto",
        "natural": "peak",
        "wikidata": "Q66384830"
      },
      "geometry": {
        "type": "Point",
        "coordinates": [
          -3.1465916,
          42.7983659
        ]
      },
      "id": "node/1249814893"
    },
    {
      "type": "Feature",
      "properties": {
        "@id": "node/1249943376",
        "alt_name": "Citorca",
        "ele": "1037",
        "name": "Peña Caballera - Citorca",
        "natural": "peak"
      },
      "geometry": {
        "type": "Point",
        "coordinates": [
          -3.5814935,
          43.0455374
        ]
      },
      "id": "node/1249943376"
    },
    {
      "type": "Feature",
      "properties": {
        "@id": "node/1249943394",
        "ele": "741",
        "name": "Alto del Tejo",
        "natural": "peak"
      },
      "geometry": {
        "type": "Point",
        "coordinates": [
          -3.4840611,
          42.6228836
        ]
      },
      "id": "node/1249943394"
    },
    {
      "type": "Feature",
      "properties": {
        "@id": "node/1249943420",
        "ele": "1781",
        "name": "Cerro del Fraile",
        "natural": "peak"
      },
      "geometry": {
        "type": "Point",
        "coordinates": [
          -2.9738759,
          42.0318885
        ]
      },
      "id": "node/1249943420"
    },
    {
      "type": "Feature",
      "properties": {
        "@id": "node/1249943548",
        "ele": "1026",
        "name": "Alto de Hoyos",
        "natural": "peak"
      },
      "geometry": {
        "type": "Point",
        "coordinates": [
          -3.9272197,
          42.6510095
        ]
      },
      "id": "node/1249943548"
    },
    {
      "type": "Feature",
      "properties": {
        "@id": "node/1249943631",
        "ele": "579",
        "name": "San Bartolomé",
        "natural": "peak"
      },
      "geometry": {
        "type": "Point",
        "coordinates": [
          -3.1822373,
          43.1362673
        ]
      },
      "id": "node/1249943631"
    },
    {
      "type": "Feature",
      "properties": {
        "@id": "node/1249943837",
        "ele": "1451",
        "name": "Monte Carmona",
        "natural": "peak"
      },
      "geometry": {
        "type": "Point",
        "coordinates": [
          -3.066393,
          41.9356168
        ]
      },
      "id": "node/1249943837"
    },
    {
      "type": "Feature",
      "properties": {
        "@id": "node/1249943932",
        "ele": "1086",
        "name": "Peña del Agujero",
        "natural": "peak"
      },
      "geometry": {
        "type": "Point",
        "coordinates": [
          -3.4998599,
          42.8256981
        ]
      },
      "id": "node/1249943932"
    },
    {
      "type": "Feature",
      "properties": {
        "@id": "node/1249943994",
        "ele": "666",
        "name": "Alto de las Viñas",
        "natural": "peak"
      },
      "geometry": {
        "type": "Point",
        "coordinates": [
          -3.4041814,
          42.6340088
        ]
      },
      "id": "node/1249943994"
    },
    {
      "type": "Feature",
      "properties": {
        "@id": "node/1249944386",
        "ele": "1366",
        "name": "Pico Polluelo",
        "natural": "peak"
      },
      "geometry": {
        "type": "Point",
        "coordinates": [
          -3.6946097,
          43.0781285
        ]
      },
      "id": "node/1249944386"
    },
    {
      "type": "Feature",
      "properties": {
        "@id": "node/1249944422",
        "ele": "743",
        "name": "Alto de la Cruz",
        "natural": "peak"
      },
      "geometry": {
        "type": "Point",
        "coordinates": [
          -3.491299,
          42.6041927
        ]
      },
      "id": "node/1249944422"
    },
    {
      "type": "Feature",
      "properties": {
        "@id": "node/1249944453",
        "name": "Cerro Raspaneras",
        "natural": "peak"
      },
      "geometry": {
        "type": "Point",
        "coordinates": [
          -3.8168858,
          42.9596855
        ]
      },
      "id": "node/1249944453"
    },
    {
      "type": "Feature",
      "properties": {
        "@id": "node/1249944829",
        "ele": "852",
        "name": "Pico Valdeabuz",
        "natural": "peak"
      },
      "geometry": {
        "type": "Point",
        "coordinates": [
          -3.6072415,
          42.8763544
        ]
      },
      "id": "node/1249944829"
    },
    {
      "type": "Feature",
      "properties": {
        "@id": "node/1249945011",
        "ele": "719",
        "name": "Peña Lastra",
        "natural": "peak"
      },
      "geometry": {
        "type": "Point",
        "coordinates": [
          -3.2949811,
          43.1305989
        ]
      },
      "id": "node/1249945011"
    },
    {
      "type": "Feature",
      "properties": {
        "@id": "node/1249945148",
        "ele": "991",
        "name": "Alto de la Varga",
        "natural": "peak"
      },
      "geometry": {
        "type": "Point",
        "coordinates": [
          -3.3947897,
          42.5563855
        ]
      },
      "id": "node/1249945148"
    },
    {
      "type": "Feature",
      "properties": {
        "@id": "node/1249945445",
        "ele": "1514",
        "name": "Alto de Corcusa",
        "natural": "peak"
      },
      "geometry": {
        "type": "Point",
        "coordinates": [
          -3.1005424,
          42.2998791
        ]
      },
      "id": "node/1249945445"
    },
    {
      "type": "Feature",
      "properties": {
        "@id": "node/1249946023",
        "ele": "1035",
        "name": "Alto del Cuadro",
        "natural": "peak"
      },
      "geometry": {
        "type": "Point",
        "coordinates": [
          -3.5752136,
          42.7067542
        ]
      },
      "id": "node/1249946023"
    },
    {
      "type": "Feature",
      "properties": {
        "@id": "node/1249947267",
        "ele": "938",
        "name": "Pico de las Labradas",
        "natural": "peak"
      },
      "geometry": {
        "type": "Point",
        "coordinates": [
          -3.5794941,
          42.8561011
        ]
      },
      "id": "node/1249947267"
    },
    {
      "type": "Feature",
      "properties": {
        "@id": "node/1249947339",
        "ele": "924",
        "name": "Alto del Solomillo",
        "natural": "peak"
      },
      "geometry": {
        "type": "Point",
        "coordinates": [
          -3.4743562,
          43.0361611
        ]
      },
      "id": "node/1249947339"
    },
    {
      "type": "Feature",
      "properties": {
        "@id": "node/1249947416",
        "ele": "703",
        "name": "Peña Adrián",
        "natural": "peak"
      },
      "geometry": {
        "type": "Point",
        "coordinates": [
          -3.0026531,
          42.6598446
        ]
      },
      "id": "node/1249947416"
    },
    {
      "type": "Feature",
      "properties": {
        "@id": "node/1249947702",
        "ele": "1602",
        "name": "Torruca",
        "natural": "peak"
      },
      "geometry": {
        "type": "Point",
        "coordinates": [
          -3.1459547,
          42.2211067
        ]
      },
      "id": "node/1249947702"
    },
    {
      "type": "Feature",
      "properties": {
        "@id": "node/1249948192",
        "ele": "881",
        "name": "Alto de las Solanas",
        "natural": "peak"
      },
      "geometry": {
        "type": "Point",
        "coordinates": [
          -3.490163,
          42.7933954
        ]
      },
      "id": "node/1249948192"
    },
    {
      "type": "Feature",
      "properties": {
        "@id": "node/1249948452",
        "ele": "1028",
        "name": "Alto de las Matas",
        "natural": "peak"
      },
      "geometry": {
        "type": "Point",
        "coordinates": [
          -3.7977205,
          42.9398221
        ]
      },
      "id": "node/1249948452"
    },
    {
      "type": "Feature",
      "properties": {
        "@id": "node/1249948633",
        "ele": "1819",
        "name": "Cerro Garañón",
        "natural": "peak"
      },
      "geometry": {
        "type": "Point",
        "coordinates": [
          -3.0342891,
          42.0859506
        ]
      },
      "id": "node/1249948633"
    },
    {
      "type": "Feature",
      "properties": {
        "@id": "node/1249948967",
        "ele": "1005",
        "mountain_pass": "yes",
        "name": "Alto de la Mazorra",
        "natural": "peak"
      },
      "geometry": {
        "type": "Point",
        "coordinates": [
          -3.6182539,
          42.8153216
        ]
      },
      "id": "node/1249948967"
    },
    {
      "type": "Feature",
      "properties": {
        "@id": "node/1249949192",
        "ele": "869",
        "name": "Alto de la Cavadilla",
        "natural": "peak"
      },
      "geometry": {
        "type": "Point",
        "coordinates": [
          -3.6139835,
          42.9348781
        ]
      },
      "id": "node/1249949192"
    },
    {
      "type": "Feature",
      "properties": {
        "@id": "node/1249949384",
        "ele": "1691",
        "name": "Cerro de Lagunilla",
        "natural": "peak"
      },
      "geometry": {
        "type": "Point",
        "coordinates": [
          -2.9642144,
          42.0456068
        ]
      },
      "id": "node/1249949384"
    },
    {
      "type": "Feature",
      "properties": {
        "@id": "node/1249949481",
        "name": "Peña Cereceda",
        "natural": "peak"
      },
      "geometry": {
        "type": "Point",
        "coordinates": [
          -3.4459944,
          42.7713148
        ]
      },
      "id": "node/1249949481"
    },
    {
      "type": "Feature",
      "properties": {
        "@id": "node/1249949662",
        "ele": "838",
        "name": "Pico del Gavilán",
        "natural": "peak"
      },
      "geometry": {
        "type": "Point",
        "coordinates": [
          -3.5564575,
          43.0181426
        ]
      },
      "id": "node/1249949662"
    },
    {
      "type": "Feature",
      "properties": {
        "@id": "node/1249949675",
        "ele": "713",
        "name": "Alto de Santa Lucía",
        "natural": "peak"
      },
      "geometry": {
        "type": "Point",
        "coordinates": [
          -3.4231237,
          42.6052663
        ]
      },
      "id": "node/1249949675"
    },
    {
      "type": "Feature",
      "properties": {
        "@id": "node/1249949742",
        "ele": "2008",
        "name": "Alto de la Campiña",
        "natural": "peak"
      },
      "geometry": {
        "type": "Point",
        "coordinates": [
          -3.0766197,
          42.0536092
        ]
      },
      "id": "node/1249949742"
    },
    {
      "type": "Feature",
      "properties": {
        "@id": "node/1249949870",
        "name": "Pico Escarcha",
        "natural": "peak"
      },
      "geometry": {
        "type": "Point",
        "coordinates": [
          -3.9136536,
          41.596256
        ]
      },
      "id": "node/1249949870"
    },
    {
      "type": "Feature",
      "properties": {
        "@id": "node/1249949900",
        "ele": "1143",
        "name": "Alto del Cerro",
        "natural": "peak"
      },
      "geometry": {
        "type": "Point",
        "coordinates": [
          -3.663599,
          42.7418186
        ]
      },
      "id": "node/1249949900"
    },
    {
      "type": "Feature",
      "properties": {
        "@id": "node/1249950043",
        "ele": "1006",
        "name": "Pico Romero",
        "natural": "peak"
      },
      "geometry": {
        "type": "Point",
        "coordinates": [
          -3.5496909,
          41.5919619
        ]
      },
      "id": "node/1249950043"
    },
    {
      "type": "Feature",
      "properties": {
        "@id": "node/1249950433",
        "ele": "1092",
        "name": "Coterejón",
        "natural": "peak"
      },
      "geometry": {
        "type": "Point",
        "coordinates": [
          -3.6731056,
          42.9514194
        ]
      },
      "id": "node/1249950433"
    },
    {
      "type": "Feature",
      "properties": {
        "@id": "node/1249950924",
        "ele": "1005",
        "name": "El Picacho",
        "natural": "peak"
      },
      "geometry": {
        "type": "Point",
        "coordinates": [
          -3.4137254,
          41.7792736
        ]
      },
      "id": "node/1249950924"
    },
    {
      "type": "Feature",
      "properties": {
        "@id": "node/1249951603",
        "ele": "1268",
        "name": "La Lunada",
        "natural": "peak"
      },
      "geometry": {
        "type": "Point",
        "coordinates": [
          -3.1586816,
          42.7992585
        ]
      },
      "id": "node/1249951603"
    },
    {
      "type": "Feature",
      "properties": {
        "@id": "node/1249952159",
        "ele": "839",
        "name": "Alto Rebutilla",
        "natural": "peak"
      },
      "geometry": {
        "type": "Point",
        "coordinates": [
          -3.3939654,
          42.5784253
        ]
      },
      "id": "node/1249952159"
    },
    {
      "type": "Feature",
      "properties": {
        "@id": "node/1249952620",
        "ele": "1761",
        "name": "Peña Quemada",
        "natural": "peak"
      },
      "geometry": {
        "type": "Point",
        "coordinates": [
          -2.9325386,
          42.0809391
        ]
      },
      "id": "node/1249952620"
    },
    {
      "type": "Feature",
      "properties": {
        "@id": "node/1249952984",
        "alt_name": "Trasmosomos",
        "ele": "695",
        "name": "Alto de la Celadilla",
        "natural": "peak"
      },
      "geometry": {
        "type": "Point",
        "coordinates": [
          -3.1758604,
          43.1754968
        ]
      },
      "id": "node/1249952984"
    },
    {
      "type": "Feature",
      "properties": {
        "@id": "node/1249953168",
        "ele": "1136",
        "name": "Alto del Barrancón",
        "natural": "peak"
      },
      "geometry": {
        "type": "Point",
        "coordinates": [
          -4.1551138,
          42.662519
        ]
      },
      "id": "node/1249953168"
    },
    {
      "type": "Feature",
      "properties": {
        "@id": "node/1249953296",
        "ele": "832",
        "name": "Alto de la Frontera",
        "natural": "peak"
      },
      "geometry": {
        "type": "Point",
        "coordinates": [
          -3.3466571,
          43.0049309
        ]
      },
      "id": "node/1249953296"
    },
    {
      "type": "Feature",
      "properties": {
        "@id": "node/1249954010",
        "ele": "1006",
        "name": "Pico de Casares",
        "natural": "peak"
      },
      "geometry": {
        "type": "Point",
        "coordinates": [
          -3.6822736,
          42.8562299
        ]
      },
      "id": "node/1249954010"
    },
    {
      "type": "Feature",
      "properties": {
        "@id": "node/1249954182",
        "ele": "876",
        "name": "Alto de la Cotorra",
        "natural": "peak"
      },
      "geometry": {
        "type": "Point",
        "coordinates": [
          -3.4704102,
          43.0273796
        ]
      },
      "id": "node/1249954182"
    },
    {
      "type": "Feature",
      "properties": {
        "@id": "node/1249954387",
        "ele": "1002",
        "name": "Peña las Yeguas",
        "natural": "peak"
      },
      "geometry": {
        "type": "Point",
        "coordinates": [
          -3.0835759,
          42.6264934
        ]
      },
      "id": "node/1249954387"
    },
    {
      "type": "Feature",
      "properties": {
        "@id": "node/1249954535",
        "ele": "1909",
        "name": "Pico Toscoso",
        "natural": "peak"
      },
      "geometry": {
        "type": "Point",
        "coordinates": [
          -2.9601395,
          42.0238777
        ]
      },
      "id": "node/1249954535"
    },
    {
      "type": "Feature",
      "properties": {
        "@id": "node/1249954575",
        "ele": "812",
        "name": "Alto de Zozana",
        "natural": "peak"
      },
      "geometry": {
        "type": "Point",
        "coordinates": [
          -3.6350191,
          42.9767803
        ]
      },
      "id": "node/1249954575"
    },
    {
      "type": "Feature",
      "properties": {
        "@id": "node/1249955473",
        "ele": "1514",
        "name": "Nevero del Poyuelo",
        "natural": "peak"
      },
      "geometry": {
        "type": "Point",
        "coordinates": [
          -3.695198,
          43.090675
        ]
      },
      "id": "node/1249955473"
    },
    {
      "type": "Feature",
      "properties": {
        "@id": "node/1249955785",
        "name": "Alto de las Cruces",
        "natural": "peak"
      },
      "geometry": {
        "type": "Point",
        "coordinates": [
          -3.9115726,
          42.641355
        ]
      },
      "id": "node/1249955785"
    },
    {
      "type": "Feature",
      "properties": {
        "@id": "node/1249956137",
        "ele": "457",
        "name": "Alto Monides",
        "natural": "peak"
      },
      "geometry": {
        "type": "Point",
        "coordinates": [
          -3.1715709,
          43.1030918
        ]
      },
      "id": "node/1249956137"
    },
    {
      "type": "Feature",
      "properties": {
        "@id": "node/1249957003",
        "ele": "1175",
        "name": "Peña Mesa",
        "natural": "peak"
      },
      "geometry": {
        "type": "Point",
        "coordinates": [
          -4.2165747,
          42.698707
        ]
      },
      "id": "node/1249957003"
    },
    {
      "type": "Feature",
      "properties": {
        "@id": "node/1249957324",
        "ele": "1172",
        "name": "Tres Dedos",
        "natural": "peak"
      },
      "geometry": {
        "type": "Point",
        "coordinates": [
          -3.2785062,
          43.0610104
        ]
      },
      "id": "node/1249957324"
    },
    {
      "type": "Feature",
      "properties": {
        "@id": "node/1249957640",
        "ele": "1461",
        "name": "Picote las Cabezas",
        "natural": "peak"
      },
      "geometry": {
        "type": "Point",
        "coordinates": [
          -3.1371338,
          42.2985921
        ]
      },
      "id": "node/1249957640"
    },
    {
      "type": "Feature",
      "properties": {
        "@id": "node/1249957659",
        "ele": "1026",
        "name": "Alto de la Nevera",
        "natural": "peak"
      },
      "geometry": {
        "type": "Point",
        "coordinates": [
          -3.6816624,
          42.9365625
        ]
      },
      "id": "node/1249957659"
    },
    {
      "type": "Feature",
      "properties": {
        "@id": "node/1249958166",
        "ele": "1048",
        "name": "Alto del Corvellar",
        "natural": "peak"
      },
      "geometry": {
        "type": "Point",
        "coordinates": [
          -3.5756312,
          42.7222319
        ]
      },
      "id": "node/1249958166"
    },
    {
      "type": "Feature",
      "properties": {
        "@id": "node/1249958426",
        "ele": "938",
        "name": "Cerro de las Cruces",
        "natural": "peak"
      },
      "geometry": {
        "type": "Point",
        "coordinates": [
          -3.7561525,
          42.978454
        ]
      },
      "id": "node/1249958426"
    },
    {
      "type": "Feature",
      "properties": {
        "@id": "node/1249958893",
        "ele": "1718",
        "name": "Peña del Prado",
        "natural": "peak"
      },
      "geometry": {
        "type": "Point",
        "coordinates": [
          -3.0383745,
          42.0915019
        ]
      },
      "id": "node/1249958893"
    },
    {
      "type": "Feature",
      "properties": {
        "@id": "node/1249959077",
        "ele": "1027",
        "name": "Alto del Montón",
        "natural": "peak"
      },
      "geometry": {
        "type": "Point",
        "coordinates": [
          -3.6190146,
          42.7460901
        ]
      },
      "id": "node/1249959077"
    },
    {
      "type": "Feature",
      "properties": {
        "@id": "node/1249959292",
        "alt_name": "Peña la Maya",
        "ele": "1328",
        "name": "Pico del Águila",
        "natural": "peak",
        "source": "Instituto Geográfico Nacional"
      },
      "geometry": {
        "type": "Point",
        "coordinates": [
          -3.1864836,
          42.6918385
        ]
      },
      "id": "node/1249959292"
    },
    {
      "type": "Feature",
      "properties": {
        "@id": "node/1249960199",
        "ele": "1172",
        "name": "Alto de Tesla o La Muñeca",
        "natural": "peak"
      },
      "geometry": {
        "type": "Point",
        "coordinates": [
          -3.440584,
          42.8083222
        ]
      },
      "id": "node/1249960199"
    },
    {
      "type": "Feature",
      "properties": {
        "@id": "node/1249960492",
        "ele": "1164",
        "name": "Pico del Cueto",
        "natural": "peak"
      },
      "geometry": {
        "type": "Point",
        "coordinates": [
          -3.8185053,
          42.9292124
        ]
      },
      "id": "node/1249960492"
    },
    {
      "type": "Feature",
      "properties": {
        "@id": "node/1249960971",
        "ele": "1896",
        "name": "Alto de Ahedillo",
        "natural": "peak"
      },
      "geometry": {
        "type": "Point",
        "coordinates": [
          -3.1075756,
          42.0567226
        ]
      },
      "id": "node/1249960971"
    },
    {
      "type": "Feature",
      "properties": {
        "@id": "node/1249961003",
        "ele": "1109",
        "name": "Peña Corvilla",
        "natural": "peak"
      },
      "geometry": {
        "type": "Point",
        "coordinates": [
          -3.2650568,
          43.0662559
        ]
      },
      "id": "node/1249961003"
    },
    {
      "type": "Feature",
      "properties": {
        "@id": "node/1249961012",
        "ele": "1134",
        "name": "Alto de la Lata",
        "natural": "peak"
      },
      "geometry": {
        "type": "Point",
        "coordinates": [
          -3.6389144,
          42.7252587
        ]
      },
      "id": "node/1249961012"
    },
    {
      "type": "Feature",
      "properties": {
        "@id": "node/1249961124",
        "name": "Peña del Cinto",
        "natural": "peak"
      },
      "geometry": {
        "type": "Point",
        "coordinates": [
          -4.2048813,
          42.6659968
        ]
      },
      "id": "node/1249961124"
    },
    {
      "type": "Feature",
      "properties": {
        "@id": "node/1249961200",
        "ele": "1053",
        "name": "Cerro de Porterín",
        "natural": "peak"
      },
      "geometry": {
        "type": "Point",
        "coordinates": [
          -3.6721918,
          42.8781062
        ]
      },
      "id": "node/1249961200"
    },
    {
      "type": "Feature",
      "properties": {
        "@id": "node/1249961384",
        "ele": "1645",
        "name": "Cerro de Sobralejos",
        "natural": "peak"
      },
      "geometry": {
        "type": "Point",
        "coordinates": [
          -2.9617396,
          42.0516782
        ]
      },
      "id": "node/1249961384"
    },
    {
      "type": "Feature",
      "properties": {
        "@id": "node/1304105707",
        "name": "Peña Mendikotxe",
        "natural": "peak",
        "source": "Instituto Geográfico Nacional",
        "source:date": "201011"
      },
      "geometry": {
        "type": "Point",
        "coordinates": [
          -2.6085432,
          42.7495347
        ]
      },
      "id": "node/1304105707"
    },
    {
      "type": "Feature",
      "properties": {
        "@id": "node/1304107319",
        "name": "Cerro Amperiz",
        "natural": "peak",
        "source": "Instituto Geográfico Nacional",
        "source:date": "201011"
      },
      "geometry": {
        "type": "Point",
        "coordinates": [
          -2.6793282,
          42.7259632
        ]
      },
      "id": "node/1304107319"
    },
    {
      "type": "Feature",
      "properties": {
        "@id": "node/1304109069",
        "name": "Alto de las Cruces",
        "natural": "peak",
        "source": "Instituto Geográfico Nacional",
        "source:date": "201011"
      },
      "geometry": {
        "type": "Point",
        "coordinates": [
          -2.5426612,
          42.6762092
        ]
      },
      "id": "node/1304109069"
    },
    {
      "type": "Feature",
      "properties": {
        "@id": "node/1304111090",
        "ele": "835",
        "name": "Alto del Silo",
        "natural": "peak",
        "source": "Instituto Geográfico Nacional",
        "source:date": "201011"
      },
      "geometry": {
        "type": "Point",
        "coordinates": [
          -2.783495,
          42.7008943
        ]
      },
      "id": "node/1304111090"
    },
    {
      "type": "Feature",
      "properties": {
        "@id": "node/1304113528",
        "alt_name": "Peña Bilboreta",
        "ele": "903",
        "name": "Bilboreta",
        "natural": "peak",
        "source": "Instituto Geográfico Nacional",
        "source:date": "201011"
      },
      "geometry": {
        "type": "Point",
        "coordinates": [
          -2.734678,
          42.785795
        ]
      },
      "id": "node/1304113528"
    },
    {
      "type": "Feature",
      "properties": {
        "@id": "node/1304113885",
        "name": "Monte Treviño",
        "natural": "peak",
        "source": "Instituto Geográfico Nacional",
        "source:date": "201011"
      },
      "geometry": {
        "type": "Point",
        "coordinates": [
          -2.7278904,
          42.7515123
        ]
      },
      "id": "node/1304113885"
    },
    {
      "type": "Feature",
      "properties": {
        "@id": "node/1304120268",
        "name": "Peñas de Uriatxa",
        "natural": "peak",
        "source": "Instituto Geográfico Nacional",
        "source:date": "201011"
      },
      "geometry": {
        "type": "Point",
        "coordinates": [
          -2.5892814,
          42.6764677
        ]
      },
      "id": "node/1304120268"
    },
    {
      "type": "Feature",
      "properties": {
        "@id": "node/1304127748",
        "name": "Cerro Bujarral",
        "natural": "peak",
        "source": "Instituto Geográfico Nacional",
        "source:date": "201011"
      },
      "geometry": {
        "type": "Point",
        "coordinates": [
          -2.5933875,
          42.6756539
        ]
      },
      "id": "node/1304127748"
    },
    {
      "type": "Feature",
      "properties": {
        "@id": "node/1304130333",
        "ele": "789",
        "name": "Peña Gometiza",
        "natural": "peak",
        "source": "Instituto Geográfico Nacional",
        "source:date": "201011"
      },
      "geometry": {
        "type": "Point",
        "coordinates": [
          -2.6773421,
          42.7695443
        ]
      },
      "id": "node/1304130333"
    },
    {
      "type": "Feature",
      "properties": {
        "@id": "node/1304132339",
        "name": "Peña de la Saguandilla",
        "natural": "peak",
        "source": "Instituto Geográfico Nacional",
        "source:date": "201011"
      },
      "geometry": {
        "type": "Point",
        "coordinates": [
          -2.6150732,
          42.6778995
        ]
      },
      "id": "node/1304132339"
    },
    {
      "type": "Feature",
      "properties": {
        "@id": "node/1304133692",
        "ele": "893",
        "name": "Peña Arrate",
        "natural": "peak",
        "source": "Instituto Geográfico Nacional",
        "source:date": "201011"
      },
      "geometry": {
        "type": "Point",
        "coordinates": [
          -2.6475407,
          42.7579024
        ]
      },
      "id": "node/1304133692"
    },
    {
      "type": "Feature",
      "properties": {
        "@id": "node/1304139310",
        "name": "Cerroalto",
        "natural": "peak",
        "source": "Instituto Geográfico Nacional",
        "source:date": "201011"
      },
      "geometry": {
        "type": "Point",
        "coordinates": [
          -2.5255769,
          42.6743113
        ]
      },
      "id": "node/1304139310"
    },
    {
      "type": "Feature",
      "properties": {
        "@id": "node/1704287288",
        "alt_name": "Castro Mosquía",
        "ele": "1412",
        "name": "Castro del Horno Norte",
        "natural": "peak"
      },
      "geometry": {
        "type": "Point",
        "coordinates": [
          -3.7085217,
          43.1023225
        ]
      },
      "id": "node/1704287288"
    },
    {
      "type": "Feature",
      "properties": {
        "@id": "node/1704287291",
        "alt_name": "Castro Palomera",
        "ele": "1406",
        "name": "Castro del Horno Sur",
        "natural": "peak"
      },
      "geometry": {
        "type": "Point",
        "coordinates": [
          -3.7058874,
          43.0998253
        ]
      },
      "id": "node/1704287291"
    },
    {
      "type": "Feature",
      "properties": {
        "@id": "node/1888844387",
        "ele": "1096",
        "name": "Peñalta",
        "natural": "peak",
        "tourism": "viewpoint"
      },
      "geometry": {
        "type": "Point",
        "coordinates": [
          -3.3203793,
          42.3691825
        ]
      },
      "id": "node/1888844387"
    },
    {
      "type": "Feature",
      "properties": {
        "@id": "node/1992707137",
        "ele": "947",
        "name": "Cerro del Montecillo",
        "natural": "peak"
      },
      "geometry": {
        "type": "Point",
        "coordinates": [
          -3.6968067,
          42.3590148
        ]
      },
      "id": "node/1992707137"
    },
    {
      "type": "Feature",
      "properties": {
        "@id": "node/2080285482",
        "ele": "1946",
        "name": "Poborlaza",
        "natural": "peak"
      },
      "geometry": {
        "type": "Point",
        "coordinates": [
          -3.119103,
          42.2332702
        ]
      },
      "id": "node/2080285482"
    },
    {
      "type": "Feature",
      "properties": {
        "@id": "node/2393723985",
        "alt_name": "Peña Negra",
        "ele": "1496",
        "name": "La Capía",
        "natural": "peak"
      },
      "geometry": {
        "type": "Point",
        "coordinates": [
          -3.6881748,
          43.1327055
        ]
      },
      "id": "node/2393723985"
    },
    {
      "type": "Feature",
      "properties": {
        "@id": "node/2395109520",
        "ele": "1412",
        "name": "Alto de la Piluca",
        "natural": "peak"
      },
      "geometry": {
        "type": "Point",
        "coordinates": [
          -3.6707641,
          43.155782
        ]
      },
      "id": "node/2395109520"
    },
    {
      "type": "Feature",
      "properties": {
        "@id": "node/2614126972",
        "ele": "911",
        "name": "Terreros",
        "natural": "peak"
      },
      "geometry": {
        "type": "Point",
        "coordinates": [
          -3.254598,
          43.194933
        ]
      },
      "id": "node/2614126972"
    },
    {
      "type": "Feature",
      "properties": {
        "@id": "node/2789324930",
        "ele": "1531",
        "name": "Alto de la Cerca",
        "natural": "peak"
      },
      "geometry": {
        "type": "Point",
        "coordinates": [
          -3.3786382,
          42.2504697
        ]
      },
      "id": "node/2789324930"
    },
    {
      "type": "Feature",
      "properties": {
        "@id": "node/2905971183",
        "ele": "1027",
        "name": "Txolope",
        "natural": "peak"
      },
      "geometry": {
        "type": "Point",
        "coordinates": [
          -3.045035,
          42.9863635
        ]
      },
      "id": "node/2905971183"
    },
    {
      "type": "Feature",
      "properties": {
        "@id": "node/2911945297",
        "ele": "933",
        "name": "Txarlazo",
        "name:es": "Charlazo",
        "name:eu": "Txarlazo",
        "natural": "peak",
        "wikidata": "Q12268336",
        "wikimedia_commons": "Category:Txarlazo",
        "wikipedia": "eu:Txarlazo"
      },
      "geometry": {
        "type": "Point",
        "coordinates": [
          -3.0372084,
          42.9818797
        ]
      },
      "id": "node/2911945297"
    },
    {
      "type": "Feature",
      "properties": {
        "@id": "node/3285628966",
        "ele": "1199",
        "name": "Cuchillos",
        "natural": "peak"
      },
      "geometry": {
        "type": "Point",
        "coordinates": [
          -3.3766674,
          42.7138488
        ]
      },
      "id": "node/3285628966"
    },
    {
      "type": "Feature",
      "properties": {
        "@id": "node/3286348700",
        "ele": "1248",
        "name": "Tablones",
        "natural": "peak"
      },
      "geometry": {
        "type": "Point",
        "coordinates": [
          -3.4733532,
          42.763942
        ]
      },
      "id": "node/3286348700"
    },
    {
      "type": "Feature",
      "properties": {
        "@id": "node/3286741783",
        "ele": "1234",
        "name": "Pan Perdido",
        "natural": "peak"
      },
      "geometry": {
        "type": "Point",
        "coordinates": [
          -3.3042138,
          42.6941645
        ]
      },
      "id": "node/3286741783"
    },
    {
      "type": "Feature",
      "properties": {
        "@id": "node/3286916918",
        "ele": "1084",
        "name": "Corral Nuevo",
        "natural": "peak"
      },
      "geometry": {
        "type": "Point",
        "coordinates": [
          -3.8716273,
          42.7410609
        ]
      },
      "id": "node/3286916918"
    },
    {
      "type": "Feature",
      "properties": {
        "@id": "node/3296716416",
        "ele": "1359",
        "ideewfs:nombre": "Carrascosa",
        "ideewfs:numeroROI": "8465",
        "name": "Carrascosa",
        "natural": "peak"
      },
      "geometry": {
        "type": "Point",
        "coordinates": [
          -3.6189923,
          43.0934223
        ]
      },
      "id": "node/3296716416"
    },
    {
      "type": "Feature",
      "properties": {
        "@id": "node/3296716418",
        "ele": "1574",
        "name": "Lusa",
        "natural": "peak",
        "wikidata": "Q110414230",
        "wikipedia": "es:Peña Lusa"
      },
      "geometry": {
        "type": "Point",
        "coordinates": [
          -3.6140538,
          43.169811
        ]
      },
      "id": "node/3296716418"
    },
    {
      "type": "Feature",
      "properties": {
        "@id": "node/3296721238",
        "alt_name": "San Pol",
        "ele": "974",
        "loc_name": "San Pol",
        "name": "San Pedro",
        "natural": "peak",
        "source": "IDEE",
        "source:filename": "Geodesia - Red Regente_-18.75587_27.36158_4.36897_43.81842.gml",
        "source:name": "Infraestructura de Datos Espaciales de España"
      },
      "geometry": {
        "type": "Point",
        "coordinates": [
          -3.4288285,
          42.9185688
        ]
      },
      "id": "node/3296721238"
    },
    {
      "type": "Feature",
      "properties": {
        "@id": "node/3296744573",
        "ele": "1194",
        "name": "Cielma",
        "natural": "peak"
      },
      "geometry": {
        "type": "Point",
        "coordinates": [
          -3.793512,
          42.9241093
        ]
      },
      "id": "node/3296744573"
    },
    {
      "type": "Feature",
      "properties": {
        "@id": "node/3296744574",
        "ele": "1165",
        "name": "Maza",
        "natural": "peak"
      },
      "geometry": {
        "type": "Point",
        "coordinates": [
          -3.7881675,
          43.0018997
        ]
      },
      "id": "node/3296744574"
    },
    {
      "type": "Feature",
      "properties": {
        "@id": "node/3296744576",
        "ele": "1258",
        "name": "Peña Otero",
        "natural": "peak"
      },
      "geometry": {
        "type": "Point",
        "coordinates": [
          -3.7043574,
          42.7645415
        ]
      },
      "id": "node/3296744576"
    },
    {
      "type": "Feature",
      "properties": {
        "@id": "node/3296968606",
        "ele": "680",
        "name": "Carrascal",
        "natural": "peak",
        "source": "IDEE",
        "source:filename": "Geodesia - Red Regente_-18.75587_27.36158_4.36897_43.81842.gml",
        "source:name": "Infraestructura de Datos Espaciales de España",
        "source:ref": "http://www.idee.es"
      },
      "geometry": {
        "type": "Point",
        "coordinates": [
          -3.0416475,
          42.7047284
        ]
      },
      "id": "node/3296968606"
    },
    {
      "type": "Feature",
      "properties": {
        "@id": "node/3296968607",
        "ele": "1120",
        "name": "Cilla",
        "natural": "peak",
        "source": "IDEE"
      },
      "geometry": {
        "type": "Point",
        "coordinates": [
          -3.3751665,
          42.4338096
        ]
      },
      "id": "node/3296968607"
    },
    {
      "type": "Feature",
      "properties": {
        "@id": "node/3296968608",
        "ele": "1005",
        "name": "Larra",
        "natural": "peak",
        "source": "IDEE"
      },
      "geometry": {
        "type": "Point",
        "coordinates": [
          -3.4024334,
          42.7846085
        ]
      },
      "id": "node/3296968608"
    },
    {
      "type": "Feature",
      "properties": {
        "@id": "node/3306174949",
        "ele": "1356",
        "name": "Majada de los Ciervos",
        "natural": "peak",
        "source": "Instituto Geográfico Nacional"
      },
      "geometry": {
        "type": "Point",
        "coordinates": [
          -3.2026957,
          42.3015391
        ]
      },
      "id": "node/3306174949"
    },
    {
      "type": "Feature",
      "properties": {
        "@id": "node/3306174950",
        "ele": "1183",
        "name": "Muladardo",
        "natural": "peak",
        "ref": "20181",
        "source": "Instituto Geográfico Nacional"
      },
      "geometry": {
        "type": "Point",
        "coordinates": [
          -3.2438782,
          42.3520342
        ]
      },
      "id": "node/3306174950"
    },
    {
      "type": "Feature",
      "properties": {
        "@id": "node/3306174952",
        "ele": "1168",
        "name": "Valbuena",
        "natural": "peak",
        "source": "Instituto Geográfico Nacional"
      },
      "geometry": {
        "type": "Point",
        "coordinates": [
          -3.3394355,
          42.3762169
        ]
      },
      "id": "node/3306174952"
    },
    {
      "type": "Feature",
      "properties": {
        "@id": "node/3312049688",
        "ele": "1031",
        "name": "Los Montecillos",
        "natural": "peak"
      },
      "geometry": {
        "type": "Point",
        "coordinates": [
          -3.6055202,
          42.4739015
        ]
      },
      "id": "node/3312049688"
    },
    {
      "type": "Feature",
      "properties": {
        "@id": "node/3317826315",
        "ele": "1002",
        "name": "La Urría",
        "natural": "peak"
      },
      "geometry": {
        "type": "Point",
        "coordinates": [
          -3.7440492,
          42.8251868
        ]
      },
      "id": "node/3317826315"
    },
    {
      "type": "Feature",
      "properties": {
        "@id": "node/3319220343",
        "ele": "973",
        "name": "Escampado",
        "natural": "peak"
      },
      "geometry": {
        "type": "Point",
        "coordinates": [
          -3.7861496,
          42.8645004
        ]
      },
      "id": "node/3319220343"
    },
    {
      "type": "Feature",
      "properties": {
        "@id": "node/3323579985",
        "ele": "1257",
        "name": "Canales",
        "natural": "peak",
        "ref": "10962",
        "source": "Instituto Geográfico Nacional"
      },
      "geometry": {
        "type": "Point",
        "coordinates": [
          -3.639451,
          42.8709811
        ]
      },
      "id": "node/3323579985"
    },
    {
      "type": "Feature",
      "properties": {
        "@id": "node/3331135911",
        "ele": "889",
        "name": "San Miguel",
        "natural": "peak",
        "ref": "10975",
        "source": "Instituto Geográfico Nacional"
      },
      "geometry": {
        "type": "Point",
        "coordinates": [
          -3.6075227,
          42.9235416
        ]
      },
      "id": "node/3331135911"
    },
    {
      "type": "Feature",
      "properties": {
        "@id": "node/3338324075",
        "ele": "1200",
        "name": "Otero Mayor",
        "natural": "peak"
      },
      "geometry": {
        "type": "Point",
        "coordinates": [
          -3.8319358,
          43.0637753
        ]
      },
      "id": "node/3338324075"
    },
    {
      "type": "Feature",
      "properties": {
        "@id": "node/3338941927",
        "ele": "1141",
        "name": "Los Castillos",
        "natural": "peak"
      },
      "geometry": {
        "type": "Point",
        "coordinates": [
          -3.5541525,
          42.7487269
        ]
      },
      "id": "node/3338941927"
    },
    {
      "type": "Feature",
      "properties": {
        "@id": "node/3339868436",
        "ele": "1047",
        "name": "Adrero I",
        "natural": "peak"
      },
      "geometry": {
        "type": "Point",
        "coordinates": [
          -4.0035081,
          42.7144883
        ]
      },
      "id": "node/3339868436"
    },
    {
      "type": "Feature",
      "properties": {
        "@id": "node/3339913421",
        "ele": "1093",
        "name": "Cantón",
        "natural": "peak"
      },
      "geometry": {
        "type": "Point",
        "coordinates": [
          -3.9369436,
          42.6282202
        ]
      },
      "id": "node/3339913421"
    },
    {
      "type": "Feature",
      "properties": {
        "@id": "node/3339913422",
        "ele": "999",
        "name": "Cotorra de Barrios",
        "natural": "peak"
      },
      "geometry": {
        "type": "Point",
        "coordinates": [
          -3.7556066,
          42.6973496
        ]
      },
      "id": "node/3339913422"
    },
    {
      "type": "Feature",
      "properties": {
        "@id": "node/3340100458",
        "ele": "1008",
        "name": "Risca",
        "natural": "peak"
      },
      "geometry": {
        "type": "Point",
        "coordinates": [
          -3.1057743,
          42.9114973
        ]
      },
      "id": "node/3340100458"
    },
    {
      "type": "Feature",
      "properties": {
        "@id": "node/3385420516",
        "ele": "752",
        "name": "San Formerio",
        "natural": "peak",
        "wikidata": "Q112784627",
        "wikipedia": "eu:San Formerio"
      },
      "geometry": {
        "type": "Point",
        "coordinates": [
          -2.83105,
          42.7230676
        ]
      },
      "id": "node/3385420516"
    },
    {
      "type": "Feature",
      "properties": {
        "@id": "node/3418681755",
        "ele": "1026",
        "name": "Mazo",
        "natural": "peak"
      },
      "geometry": {
        "type": "Point",
        "coordinates": [
          -3.242069,
          42.7141911
        ]
      },
      "id": "node/3418681755"
    },
    {
      "type": "Feature",
      "properties": {
        "@id": "node/3487738197",
        "ele": "1036.30",
        "name": "Castrejón",
        "natural": "peak"
      },
      "geometry": {
        "type": "Point",
        "coordinates": [
          -3.6559182,
          42.5899995
        ]
      },
      "id": "node/3487738197"
    },
    {
      "type": "Feature",
      "properties": {
        "@id": "node/3629493179",
        "ele": "1788",
        "name": "Cabeza Plantizo",
        "natural": "peak"
      },
      "geometry": {
        "type": "Point",
        "coordinates": [
          -3.3294153,
          42.1989256
        ]
      },
      "id": "node/3629493179"
    },
    {
      "type": "Feature",
      "properties": {
        "@id": "node/3629498836",
        "ele": "1821",
        "name": "Campo de los Corros",
        "natural": "peak"
      },
      "geometry": {
        "type": "Point",
        "coordinates": [
          -3.3204403,
          42.1938105
        ]
      },
      "id": "node/3629498836"
    },
    {
      "type": "Feature",
      "properties": {
        "@id": "node/3629522095",
        "ele": "1939",
        "name": "Tres Mojones",
        "natural": "peak"
      },
      "geometry": {
        "type": "Point",
        "coordinates": [
          -3.2128572,
          42.2206679
        ]
      },
      "id": "node/3629522095"
    },
    {
      "type": "Feature",
      "properties": {
        "@id": "node/3629533384",
        "ele": "1761",
        "name": "Peñas Albas",
        "natural": "peak"
      },
      "geometry": {
        "type": "Point",
        "coordinates": [
          -3.2519608,
          42.1658447
        ]
      },
      "id": "node/3629533384"
    },
    {
      "type": "Feature",
      "properties": {
        "@id": "node/3629543997",
        "ele": "1771",
        "name": "Cabeza Lechar",
        "natural": "peak"
      },
      "geometry": {
        "type": "Point",
        "coordinates": [
          -3.2800692,
          42.1736242
        ]
      },
      "id": "node/3629543997"
    },
    {
      "type": "Feature",
      "properties": {
        "@id": "node/3629546323",
        "ele": "1681",
        "name": "Cabeza Cerecera",
        "natural": "peak"
      },
      "geometry": {
        "type": "Point",
        "coordinates": [
          -3.3533518,
          42.2032064
        ]
      },
      "id": "node/3629546323"
    },
    {
      "type": "Feature",
      "properties": {
        "@id": "node/3629546929",
        "ele": "1861",
        "name": "Tres Mojones",
        "natural": "peak"
      },
      "geometry": {
        "type": "Point",
        "coordinates": [
          -3.2857697,
          42.1785097
        ]
      },
      "id": "node/3629546929"
    },
    {
      "type": "Feature",
      "properties": {
        "@id": "node/3629550555",
        "ele": "1889",
        "name": "Cerro La Narrilla",
        "natural": "peak"
      },
      "geometry": {
        "type": "Point",
        "coordinates": [
          -3.2974011,
          42.1826411
        ]
      },
      "id": "node/3629550555"
    },
    {
      "type": "Feature",
      "properties": {
        "@id": "node/3629550556",
        "ele": "1905",
        "name": "Morro de Cabeza Rubia",
        "natural": "peak"
      },
      "geometry": {
        "type": "Point",
        "coordinates": [
          -3.3031431,
          42.1830945
        ]
      },
      "id": "node/3629550556"
    },
    {
      "type": "Feature",
      "properties": {
        "@id": "node/3629550557",
        "ele": "1726",
        "name": "Cabeza La Teja",
        "natural": "peak"
      },
      "geometry": {
        "type": "Point",
        "coordinates": [
          -3.342779,
          42.2013561
        ]
      },
      "id": "node/3629550557"
    },
    {
      "type": "Feature",
      "properties": {
        "@id": "node/3629550558",
        "ele": "1689",
        "name": "Cerro de Fray Tuerto",
        "natural": "peak"
      },
      "geometry": {
        "type": "Point",
        "coordinates": [
          -3.359626,
          42.207483
        ]
      },
      "id": "node/3629550558"
    },
    {
      "type": "Feature",
      "properties": {
        "@id": "node/3629561248",
        "ele": "2035",
        "name": "Trigaza Norte o La Zapatera",
        "natural": "peak"
      },
      "geometry": {
        "type": "Point",
        "coordinates": [
          -3.2450367,
          42.2562325
        ]
      },
      "id": "node/3629561248"
    },
    {
      "type": "Feature",
      "properties": {
        "@id": "node/3679483739",
        "ele": "1409",
        "name": "Talas del Somo",
        "natural": "peak"
      },
      "geometry": {
        "type": "Point",
        "coordinates": [
          -3.1996917,
          42.7348816
        ]
      },
      "id": "node/3679483739"
    },
    {
      "type": "Feature",
      "properties": {
        "@id": "node/3679483740",
        "alt_name": "Yédrano",
        "ele": "1347",
        "name": "Yédramo",
        "natural": "peak"
      },
      "geometry": {
        "type": "Point",
        "coordinates": [
          -3.200487,
          42.728899
        ]
      },
      "id": "node/3679483740"
    },
    {
      "type": "Feature",
      "properties": {
        "@id": "node/3679489153",
        "ele": "1088",
        "name": "Peña San Pedro",
        "natural": "peak"
      },
      "geometry": {
        "type": "Point",
        "coordinates": [
          -3.1752693,
          42.7188832
        ]
      },
      "id": "node/3679489153"
    },
    {
      "type": "Feature",
      "properties": {
        "@id": "node/3732919305",
        "ele": "1208",
        "name": "Mesa de Oña",
        "natural": "peak"
      },
      "geometry": {
        "type": "Point",
        "coordinates": [
          -3.3930564,
          42.7056981
        ]
      },
      "id": "node/3732919305"
    },
    {
      "type": "Feature",
      "properties": {
        "@id": "node/3790611057",
        "ele": "1594",
        "name": "Alto de La Grajera",
        "natural": "peak"
      },
      "geometry": {
        "type": "Point",
        "coordinates": [
          -3.6568674,
          43.176452
        ]
      },
      "id": "node/3790611057"
    },
    {
      "type": "Feature",
      "properties": {
        "@id": "node/3790611060",
        "ele": "1389",
        "name": "Peñas del Estremecín",
        "natural": "peak"
      },
      "geometry": {
        "type": "Point",
        "coordinates": [
          -3.660001,
          43.1547766
        ]
      },
      "id": "node/3790611060"
    },
    {
      "type": "Feature",
      "properties": {
        "@id": "node/3898693370",
        "ele": "1333",
        "name": "Sumicia",
        "natural": "peak"
      },
      "geometry": {
        "type": "Point",
        "coordinates": [
          -3.1014784,
          42.3222909
        ]
      },
      "id": "node/3898693370"
    },
    {
      "type": "Feature",
      "properties": {
        "@id": "node/3915306719",
        "ele": "855",
        "name": "Cerro de la Torre",
        "natural": "peak"
      },
      "geometry": {
        "type": "Point",
        "coordinates": [
          -2.5252399,
          42.6532796
        ]
      },
      "id": "node/3915306719"
    },
    {
      "type": "Feature",
      "properties": {
        "@id": "node/3916873253",
        "ele": "781",
        "name": "Bostuia",
        "natural": "peak"
      },
      "geometry": {
        "type": "Point",
        "coordinates": [
          -2.584887,
          42.720925
        ]
      },
      "id": "node/3916873253"
    },
    {
      "type": "Feature",
      "properties": {
        "@id": "node/3916874060",
        "ele": "698",
        "name": "San Miguel",
        "natural": "peak"
      },
      "geometry": {
        "type": "Point",
        "coordinates": [
          -2.611057,
          42.707842
        ]
      },
      "id": "node/3916874060"
    },
    {
      "type": "Feature",
      "properties": {
        "@id": "node/3916874061",
        "ele": "736",
        "name": "Kruzizabala",
        "natural": "peak"
      },
      "geometry": {
        "type": "Point",
        "coordinates": [
          -2.60273,
          42.717278
        ]
      },
      "id": "node/3916874061"
    },
    {
      "type": "Feature",
      "properties": {
        "@id": "node/3916879969",
        "alt_name": "Gutxisolo",
        "ele": "1146",
        "name": "Butxisolo",
        "natural": "peak"
      },
      "geometry": {
        "type": "Point",
        "coordinates": [
          -2.5616834,
          42.7609307
        ]
      },
      "id": "node/3916879969"
    },
    {
      "type": "Feature",
      "properties": {
        "@id": "node/3925796285",
        "ele": "1563",
        "name": "Alto de Las Corvas",
        "natural": "peak"
      },
      "geometry": {
        "type": "Point",
        "coordinates": [
          -3.6668591,
          43.1617331
        ]
      },
      "id": "node/3925796285"
    },
    {
      "type": "Feature",
      "properties": {
        "@id": "node/3925801789",
        "ele": "1605",
        "name": "Cubada Grande",
        "natural": "peak"
      },
      "geometry": {
        "type": "Point",
        "coordinates": [
          -3.6748965,
          43.1367597
        ]
      },
      "id": "node/3925801789"
    },
    {
      "type": "Feature",
      "properties": {
        "@id": "node/3925803152",
        "ele": "1392",
        "name": "Marruya",
        "natural": "peak"
      },
      "geometry": {
        "type": "Point",
        "coordinates": [
          -3.750392,
          43.1014051
        ]
      },
      "id": "node/3925803152"
    },
    {
      "type": "Feature",
      "properties": {
        "@id": "node/3925818954",
        "ele": "1276",
        "name": "Castro de la Lobuca",
        "natural": "peak"
      },
      "geometry": {
        "type": "Point",
        "coordinates": [
          -3.698344,
          43.1032505
        ]
      },
      "id": "node/3925818954"
    },
    {
      "type": "Feature",
      "properties": {
        "@id": "node/3925841901",
        "ele": "1377",
        "name": "Zurruzuela",
        "natural": "peak"
      },
      "geometry": {
        "type": "Point",
        "coordinates": [
          -3.6488621,
          43.0921289
        ]
      },
      "id": "node/3925841901"
    },
    {
      "type": "Feature",
      "properties": {
        "@id": "node/3925847545",
        "ele": "1415",
        "name": "La Horadada",
        "natural": "peak"
      },
      "geometry": {
        "type": "Point",
        "coordinates": [
          -3.6580273,
          43.1299421
        ]
      },
      "id": "node/3925847545"
    },
    {
      "type": "Feature",
      "properties": {
        "@id": "node/3925847546",
        "ele": "1392",
        "name": "Pico de la Brena",
        "natural": "peak"
      },
      "geometry": {
        "type": "Point",
        "coordinates": [
          -3.659694,
          43.1683651
        ]
      },
      "id": "node/3925847546"
    },
    {
      "type": "Feature",
      "properties": {
        "@id": "node/3925847547",
        "ele": "1377",
        "name": "Cubada Pequeña",
        "natural": "peak"
      },
      "geometry": {
        "type": "Point",
        "coordinates": [
          -3.6599785,
          43.1399083
        ]
      },
      "id": "node/3925847547"
    },
    {
      "type": "Feature",
      "properties": {
        "@id": "node/3925847548",
        "ele": "1333",
        "name": "Curro",
        "natural": "peak"
      },
      "geometry": {
        "type": "Point",
        "coordinates": [
          -3.6465768,
          43.1377155
        ]
      },
      "id": "node/3925847548"
    },
    {
      "type": "Feature",
      "properties": {
        "@id": "node/3925848214",
        "ele": "1077",
        "name": "Domingo Pájaro",
        "natural": "peak"
      },
      "geometry": {
        "type": "Point",
        "coordinates": [
          -3.5968084,
          43.0826506
        ]
      },
      "id": "node/3925848214"
    },
    {
      "type": "Feature",
      "properties": {
        "@id": "node/3925848810",
        "ele": "1100",
        "name": "Costal - Larbosa",
        "natural": "peak"
      },
      "geometry": {
        "type": "Point",
        "coordinates": [
          -3.5753766,
          43.0875031
        ]
      },
      "id": "node/3925848810"
    },
    {
      "type": "Feature",
      "properties": {
        "@id": "node/3925848851",
        "ele": "1279",
        "name": "Bustulama",
        "natural": "peak"
      },
      "geometry": {
        "type": "Point",
        "coordinates": [
          -3.5967777,
          43.0997511
        ]
      },
      "id": "node/3925848851"
    },
    {
      "type": "Feature",
      "properties": {
        "@id": "node/3925850878",
        "ele": "1427",
        "name": "Crespas",
        "natural": "peak"
      },
      "geometry": {
        "type": "Point",
        "coordinates": [
          -3.6323781,
          43.1117527
        ]
      },
      "id": "node/3925850878"
    },
    {
      "type": "Feature",
      "properties": {
        "@id": "node/3925850879",
        "ele": "1265",
        "name": "Peña Enal",
        "natural": "peak"
      },
      "geometry": {
        "type": "Point",
        "coordinates": [
          -3.6690273,
          43.1100232
        ]
      },
      "id": "node/3925850879"
    },
    {
      "type": "Feature",
      "properties": {
        "@id": "node/3925861503",
        "alt_name": "El Moruco",
        "ele": "1454",
        "name": "Alto de Tiñones",
        "natural": "peak"
      },
      "geometry": {
        "type": "Point",
        "coordinates": [
          -3.5577262,
          43.1486822
        ]
      },
      "id": "node/3925861503"
    },
    {
      "type": "Feature",
      "properties": {
        "@id": "node/3925866045",
        "ele": "1529",
        "name": "Picón Blanco",
        "natural": "peak"
      },
      "geometry": {
        "type": "Point",
        "coordinates": [
          -3.5474793,
          43.1318566
        ]
      },
      "id": "node/3925866045"
    },
    {
      "type": "Feature",
      "properties": {
        "@id": "node/3925867205",
        "ele": "1369",
        "name": "Ventisquero del Polvo",
        "natural": "peak"
      },
      "geometry": {
        "type": "Point",
        "coordinates": [
          -3.4988743,
          43.1223983
        ]
      },
      "id": "node/3925867205"
    },
    {
      "type": "Feature",
      "properties": {
        "@id": "node/3925868286",
        "ele": "966",
        "name": "Naviciada",
        "natural": "peak"
      },
      "geometry": {
        "type": "Point",
        "coordinates": [
          -3.4339614,
          43.1146482
        ]
      },
      "id": "node/3925868286"
    },
    {
      "type": "Feature",
      "properties": {
        "@id": "node/3925869034",
        "ele": "899",
        "name": "Alto del Cabrío",
        "natural": "peak"
      },
      "geometry": {
        "type": "Point",
        "coordinates": [
          -3.3961406,
          43.110868
        ]
      },
      "id": "node/3925869034"
    },
    {
      "type": "Feature",
      "properties": {
        "@id": "node/3925869035",
        "ele": "891",
        "name": "Hayas Altas",
        "natural": "peak"
      },
      "geometry": {
        "type": "Point",
        "coordinates": [
          -3.4024585,
          43.10719
        ]
      },
      "id": "node/3925869035"
    },
    {
      "type": "Feature",
      "properties": {
        "@id": "node/3925873027",
        "alt_name": "Lisos de Zalama",
        "ele": "1335",
        "name": "Ilsos de Zalama",
        "natural": "peak"
      },
      "geometry": {
        "type": "Point",
        "coordinates": [
          -3.4292248,
          43.1333961
        ]
      },
      "id": "node/3925873027"
    },
    {
      "type": "Feature",
      "properties": {
        "@id": "node/3925964639",
        "ele": "1093",
        "name": "El Mirón",
        "natural": "peak"
      },
      "geometry": {
        "type": "Point",
        "coordinates": [
          -3.3831016,
          43.1426905
        ]
      },
      "id": "node/3925964639"
    },
    {
      "type": "Feature",
      "properties": {
        "@id": "node/3925983689",
        "ele": "1037",
        "name": "Ilso de las Estacas",
        "natural": "peak"
      },
      "geometry": {
        "type": "Point",
        "coordinates": [
          -3.3197704,
          43.1708896
        ]
      },
      "id": "node/3925983689"
    },
    {
      "type": "Feature",
      "properties": {
        "@id": "node/3929215582",
        "ele": "1223",
        "name": "Valdelamediana",
        "natural": "peak"
      },
      "geometry": {
        "type": "Point",
        "coordinates": [
          -3.2135351,
          42.8331131
        ]
      },
      "id": "node/3929215582"
    },
    {
      "type": "Feature",
      "properties": {
        "@id": "node/3929230844",
        "ele": "1051",
        "name": "Raso",
        "natural": "peak"
      },
      "geometry": {
        "type": "Point",
        "coordinates": [
          -3.1066873,
          42.879405
        ]
      },
      "id": "node/3929230844"
    },
    {
      "type": "Feature",
      "properties": {
        "@id": "node/3929253350",
        "ele": "754",
        "name": "Garaia",
        "natural": "peak"
      },
      "geometry": {
        "type": "Point",
        "coordinates": [
          -2.7118917,
          42.7664869
        ]
      },
      "id": "node/3929253350"
    },
    {
      "type": "Feature",
      "properties": {
        "@id": "node/3929253915",
        "ele": "746",
        "name": "Santuste",
        "natural": "peak",
        "wikidata": "Q124347906"
      },
      "geometry": {
        "type": "Point",
        "coordinates": [
          -2.7758725,
          42.7607768
        ]
      },
      "id": "node/3929253915"
    },
    {
      "type": "Feature",
      "properties": {
        "@id": "node/3929271811",
        "ele": "885",
        "name": "La Culebra",
        "natural": "peak"
      },
      "geometry": {
        "type": "Point",
        "coordinates": [
          -2.7638863,
          42.7054229
        ]
      },
      "id": "node/3929271811"
    },
    {
      "type": "Feature",
      "properties": {
        "@id": "node/3929271812",
        "ele": "874",
        "name": "La Cogolla",
        "natural": "peak"
      },
      "geometry": {
        "type": "Point",
        "coordinates": [
          -2.7733079,
          42.7034337
        ]
      },
      "id": "node/3929271812"
    },
    {
      "type": "Feature",
      "properties": {
        "@id": "node/3929272355",
        "ele": "754",
        "name": "Alto del Gurugú",
        "natural": "peak"
      },
      "geometry": {
        "type": "Point",
        "coordinates": [
          -2.8189322,
          42.7231387
        ]
      },
      "id": "node/3929272355"
    },
    {
      "type": "Feature",
      "properties": {
        "@id": "node/3929281040",
        "ele": "733",
        "name": "Peña Palacios",
        "natural": "peak"
      },
      "geometry": {
        "type": "Point",
        "coordinates": [
          -2.8380409,
          42.7240135
        ]
      },
      "id": "node/3929281040"
    },
    {
      "type": "Feature",
      "properties": {
        "@id": "node/3929302756",
        "alt_name": "Carasta; Doroño; Doroñu; Canasta",
        "ele": "903",
        "name": "Karasta",
        "natural": "peak"
      },
      "geometry": {
        "type": "Point",
        "coordinates": [
          -2.7227988,
          42.7873164
        ]
      },
      "id": "node/3929302756"
    },
    {
      "type": "Feature",
      "properties": {
        "@id": "node/3929303457",
        "ele": "949",
        "name": "Gortzeta",
        "natural": "peak"
      },
      "geometry": {
        "type": "Point",
        "coordinates": [
          -2.7144549,
          42.785828
        ]
      },
      "id": "node/3929303457"
    },
    {
      "type": "Feature",
      "properties": {
        "@id": "node/3931452372",
        "ele": "1563",
        "name": "Pico de la Miel",
        "natural": "peak",
        "wikidata": "Q25377823"
      },