{
  "type": "FeatureCollection",
  "generator": "overpass-turbo",
  "copyright": "The data included in this document is from www.openstreetmap.org. The data is made available under ODbL.",
  "timestamp": "2025-04-22T16:10:24Z",
  "features": [
    {
      "type": "Feature",
      "properties": {
        "@id": "node/26862670",
        "ele": "1441",
        "name": "Cervales",
        "natural": "peak"
      },
      "geometry": {
        "type": "Point",
        "coordinates": [
          -5.3043842,
          39.5515079
        ]
      },
      "id": "node/26862670"
    },
    {
      "type": "Feature",
      "properties": {
        "@id": "node/26865092",
        "ele": "1595",
        "name": "Villuercas",
        "natural": "peak",
        "wikidata": "Q6075060",
        "wikipedia": "es:Pico Villuercas"
      },
      "geometry": {
        "type": "Point",
        "coordinates": [
          -5.4026712,
          39.4694467
        ]
      },
      "id": "node/26865092"
    },
    {
      "type": "Feature",
      "properties": {
        "@id": "node/484226368",
        "ele": "2249",
        "natural": "peak"
      },
      "geometry": {
        "type": "Point",
        "coordinates": [
          -5.4154255,
          40.2543998
        ]
      },
      "id": "node/484226368"
    },
    {
      "type": "Feature",
      "properties": {
        "@id": "node/484226371",
        "ele": "2156",
        "natural": "peak"
      },
      "geometry": {
        "type": "Point",
        "coordinates": [
          -5.3655092,
          40.2564209
        ]
      },
      "id": "node/484226371"
    },
    {
      "type": "Feature",
      "properties": {
        "@id": "node/484226420",
        "natural": "peak"
      },
      "geometry": {
        "type": "Point",
        "coordinates": [
          -5.6447272,
          40.2093246
        ]
      },
      "id": "node/484226420"
    },
    {
      "type": "Feature",
      "properties": {
        "@id": "node/484226426",
        "ele": "1817",
        "natural": "peak",
        "source": "Instituto Geográfico Nacional"
      },
      "geometry": {
        "type": "Point",
        "coordinates": [
          -5.6852142,
          40.1943787
        ]
      },
      "id": "node/484226426"
    },
    {
      "type": "Feature",
      "properties": {
        "@id": "node/484226449",
        "ele": "1916",
        "natural": "peak"
      },
      "geometry": {
        "type": "Point",
        "coordinates": [
          -5.7725244,
          40.2607783
        ]
      },
      "id": "node/484226449"
    },
    {
      "type": "Feature",
      "properties": {
        "@id": "node/484226457",
        "natural": "peak"
      },
      "geometry": {
        "type": "Point",
        "coordinates": [
          -5.8553557,
          40.2270203
        ]
      },
      "id": "node/484226457"
    },
    {
      "type": "Feature",
      "properties": {
        "@id": "node/484226458",
        "ele": "1741",
        "name": "Cerro de la Buitrera",
        "natural": "peak"
      },
      "geometry": {
        "type": "Point",
        "coordinates": [
          -5.888143,
          40.2116843
        ]
      },
      "id": "node/484226458"
    },
    {
      "type": "Feature",
      "properties": {
        "@id": "node/484226459",
        "ele": "1826",
        "name": "Camocho",
        "natural": "peak"
      },
      "geometry": {
        "type": "Point",
        "coordinates": [
          -5.901361,
          40.1993606
        ]
      },
      "id": "node/484226459"
    },
    {
      "type": "Feature",
      "properties": {
        "@id": "node/484226461",
        "natural": "peak"
      },
      "geometry": {
        "type": "Point",
        "coordinates": [
          -5.9118323,
          40.1791658
        ]
      },
      "id": "node/484226461"
    },
    {
      "type": "Feature",
      "properties": {
        "@id": "node/703191856",
        "comment": "convertido a OSM usando http://GaleNUx.com",
        "divipola": "05120",
        "fixme": "Revisar: este punto fue creado por importación directa",
        "is_in": "Colombia; Antioquia ; Cáceres",
        "name": "Loma Fresca",
        "natural": "peak",
        "note": "ADMINISTRATIVO, CERROS Y PICOS, b09f0054702f29c2582c84ee61089488",
        "source": "OCHA Colombia 2010"
      },
      "geometry": {
        "type": "Point",
        "coordinates": [
          -75.3353685,
          7.6082696
        ]
      },
      "id": "node/703191856"
    },
    {
      "type": "Feature",
      "properties": {
        "@id": "node/703192813",
        "comment": "convertido a OSM usando http://GaleNUx.com",
        "divipola": "05120",
        "fixme": "Revisar: este punto fue creado por importación directa",
        "is_in": "Colombia; Antioquia ; Cáceres",
        "name": "Cerro Blanco",
        "natural": "peak",
        "note": "OROGRAFIA, MONTAÑAS Y CERROS, 6fe50765f35d165c9862515123bded92",
        "source": "OCHA Colombia 2010"
      },
      "geometry": {
        "type": "Point",
        "coordinates": [
          -75.1529172,
          7.3931272
        ]
      },
      "id": "node/703192813"
    },
    {
      "type": "Feature",
      "properties": {
        "@id": "node/703192824",
        "comment": "convertido a OSM usando http://GaleNUx.com",
        "divipola": "05120",
        "fixme": "Revisar: este punto fue creado por importación directa",
        "is_in": "Colombia; Antioquia ; Cáceres",
        "name": "Cerro Blanco",
        "natural": "peak",
        "note": "OROGRAFIA, MONTAÑAS Y CERROS, 3b4188d7f008af8a37dca3be63841198",
        "source": "OCHA Colombia 2010"
      },
      "geometry": {
        "type": "Point",
        "coordinates": [
          -75.0958672,
          7.4264832
        ]
      },
      "id": "node/703192824"
    },
    {
      "type": "Feature",
      "properties": {
        "@id": "node/703192854",
        "comment": "convertido a OSM usando http://GaleNUx.com",
        "divipola": "05120",
        "fixme": "Revisar: este punto fue creado por importación directa",
        "is_in": "Colombia; Antioquia ; Cáceres",
        "name": "Alto Caceri",
        "natural": "peak",
        "note": "OROGRAFIA, MONTAÑAS Y CERROS, 000f182086c0b0d7cd42d0b870934c9d",
        "source": "OCHA Colombia 2010"
      },
      "geometry": {
        "type": "Point",
        "coordinates": [
          -75.1484994,
          7.6027076
        ]
      },
      "id": "node/703192854"
    },
    {
      "type": "Feature",
      "properties": {
        "@id": "node/703192864",
        "comment": "convertido a OSM usando http://GaleNUx.com",
        "divipola": "05120",
        "fixme": "Revisar: este punto fue creado por importación directa",
        "is_in": "Colombia; Antioquia ; Cáceres",
        "name": "Cuchilla El Indio",
        "natural": "peak",
        "note": "OROGRAFIA, MONTAÑAS Y CERROS, 38aa815e68cdd8d6fc4a909290d64583",
        "source": "OCHA Colombia 2010"
      },
      "geometry": {
        "type": "Point",
        "coordinates": [
          -75.1884302,
          7.6590614
        ]
      },
      "id": "node/703192864"
    },
    {
      "type": "Feature",
      "properties": {
        "@id": "node/703192867",
        "comment": "convertido a OSM usando http://GaleNUx.com",
        "divipola": "05120",
        "fixme": "Revisar: este punto fue creado por importación directa",
        "is_in": "Colombia; Antioquia ; Cáceres",
        "name": "Cuchilla El Indio",
        "natural": "peak",
        "note": "OROGRAFIA, MONTAÑAS Y CERROS, 25a8f62ad3e7ba53779964f867aff96c",
        "source": "OCHA Colombia 2010"
      },
      "geometry": {
        "type": "Point",
        "coordinates": [
          -75.1972237,
          7.7143324
        ]
      },
      "id": "node/703192867"
    },
    {
      "type": "Feature",
      "properties": {
        "@id": "node/947067506",
        "ele": "994",
        "natural": "peak"
      },
      "geometry": {
        "type": "Point",
        "coordinates": [
          -5.3662518,
          39.4091617
        ]
      },
      "id": "node/947067506"
    },
    {
      "type": "Feature",
      "properties": {
        "@id": "node/947067517",
        "ele": "1147",
        "natural": "peak"
      },
      "geometry": {
        "type": "Point",
        "coordinates": [
          -5.3814032,
          39.4409352
        ]
      },
      "id": "node/947067517"
    },
    {
      "type": "Feature",
      "properties": {
        "@id": "node/947067553",
        "ele": "1379",
        "name": "Pico Sierra de Viejas",
        "natural": "peak"
      },
      "geometry": {
        "type": "Point",
        "coordinates": [
          -5.3856955,
          39.4893575
        ]
      },
      "id": "node/947067553"
    },
    {
      "type": "Feature",
      "properties": {
        "@id": "node/948326202",
        "ele": "1362.40",
        "name": "Jañona",
        "natural": "peak",
        "wikidata": "Q115504325"
      },
      "geometry": {
        "type": "Point",
        "coordinates": [
          -6.5870031,
          40.2705745
        ]
      },
      "id": "node/948326202"
    },
    {
      "type": "Feature",
      "properties": {
        "@id": "node/948326822",
        "ele": "997.80",
        "name": "Gordo",
        "natural": "peak",
        "wikidata": "Q115503852"
      },
      "geometry": {
        "type": "Point",
        "coordinates": [
          -6.0367781,
          40.0938365
        ]
      },
      "id": "node/948326822"
    },
    {
      "type": "Feature",
      "properties": {
        "@id": "node/948327319",
        "ele": "839.10",
        "name": "Pico Miravete",
        "natural": "peak"
      },
      "geometry": {
        "type": "Point",
        "coordinates": [
          -5.7461705,
          39.7135092
        ]
      },
      "id": "node/948327319"
    },
    {
      "type": "Feature",
      "properties": {
        "@id": "node/948327957",
        "ele": "620.90",
        "name": "Caballo 3",
        "natural": "peak"
      },
      "geometry": {
        "type": "Point",
        "coordinates": [
          -6.8199342,
          39.9643914
        ]
      },
      "id": "node/948327957"
    },
    {
      "type": "Feature",
      "properties": {
        "@id": "node/948342474",
        "ele": "1590.40",
        "name": "Tiendas",
        "natural": "peak",
        "wikidata": "Q115510441"
      },
      "geometry": {
        "type": "Point",
        "coordinates": [
          -6.3619898,
          40.4070306
        ]
      },
      "id": "node/948342474"
    },
    {
      "type": "Feature",
      "properties": {
        "@id": "node/948342551",
        "ele": "624.60",
        "name": "Santiago",
        "natural": "peak"
      },
      "geometry": {
        "type": "Point",
        "coordinates": [
          -7.2163237,
          39.6040143
        ]
      },
      "id": "node/948342551"
    },
    {
      "type": "Feature",
      "properties": {
        "@id": "node/948343172",
        "ele": "2395.10",
        "name": "Covacha",
        "natural": "peak",
        "wikidata": "Q115502316"
      },
      "geometry": {
        "type": "Point",
        "coordinates": [
          -5.5987923,
          40.2167592
        ]
      },
      "id": "node/948343172"
    },
    {
      "type": "Feature",
      "properties": {
        "@id": "node/948343524",
        "ele": "557.90",
        "name": "Caballo 1",
        "natural": "peak"
      },
      "geometry": {
        "type": "Point",
        "coordinates": [
          -6.8328097,
          39.9760819
        ]
      },
      "id": "node/948343524"
    },
    {
      "type": "Feature",
      "properties": {
        "@id": "node/975731917",
        "ele": "859",
        "name": "Cabezo de Malvana",
        "natural": "peak"
      },
      "geometry": {
        "type": "Point",
        "coordinates": [
          -7.0165471,
          40.1932931
        ]
      },
      "id": "node/975731917"
    },
    {
      "type": "Feature",
      "properties": {
        "@id": "node/975731928",
        "ele": "1267",
        "name": "Alto de la Carbonera",
        "natural": "peak",
        "ngbe:codigo": "80206",
        "ngbe:grupo": "Relieve",
        "ngbe:hojabcn25": "0573-1",
        "ngbe:huso": "29",
        "ngbe:id": "255717",
        "ngbe:lat_ed50": "-6.8363006050",
        "ngbe:lon_ed50": "40.2548206583",
        "ngbe:subgrupo": "Montañas y picos restantes. cerros. etc.",
        "ngbe:tema": "Toponimia",
        "ngbe:tipotexto": "T",
        "ngbe:version": "provisional",
        "ngbe:xutm_ed50": "684020",
        "ngbe:yutm_ed50": "4458363",
        "note": "If you change this node, please, report in http://wiki.openstreetmap.org/wiki/ES:NGBE/Correcciones or to nomenclatorign at gmail dot com. Thank you.",
        "note:es": "Si realizas algún cambio en este nodo, por favor, comunícalo en http://wiki.openstreetmap.org/wiki/ES:NGBE/Correcciones o a nomenclatorign at gmail dot com. Gracias.",
        "source": "Instituto Geográfico Nacional",
        "source:date": "201011",
        "source:name": "Nomenclator Geográfico Básico de España"
      },
      "geometry": {
        "type": "Point",
        "coordinates": [
          -6.8385686,
          40.2536897
        ]
      },
      "id": "node/975731928"
    },
    {
      "type": "Feature",
      "properties": {
        "@id": "node/1162453764",
        "description": "Vértice geodésico de 1ª ordem; pilar prismático sobre prisma.",
        "man_made": "survey_point",
        "name": "Santiago Vertice",
        "natural": "peak",
        "note": "the construction is 3.21 m high and 0.42m wide",
        "ref": "101",
        "source": "DGT - Rede Geodésica Nacional",
        "source:pkey": "101",
        "start_date": "1856",
        "survey:date": "2003",
        "website": "http://dev.igeo.pt/produtos/geodesia/vg/rgn/ficha.asp?num=101"
      },
      "geometry": {
        "type": "Point",
        "coordinates": [
          -7.2163122,
          39.6040068
        ]
      },
      "id": "node/1162453764"
    },
    {
      "type": "Feature",
      "properties": {
        "@id": "node/1241504256",
        "ele": "1033",
        "name": "Pico del Pirrubio",
        "natural": "peak"
      },
      "geometry": {
        "type": "Point",
        "coordinates": [
          -6.1562978,
          40.447847
        ]
      },
      "id": "node/1241504256"
    },
    {
      "type": "Feature",
      "properties": {
        "@id": "node/1241511663",
        "ele": "1582",
        "name": "Cerro Peramarza",
        "natural": "peak"
      },
      "geometry": {
        "type": "Point",
        "coordinates": [
          -5.7930371,
          40.2865985
        ]
      },
      "id": "node/1241511663"
    },
    {
      "type": "Feature",
      "properties": {
        "@id": "node/1241592888",
        "ele": "729",
        "name": "Canchal de la Peñuela",
        "natural": "peak"
      },
      "geometry": {
        "type": "Point",
        "coordinates": [
          -5.7070219,
          39.7027027
        ]
      },
      "id": "node/1241592888"
    },
    {
      "type": "Feature",
      "properties": {
        "@id": "node/1241592922",
        "ele": "439",
        "name": "Cancho Redondo",
        "natural": "peak"
      },
      "geometry": {
        "type": "Point",
        "coordinates": [
          -6.4741328,
          39.8073875
        ]
      },
      "id": "node/1241592922"
    },
    {
      "type": "Feature",
      "properties": {
        "@id": "node/1241592963",
        "ele": "336",
        "name": "El Hito",
        "natural": "peak"
      },
      "geometry": {
        "type": "Point",
        "coordinates": [
          -6.3552053,
          39.753347
        ]
      },
      "id": "node/1241592963"
    },
    {
      "type": "Feature",
      "properties": {
        "@id": "node/1241593190",
        "ele": "774",
        "name": "Riofrío",
        "natural": "peak"
      },
      "geometry": {
        "type": "Point",
        "coordinates": [
          -5.7601743,
          39.7177007
        ]
      },
      "id": "node/1241593190"
    },
    {
      "type": "Feature",
      "properties": {
        "@id": "node/1241593208",
        "ele": "434",
        "name": "Cerro Turma del Conejo",
        "natural": "peak"
      },
      "geometry": {
        "type": "Point",
        "coordinates": [
          -5.5682683,
          39.8121638
        ]
      },
      "id": "node/1241593208"
    },
    {
      "type": "Feature",
      "properties": {
        "@id": "node/1241593223",
        "ele": "459",
        "name": "Cerro de Pozo Soso",
        "natural": "peak"
      },
      "geometry": {
        "type": "Point",
        "coordinates": [
          -5.9509193,
          39.7152973
        ]
      },
      "id": "node/1241593223"
    },
    {
      "type": "Feature",
      "properties": {
        "@id": "node/1241593390",
        "ele": "1517",
        "name": "Bolla Grande",
        "natural": "peak"
      },
      "geometry": {
        "type": "Point",
        "coordinates": [
          -6.4335092,
          40.354722
        ]
      },
      "id": "node/1241593390"
    },
    {
      "type": "Feature",
      "properties": {
        "@id": "node/1241593555",
        "ele": "1722",
        "name": "Alto de la Portilla de Sorihuela",
        "natural": "peak"
      },
      "geometry": {
        "type": "Point",
        "coordinates": [
          -5.800349,
          40.2486828
        ]
      },
      "id": "node/1241593555"
    },
    {
      "type": "Feature",
      "properties": {
        "@id": "node/1241594033",
        "ele": "288",
        "name": "Cerro de las Palomas",
        "natural": "peak"
      },
      "geometry": {
        "type": "Point",
        "coordinates": [
          -6.221719,
          39.7573822
        ]
      },
      "id": "node/1241594033"
    },
    {
      "type": "Feature",
      "properties": {
        "@id": "node/1241594297",
        "ele": "353",
        "name": "Cerro de las Ánimas",
        "natural": "peak"
      },
      "geometry": {
        "type": "Point",
        "coordinates": [
          -6.4032784,
          39.7677793
        ]
      },
      "id": "node/1241594297"
    },
    {
      "type": "Feature",
      "properties": {
        "@id": "node/1241594544",
        "ele": "2169",
        "name": "Alto de las Becedillas",
        "natural": "peak"
      },
      "geometry": {
        "type": "Point",
        "coordinates": [
          -5.4262064,
          40.2530693
        ]
      },
      "id": "node/1241594544"
    },
    {
      "type": "Feature",
      "properties": {
        "@id": "node/1241594688",
        "ele": "364",
        "name": "La Bermeja",
        "natural": "peak"
      },
      "geometry": {
        "type": "Point",
        "coordinates": [
          -6.661204,
          39.8589268
        ]
      },
      "id": "node/1241594688"
    },
    {
      "type": "Feature",
      "properties": {
        "@id": "node/1241594871",
        "ele": "346",
        "name": "Cabezo Manzanares",
        "natural": "peak"
      },
      "geometry": {
        "type": "Point",
        "coordinates": [
          -5.8561806,
          39.8207698
        ]
      },
      "id": "node/1241594871"
    },
    {
      "type": "Feature",
      "properties": {
        "@id": "node/1241594928",
        "ele": "378",
        "name": "Cerro de los Borregos",
        "natural": "peak"
      },
      "geometry": {
        "type": "Point",
        "coordinates": [
          -5.7259738,
          39.7610327
        ]
      },
      "id": "node/1241594928"
    },
    {
      "type": "Feature",
      "properties": {
        "@id": "node/1241594961",
        "ele": "289",
        "name": "Cerro Madroñal",
        "natural": "peak"
      },
      "geometry": {
        "type": "Point",
        "coordinates": [
          -5.9656157,
          39.867746
        ]
      },
      "id": "node/1241594961"
    },
    {
      "type": "Feature",
      "properties": {
        "@id": "node/1241595195",
        "ele": "855",
        "name": "Cerro de las Navezuelas",
        "natural": "peak"
      },
      "geometry": {
        "type": "Point",
        "coordinates": [
          -5.6695596,
          39.6827891
        ]
      },
      "id": "node/1241595195"
    },
    {
      "type": "Feature",
      "properties": {
        "@id": "node/1241595214",
        "ele": "462",
        "name": "Cerro Alto",
        "natural": "peak"
      },
      "geometry": {
        "type": "Point",
        "coordinates": [
          -5.8679784,
          39.7024577
        ]
      },
      "id": "node/1241595214"
    },
    {
      "type": "Feature",
      "properties": {
        "@id": "node/1241595261",
        "ele": "528",
        "name": "Cerro Peral",
        "natural": "peak"
      },
      "geometry": {
        "type": "Point",
        "coordinates": [
          -5.53964,
          39.7138599
        ]
      },
      "id": "node/1241595261"
    },
    {
      "type": "Feature",
      "properties": {
        "@id": "node/1241595279",
        "ele": "434",
        "name": "Las Zurraneras",
        "natural": "peak"
      },
      "geometry": {
        "type": "Point",
        "coordinates": [
          -5.5475175,
          39.7902696
        ]
      },
      "id": "node/1241595279"
    },
    {
      "type": "Feature",
      "properties": {
        "@id": "node/1241595952",
        "name": "Piedras Gordas",
        "natural": "peak"
      },
      "geometry": {
        "type": "Point",
        "coordinates": [
          -6.8010049,
          39.879319
        ]
      },
      "id": "node/1241595952"
    },
    {
      "type": "Feature",
      "properties": {
        "@id": "node/1241596164",
        "ele": "1484",
        "name": "El Cabezo",
        "natural": "peak",
        "source": "Instituto Geográfico Nacional"
      },
      "geometry": {
        "type": "Point",
        "coordinates": [
          -5.6175996,
          40.1516791
        ]
      },
      "id": "node/1241596164"
    },
    {
      "type": "Feature",
      "properties": {
        "@id": "node/1241596226",
        "ele": "2184",
        "name": "Risco Juche",
        "natural": "peak"
      },
      "geometry": {
        "type": "Point",
        "coordinates": [
          -5.4107068,
          40.2498558
        ]
      },
      "id": "node/1241596226"
    },
    {
      "type": "Feature",
      "properties": {
        "@id": "node/1241596311",
        "ele": "338",
        "name": "Cerro Redondo",
        "natural": "peak"
      },
      "geometry": {
        "type": "Point",
        "coordinates": [
          -5.7446335,
          39.7475102
        ]
      },
      "id": "node/1241596311"
    },
    {
      "type": "Feature",
      "properties": {
        "@id": "node/1241596319",
        "ele": "315",
        "name": "Los Trabajeros",
        "natural": "peak"
      },
      "geometry": {
        "type": "Point",
        "coordinates": [
          -6.4215683,
          39.723241
        ]
      },
      "id": "node/1241596319"
    },
    {
      "type": "Feature",
      "properties": {
        "@id": "node/1241596434",
        "ele": "336",
        "name": "Cerro Granillo",
        "natural": "peak"
      },
      "geometry": {
        "type": "Point",
        "coordinates": [
          -5.7646068,
          39.7646107
        ]
      },
      "id": "node/1241596434"
    },
    {
      "type": "Feature",
      "properties": {
        "@id": "node/1241596827",
        "ele": "468",
        "name": "Los Guijos",
        "natural": "peak"
      },
      "geometry": {
        "type": "Point",
        "coordinates": [
          -5.568487,
          39.7849343
        ]
      },
      "id": "node/1241596827"
    },
    {
      "type": "Feature",
      "properties": {
        "@id": "node/1241597465",
        "ele": "338",
        "name": "Cerro de la Tijuela",
        "natural": "peak"
      },
      "geometry": {
        "type": "Point",
        "coordinates": [
          -6.4312627,
          39.7750081
        ]
      },
      "id": "node/1241597465"
    },
    {
      "type": "Feature",
      "properties": {
        "@id": "node/1241597782",
        "ele": "802",
        "name": "Canchal del Rebozo",
        "natural": "peak"
      },
      "geometry": {
        "type": "Point",
        "coordinates": [
          -5.6061614,
          39.7097431
        ]
      },
      "id": "node/1241597782"
    },
    {
      "type": "Feature",
      "properties": {
        "@id": "node/1241597801",
        "ele": "759",
        "name": "Cerro del Pimpollar Chico",
        "natural": "peak"
      },
      "geometry": {
        "type": "Point",
        "coordinates": [
          -5.5356193,
          39.726125
        ]
      },
      "id": "node/1241597801"
    },
    {
      "type": "Feature",
      "properties": {
        "@id": "node/1241597819",
        "ele": "288",
        "name": "Cerro Verde",
        "natural": "peak"
      },
      "geometry": {
        "type": "Point",
        "coordinates": [
          -5.9119583,
          39.8121336
        ]
      },
      "id": "node/1241597819"
    },
    {
      "type": "Feature",
      "properties": {
        "@id": "node/1241597934",
        "ele": "365",
        "name": "Cerro de la Alcornocosa",
        "natural": "peak"
      },
      "geometry": {
        "type": "Point",
        "coordinates": [
          -5.773188,
          39.788298
        ]
      },
      "id": "node/1241597934"
    },
    {
      "type": "Feature",
      "properties": {
        "@id": "node/1241597999",
        "ele": "465",
        "name": "Cerro de la Atalaya",
        "natural": "peak"
      },
      "geometry": {
        "type": "Point",
        "coordinates": [
          -5.8983222,
          39.7039782
        ]
      },
      "id": "node/1241597999"
    },
    {
      "type": "Feature",
      "properties": {
        "@id": "node/1241598229",
        "ele": "322",
        "name": "Cerro de la Aceña",
        "natural": "peak"
      },
      "geometry": {
        "type": "Point",
        "coordinates": [
          -5.6893535,
          39.7816336
        ]
      },
      "id": "node/1241598229"
    },
    {
      "type": "Feature",
      "properties": {
        "@id": "node/1241599164",
        "ele": "320",
        "name": "Cerro del Hierro",
        "natural": "peak"
      },
      "geometry": {
        "type": "Point",
        "coordinates": [
          -6.2703263,
          39.751032
        ]
      },
      "id": "node/1241599164"
    },
    {
      "type": "Feature",
      "properties": {
        "@id": "node/1241599285",
        "ele": "432",
        "name": "La Cabeza",
        "natural": "peak"
      },
      "geometry": {
        "type": "Point",
        "coordinates": [
          -5.5512268,
          39.8017555
        ]
      },
      "id": "node/1241599285"
    },
    {
      "type": "Feature",
      "properties": {
        "@id": "node/1241599845",
        "ele": "341",
        "name": "Cerro Mentidero",
        "natural": "peak"
      },
      "geometry": {
        "type": "Point",
        "coordinates": [
          -6.5846326,
          39.7910027
        ]
      },
      "id": "node/1241599845"
    },
    {
      "type": "Feature",
      "properties": {
        "@id": "node/1241599865",
        "ele": "824",
        "name": "Risco Gordo",
        "natural": "peak"
      },
      "geometry": {
        "type": "Point",
        "coordinates": [
          -5.6779225,
          39.6676115
        ]
      },
      "id": "node/1241599865"
    },
    {
      "type": "Feature",
      "properties": {
        "@id": "node/1241600107",
        "ele": "397",
        "name": "Loma Vega Fernández",
        "natural": "peak"
      },
      "geometry": {
        "type": "Point",
        "coordinates": [
          -5.8384354,
          39.7401425
        ]
      },
      "id": "node/1241600107"
    },
    {
      "type": "Feature",
      "properties": {
        "@id": "node/1241600181",
        "ele": "324",
        "name": "Cancho Valdemortero",
        "natural": "peak"
      },
      "geometry": {
        "type": "Point",
        "coordinates": [
          -5.6965147,
          39.7706692
        ]
      },
      "id": "node/1241600181"
    },
    {
      "type": "Feature",
      "properties": {
        "@id": "node/1241600629",
        "ele": "314",
        "name": "Cerro de la Zarcita",
        "natural": "peak"
      },
      "geometry": {
        "type": "Point",
        "coordinates": [
          -6.3728649,
          39.7742029
        ]
      },
      "id": "node/1241600629"
    },
    {
      "type": "Feature",
      "properties": {
        "@id": "node/1241600737",
        "ele": "386",
        "name": "Cerro del Oro",
        "natural": "peak"
      },
      "geometry": {
        "type": "Point",
        "coordinates": [
          -6.0724602,
          39.8040227
        ]
      },
      "id": "node/1241600737"
    },
    {
      "type": "Feature",
      "properties": {
        "@id": "node/1241600753",
        "ele": "533",
        "name": "Cerro Pelado",
        "natural": "peak"
      },
      "geometry": {
        "type": "Point",
        "coordinates": [
          -5.5829759,
          39.7082871
        ]
      },
      "id": "node/1241600753"
    },
    {
      "type": "Feature",
      "properties": {
        "@id": "node/1241600959",
        "ele": "346",
        "name": "Cerro de los Guardias",
        "natural": "peak"
      },
      "geometry": {
        "type": "Point",
        "coordinates": [
          -6.1829652,
          39.8003401
        ]
      },
      "id": "node/1241600959"
    },
    {
      "type": "Feature",
      "properties": {
        "@id": "node/1241601095",
        "ele": "473",
        "name": "Cerro del Hoyo",
        "natural": "peak"
      },
      "geometry": {
        "type": "Point",
        "coordinates": [
          -5.6480683,
          39.7373408
        ]
      },
      "id": "node/1241601095"
    },
    {
      "type": "Feature",
      "properties": {
        "@id": "node/1241601302",
        "ele": "737",
        "name": "Cerro Caganido",
        "natural": "peak"
      },
      "geometry": {
        "type": "Point",
        "coordinates": [
          -5.7844405,
          39.7058496
        ]
      },
      "id": "node/1241601302"
    },
    {
      "type": "Feature",
      "properties": {
        "@id": "node/1241601364",
        "ele": "746",
        "name": "Risco Camorro del Portezuelo",
        "natural": "peak"
      },
      "geometry": {
        "type": "Point",
        "coordinates": [
          -5.6015438,
          39.6698492
        ]
      },
      "id": "node/1241601364"
    },
    {
      "type": "Feature",
      "properties": {
        "@id": "node/1241601502",
        "ele": "738",
        "name": "Canchal de la Cierva",
        "natural": "peak"
      },
      "geometry": {
        "type": "Point",
        "coordinates": [
          -5.7277328,
          39.7100653
        ]
      },
      "id": "node/1241601502"
    },
    {
      "type": "Feature",
      "properties": {
        "@id": "node/1241601561",
        "ele": "403",
        "name": "Cancho de la Cabra",
        "natural": "peak"
      },
      "geometry": {
        "type": "Point",
        "coordinates": [
          -5.5614996,
          39.8039137
        ]
      },
      "id": "node/1241601561"
    },
    {
      "type": "Feature",
      "properties": {
        "@id": "node/1241602021",
        "ele": "318",
        "name": "Cerro Molino",
        "natural": "peak"
      },
      "geometry": {
        "type": "Point",
        "coordinates": [
          -5.7258887,
          39.7695286
        ]
      },
      "id": "node/1241602021"
    },
    {
      "type": "Feature",
      "properties": {
        "@id": "node/1241602114",
        "ele": "303",
        "name": "Cerro de Gastabolsas",
        "natural": "peak"
      },
      "geometry": {
        "type": "Point",
        "coordinates": [
          -6.4465857,
          39.7605639
        ]
      },
      "id": "node/1241602114"
    },
    {
      "type": "Feature",
      "properties": {
        "@id": "node/1241602157",
        "ele": "422",
        "name": "Risco Amarillo",
        "natural": "peak"
      },
      "geometry": {
        "type": "Point",
        "coordinates": [
          -5.532671,
          39.7986796
        ]
      },
      "id": "node/1241602157"
    },
    {
      "type": "Feature",
      "properties": {
        "@id": "node/1241602453",
        "ele": "304",
        "name": "Cerro de las Tapias",
        "natural": "peak"
      },
      "geometry": {
        "type": "Point",
        "coordinates": [
          -6.5900279,
          39.8464145
        ]
      },
      "id": "node/1241602453"
    },
    {
      "type": "Feature",
      "properties": {
        "@id": "node/1241603139",
        "ele": "405",
        "name": "Cerro de las Veredas",
        "natural": "peak"
      },
      "geometry": {
        "type": "Point",
        "coordinates": [
          -5.5224564,
          39.7720532
        ]
      },
      "id": "node/1241603139"
    },
    {
      "type": "Feature",
      "properties": {
        "@id": "node/1241603781",
        "ele": "343",
        "name": "Mirando a las Bravas",
        "natural": "peak"
      },
      "geometry": {
        "type": "Point",
        "coordinates": [
          -6.8131223,
          39.8730248
        ]
      },
      "id": "node/1241603781"
    },
    {
      "type": "Feature",
      "properties": {
        "@id": "node/1241603850",
        "ele": "313",
        "name": "Cerro de la Hoya Negra",
        "natural": "peak"
      },
      "geometry": {
        "type": "Point",
        "coordinates": [
          -6.4253856,
          39.720501
        ]
      },
      "id": "node/1241603850"
    },
    {
      "type": "Feature",
      "properties": {
        "@id": "node/1241603940",
        "ele": "531",
        "name": "Cerro de los Castillejos",
        "natural": "peak"
      },
      "geometry": {
        "type": "Point",
        "coordinates": [
          -6.3705831,
          39.8138055
        ]
      },
      "id": "node/1241603940"
    },
    {
      "type": "Feature",
      "properties": {
        "@id": "node/1241604085",
        "ele": "647",
        "name": "Risco del Milanillo",
        "natural": "peak"
      },
      "geometry": {
        "type": "Point",
        "coordinates": [
          -5.6033074,
          39.7682383
        ]
      },
      "id": "node/1241604085"
    },
    {
      "type": "Feature",
      "properties": {
        "@id": "node/1241605944",
        "ele": "301",
        "name": "Alto del Caballero",
        "natural": "peak"
      },
      "geometry": {
        "type": "Point",
        "coordinates": [
          -6.4720713,
          39.7471878
        ]
      },
      "id": "node/1241605944"
    },
    {
      "type": "Feature",
      "properties": {
        "@id": "node/1241605950",
        "ele": "777",
        "name": "Cerro de la Parrilla",
        "natural": "peak"
      },
      "geometry": {
        "type": "Point",
        "coordinates": [
          -5.6454962,
          39.7001437
        ]
      },
      "id": "node/1241605950"
    },
    {
      "type": "Feature",
      "properties": {
        "@id": "node/1241605970",
        "ele": "314",
        "name": "Peña Gorda",
        "natural": "peak"
      },
      "geometry": {
        "type": "Point",
        "coordinates": [
          -6.6475962,
          39.8508806
        ]
      },
      "id": "node/1241605970"
    },
    {
      "type": "Feature",
      "properties": {
        "@id": "node/1241606029",
        "ele": "624",
        "name": "Risco Gordo",
        "natural": "peak"
      },
      "geometry": {
        "type": "Point",
        "coordinates": [
          -5.6067674,
          39.7695568
        ]
      },
      "id": "node/1241606029"
    },
    {
      "type": "Feature",
      "properties": {
        "@id": "node/1241606184",
        "ele": "476",
        "name": "Cerro del Frontón",
        "natural": "peak"
      },
      "geometry": {
        "type": "Point",
        "coordinates": [
          -5.8777734,
          39.7502273
        ]
      },
      "id": "node/1241606184"
    },
    {
      "type": "Feature",
      "properties": {
        "@id": "node/1241606287",
        "ele": "763",
        "name": "Canchal del Yerbero",
        "natural": "peak"
      },
      "geometry": {
        "type": "Point",
        "coordinates": [
          -5.7593909,
          39.7253974
        ]
      },
      "id": "node/1241606287"
    },
    {
      "type": "Feature",
      "properties": {
        "@id": "node/1241606301",
        "ele": "354",
        "name": "Cerro del Retamar",
        "natural": "peak"
      },
      "geometry": {
        "type": "Point",
        "coordinates": [
          -6.4035545,
          39.7694325
        ]
      },
      "id": "node/1241606301"
    },
    {
      "type": "Feature",
      "properties": {
        "@id": "node/1241606457",
        "ele": "701",
        "name": "Peña del Águila",
        "natural": "peak"
      },
      "geometry": {
        "type": "Point",
        "coordinates": [
          -6.4058475,
          39.8152464
        ]
      },
      "id": "node/1241606457"
    },
    {
      "type": "Feature",
      "properties": {
        "@id": "node/1241606463",
        "ele": "504",
        "name": "Cerro del Alto Majal",
        "natural": "peak"
      },
      "geometry": {
        "type": "Point",
        "coordinates": [
          -5.587608,
          39.7417803
        ]
      },
      "id": "node/1241606463"
    },
    {
      "type": "Feature",
      "properties": {
        "@id": "node/1241606503",
        "ele": "417",
        "name": "Cancho Gordo",
        "natural": "peak"
      },
      "geometry": {
        "type": "Point",
        "coordinates": [
          -5.5369239,
          39.7865962
        ]
      },
      "id": "node/1241606503"
    },
    {
      "type": "Feature",
      "properties": {
        "@id": "node/1241606639",
        "ele": "327",
        "name": "Cerros de la Pedrera",
        "natural": "peak"
      },
      "geometry": {
        "type": "Point",
        "coordinates": [
          -6.2977947,
          39.7358882
        ]
      },
      "id": "node/1241606639"
    },
    {
      "type": "Feature",
      "properties": {
        "@id": "node/1241606777",
        "ele": "442",
        "name": "Jimona",
        "natural": "peak"
      },
      "geometry": {
        "type": "Point",
        "coordinates": [
          -5.7196681,
          39.7335427
        ]
      },
      "id": "node/1241606777"
    },
    {
      "type": "Feature",
      "properties": {
        "@id": "node/1241606927",
        "ele": "425",
        "name": "Cabeza de los Benitos",
        "natural": "peak"
      },
      "geometry": {
        "type": "Point",
        "coordinates": [
          -6.1291707,
          39.7306448
        ]
      },
      "id": "node/1241606927"
    },
    {
      "type": "Feature",
      "properties": {
        "@id": "node/1241607033",
        "ele": "417",
        "name": "Cancho del Fraile",
        "natural": "peak"
      },
      "geometry": {
        "type": "Point",
        "coordinates": [
          -5.5753659,
          39.7987745
        ]
      },
      "id": "node/1241607033"
    },
    {
      "type": "Feature",
      "properties": {
        "@id": "node/1241607054",
        "ele": "447",
        "name": "Cerro del Barrerón",
        "natural": "peak"
      },
      "geometry": {
        "type": "Point",
        "coordinates": [
          -5.5903025,
          39.7835919
        ]
      },
      "id": "node/1241607054"
    },
    {
      "type": "Feature",
      "properties": {
        "@id": "node/1241608738",
        "ele": "711",
        "name": "Cerro de la Olivilla",
        "natural": "peak"
      },
      "geometry": {
        "type": "Point",
        "coordinates": [
          -5.5715247,
          39.692041
        ]
      },
      "id": "node/1241608738"
    },
    {
      "type": "Feature",
      "properties": {
        "@id": "node/1241608930",
        "ele": "612",
        "name": "San Juan",
        "natural": "peak"
      },
      "geometry": {
        "type": "Point",
        "coordinates": [
          -6.4290113,
          39.8223631
        ]
      },
      "id": "node/1241608930"
    },
    {
      "type": "Feature",
      "properties": {
        "@id": "node/1241609085",
        "ele": "763",
        "name": "El Cotorro",
        "natural": "peak"
      },
      "geometry": {
        "type": "Point",
        "coordinates": [
          -5.6866271,
          39.7282097
        ]
      },
      "id": "node/1241609085"
    },
    {
      "type": "Feature",
      "properties": {
        "@id": "node/1241609133",
        "ele": "422",
        "name": "El Pibor",
        "natural": "peak"
      },
      "geometry": {
        "type": "Point",
        "coordinates": [
          -5.5290277,
          39.8003679
        ]
      },
      "id": "node/1241609133"
    },
    {
      "type": "Feature",
      "properties": {
        "@id": "node/1241609482",
        "ele": "343",
        "name": "Cerro del Águila",
        "natural": "peak"
      },
      "geometry": {
        "type": "Point",
        "coordinates": [
          -6.1908327,
          39.7883781
        ]
      },
      "id": "node/1241609482"
    },
    {
      "type": "Feature",
      "properties": {
        "@id": "node/1241609669",
        "ele": "342",
        "name": "Cerro de la Carrascosa",
        "natural": "peak"
      },
      "geometry": {
        "type": "Point",
        "coordinates": [
          -6.4355132,
          39.767533
        ]
      },
      "id": "node/1241609669"
    },
    {
      "type": "Feature",
      "properties": {
        "@id": "node/1241609857",
        "ele": "266",
        "name": "El Caballero",
        "natural": "peak"
      },
      "geometry": {
        "type": "Point",
        "coordinates": [
          -6.4735779,
          39.7398611
        ]
      },
      "id": "node/1241609857"
    },
    {
      "type": "Feature",
      "properties": {
        "@id": "node/1241610072",
        "ele": "435",
        "name": "Canchera de Valdehierro",
        "natural": "peak"
      },
      "geometry": {
        "type": "Point",
        "coordinates": [
          -5.5728917,
          39.7872019
        ]
      },
      "id": "node/1241610072"
    },
    {
      "type": "Feature",
      "properties": {
        "@id": "node/1241610106",
        "ele": "363",
        "name": "El Cornicabral",
        "natural": "peak"
      },
      "geometry": {
        "type": "Point",
        "coordinates": [
          -5.8670664,
          39.8294427
        ]
      },
      "id": "node/1241610106"
    },
    {
      "type": "Feature",
      "properties": {
        "@id": "node/1241610315",
        "ele": "459",
        "name": "Cerro de la Aliseda",
        "natural": "peak"
      },
      "geometry": {
        "type": "Point",
        "coordinates": [
          -5.5822405,
          39.7182452
        ]
      },
      "id": "node/1241610315"
    },
    {
      "type": "Feature",
      "properties": {
        "@id": "node/1241610350",
        "ele": "447",
        "name": "Canchos Blancos",
        "natural": "peak"
      },
      "geometry": {
        "type": "Point",
        "coordinates": [
          -5.5796403,
          39.7879884
        ]
      },
      "id": "node/1241610350"
    },
    {
      "type": "Feature",
      "properties": {
        "@id": "node/1241610353",
        "ele": "497",
        "name": "Cerros de Tintera",
        "natural": "peak"
      },
      "geometry": {
        "type": "Point",
        "coordinates": [
          -5.5418716,
          39.7389598
        ]
      },
      "id": "node/1241610353"
    },
    {
      "type": "Feature",
      "properties": {
        "@id": "node/1241610799",
        "ele": "351",
        "name": "El Cuervo",
        "natural": "peak"
      },
      "geometry": {
        "type": "Point",
        "coordinates": [
          -6.4227068,
          39.7467665
        ]
      },
      "id": "node/1241610799"
    },
    {
      "type": "Feature",
      "properties": {
        "@id": "node/1241610856",
        "ele": "576",
        "name": "Los Pertegones",
        "natural": "peak"
      },
      "geometry": {
        "type": "Point",
        "coordinates": [
          -5.8330914,
          39.7557285
        ]
      },
      "id": "node/1241610856"
    },
    {
      "type": "Feature",
      "properties": {
        "@id": "node/1241610998",
        "ele": "421",
        "name": "Cerro de la Covacha",
        "natural": "peak"
      },
      "geometry": {
        "type": "Point",
        "coordinates": [
          -6.1529369,
          39.7201693
        ]
      },
      "id": "node/1241610998"
    },
    {
      "type": "Feature",
      "properties": {
        "@id": "node/1241611103",
        "ele": "656",
        "name": "Cerro de la Silleta Grande",
        "natural": "peak"
      },
      "geometry": {
        "type": "Point",
        "coordinates": [
          -5.7916778,
          39.732513
        ]
      },
      "id": "node/1241611103"
    },
    {
      "type": "Feature",
      "properties": {
        "@id": "node/1241612091",
        "ele": "546",
        "name": "Morro Grande",
        "natural": "peak"
      },
      "geometry": {
        "type": "Point",
        "coordinates": [
          -5.8070581,
          39.7122723
        ]
      },
      "id": "node/1241612091"
    },
    {
      "type": "Feature",
      "properties": {
        "@id": "node/1241612135",
        "ele": "472",
        "name": "El Canchal",
        "natural": "peak"
      },
      "geometry": {
        "type": "Point",
        "coordinates": [
          -6.7101964,
          39.8664509
        ]
      },
      "id": "node/1241612135"
    },
    {
      "type": "Feature",
      "properties": {
        "@id": "node/1241612272",
        "ele": "381",
        "name": "Cerro Calero",
        "natural": "peak"
      },
      "geometry": {
        "type": "Point",
        "coordinates": [
          -5.6932979,
          39.7657625
        ]
      },
      "id": "node/1241612272"
    },
    {
      "type": "Feature",
      "properties": {
        "@id": "node/1241612309",
        "ele": "356",
        "name": "El Tornero",
        "natural": "peak"
      },
      "geometry": {
        "type": "Point",
        "coordinates": [
          -6.0936556,
          39.8245462
        ]
      },
      "id": "node/1241612309"
    },
    {
      "type": "Feature",
      "properties": {
        "@id": "node/1241612382",
        "ele": "313",
        "name": "Cabeza de Juan Martín",
        "natural": "peak"
      },
      "geometry": {
        "type": "Point",
        "coordinates": [
          -5.9977804,
          39.7962789
        ]
      },
      "id": "node/1241612382"
    },
    {
      "type": "Feature",
      "properties": {
        "@id": "node/1241612415",
        "ele": "351",
        "natural": "peak"
      },
      "geometry": {
        "type": "Point",
        "coordinates": [
          -5.9961006,
          39.8946782
        ]
      },
      "id": "node/1241612415"
    },
    {
      "type": "Feature",
      "properties": {
        "@id": "node/1241612584",
        "ele": "464",
        "name": "Cabezón",
        "natural": "peak"
      },
      "geometry": {
        "type": "Point",
        "coordinates": [
          -6.3612845,
          39.8411274
        ]
      },
      "id": "node/1241612584"
    },
    {
      "type": "Feature",
      "properties": {
        "@id": "node/1241613204",
        "ele": "537",
        "name": "Cerro de Corralejos",
        "natural": "peak"
      },
      "geometry": {
        "type": "Point",
        "coordinates": [
          -5.8559592,
          39.6919139
        ]
      },
      "id": "node/1241613204"
    },
    {
      "type": "Feature",
      "properties": {
        "@id": "node/1241613457",
        "ele": "397",
        "name": "Cerro de los Terragueros",
        "natural": "peak"
      },
      "geometry": {
        "type": "Point",
        "coordinates": [
          -5.6134731,
          39.7811964
        ]
      },
      "id": "node/1241613457"
    },
    {
      "type": "Feature",
      "properties": {
        "@id": "node/1241614269",
        "ele": "309",
        "name": "Cancho de Nicolás",
        "natural": "peak"
      },
      "geometry": {
        "type": "Point",
        "coordinates": [
          -6.8066047,
          39.8582643
        ]
      },
      "id": "node/1241614269"
    },
    {
      "type": "Feature",
      "properties": {
        "@id": "node/1241614314",
        "ele": "368",
        "name": "Cerro de la Cabrera",
        "natural": "peak"
      },
      "geometry": {
        "type": "Point",
        "coordinates": [
          -6.428398,
          39.7447331
        ]
      },
      "id": "node/1241614314"
    },
    {
      "type": "Feature",
      "properties": {
        "@id": "node/1241614548",
        "ele": "713",
        "name": "Frontal I",
        "natural": "peak"
      },
      "geometry": {
        "type": "Point",
        "coordinates": [
          -5.7149728,
          39.7050553
        ]
      },
      "id": "node/1241614548"
    },
    {
      "type": "Feature",
      "properties": {
        "@id": "node/1241614597",
        "ele": "464",
        "name": "Cerro de la Cabecilla",
        "natural": "peak"
      },
      "geometry": {
        "type": "Point",
        "coordinates": [
          -5.5265794,
          39.7758689
        ]
      },
      "id": "node/1241614597"
    },
    {
      "type": "Feature",
      "properties": {
        "@id": "node/1241615105",
        "ele": "632",
        "name": "Cerro Mahillo",
        "natural": "peak"
      },
      "geometry": {
        "type": "Point",
        "coordinates": [
          -5.5969775,
          39.7649019
        ]
      },
      "id": "node/1241615105"
    },
    {
      "type": "Feature",
      "properties": {
        "@id": "node/1241615392",
        "ele": "709",
        "name": "Cerro de la Varajudía",
        "natural": "peak"
      },
      "geometry": {
        "type": "Point",
        "coordinates": [
          -5.6560353,
          39.7077587
        ]
      },
      "id": "node/1241615392"
    },
    {
      "type": "Feature",
      "properties": {
        "@id": "node/1241615617",
        "ele": "354",
        "name": "Cerro Madroño",
        "natural": "peak"
      },
      "geometry": {
        "type": "Point",
        "coordinates": [
          -6.830173,
          39.8342786
        ]
      },
      "id": "node/1241615617"
    },
    {
      "type": "Feature",
      "properties": {
        "@id": "node/1241615661",
        "ele": "1602",
        "name": "Cerro de los Serradores",
        "natural": "peak",
        "source": "Instituto Geográfico Nacional"
      },
      "geometry": {
        "type": "Point",
        "coordinates": [
          -5.6840358,
          40.2240448
        ]
      },
      "id": "node/1241615661"
    },
    {
      "type": "Feature",
      "properties": {
        "@id": "node/1241615691",
        "ele": "2338",
        "name": "Canchal del Turmal",
        "natural": "peak",
        "place": "locality"
      },
      "geometry": {
        "type": "Point",
        "coordinates": [
          -5.7217497,
          40.2913734
        ]
      },
      "id": "node/1241615691"
    },
    {
      "type": "Feature",
      "properties": {
        "@id": "node/1241615862",
        "ele": "622",
        "name": "Cerro de las Moratas",
        "natural": "peak"
      },
      "geometry": {
        "type": "Point",
        "coordinates": [
          -5.7632116,
          39.6971948
        ]
      },
      "id": "node/1241615862"
    },
    {
      "type": "Feature",
      "properties": {
        "@id": "node/1241615964",
        "ele": "281",
        "name": "Risco del Diablo",
        "natural": "peak"
      },
      "geometry": {
        "type": "Point",
        "coordinates": [
          -6.3892718,
          39.736971
        ]
      },
      "id": "node/1241615964"
    },
    {
      "type": "Feature",
      "properties": {
        "@id": "node/1241616014",
        "ele": "463",
        "name": "Cerro de Santa Catalina",
        "natural": "peak"
      },
      "geometry": {
        "type": "Point",
        "coordinates": [
          -6.4854047,
          39.8117376
        ]
      },
      "id": "node/1241616014"
    },
    {
      "type": "Feature",
      "properties": {
        "@id": "node/1241616103",
        "ele": "671",
        "name": "La Cumbre",
        "natural": "peak"
      },
      "geometry": {
        "type": "Point",
        "coordinates": [
          -6.3314569,
          39.8274207
        ]
      },
      "id": "node/1241616103"
    },
    {
      "type": "Feature",
      "properties": {
        "@id": "node/1241616115",
        "ele": "746",
        "name": "Cancho del Portalón",
        "natural": "peak"
      },
      "geometry": {
        "type": "Point",
        "coordinates": [
          -5.7646575,
          39.7263484
        ]
      },
      "id": "node/1241616115"
    },
    {
      "type": "Feature",
      "properties": {
        "@id": "node/1241616359",
        "ele": "660",
        "name": "Peña de los Cenizos",
        "natural": "peak"
      },
      "geometry": {
        "type": "Point",
        "coordinates": [
          -6.4137781,
          39.817131
        ]
      },
      "id": "node/1241616359"
    },
    {
      "type": "Feature",
      "properties": {
        "@id": "node/1241617078",
        "ele": "433",
        "name": "Cerro de la Fuente",
        "natural": "peak"
      },
      "geometry": {
        "type": "Point",
        "coordinates": [
          -5.7020921,
          39.7383275
        ]
      },
      "id": "node/1241617078"
    },
    {
      "type": "Feature",
      "properties": {
        "@id": "node/1241617179",
        "ele": "293",
        "name": "Cerro Castejón",
        "natural": "peak"
      },
      "geometry": {
        "type": "Point",
        "coordinates": [
          -5.7451786,
          39.7831845
        ]
      },
      "id": "node/1241617179"
    },
    {
      "type": "Feature",
      "properties": {
        "@id": "node/1241617484",
        "ele": "327",
        "name": "Cerro Gordo",
        "natural": "peak"
      },
      "geometry": {
        "type": "Point",
        "coordinates": [
          -6.411758,
          39.7751028
        ]
      },
      "id": "node/1241617484"
    },
    {
      "type": "Feature",
      "properties": {
        "@id": "node/1241618154",
        "ele": "340",
        "name": "Cerro Alto",
        "natural": "peak"
      },
      "geometry": {
        "type": "Point",
        "coordinates": [
          -5.9936575,
          39.7658759
        ]
      },
      "id": "node/1241618154"
    },
    {
      "type": "Feature",
      "properties": {
        "@id": "node/1241618305",
        "ele": "317",
        "name": "Cerro del Pinto",
        "natural": "peak"
      },
      "geometry": {
        "type": "Point",
        "coordinates": [
          -6.6617851,
          39.7870554
        ]
      },
      "id": "node/1241618305"
    },
    {
      "type": "Feature",
      "properties": {
        "@id": "node/1241618469",
        "ele": "262",
        "name": "Cerro de la Sarna",
        "natural": "peak"
      },
      "geometry": {
        "type": "Point",
        "coordinates": [
          -6.4317576,
          39.7183102
        ]
      },
      "id": "node/1241618469"
    },
    {
      "type": "Feature",
      "properties": {
        "@id": "node/1241618773",
        "ele": "433",
        "name": "Cerromolino",
        "natural": "peak"
      },
      "geometry": {
        "type": "Point",
        "coordinates": [
          -5.7188957,
          39.7433859
        ]
      },
      "id": "node/1241618773"
    },
    {
      "type": "Feature",
      "properties": {
        "@id": "node/1241619053",
        "ele": "744",
        "name": "Frontal II",
        "natural": "peak"
      },
      "geometry": {
        "type": "Point",
        "coordinates": [
          -5.7106159,
          39.6987977
        ]
      },
      "id": "node/1241619053"
    },
    {
      "type": "Feature",
      "properties": {
        "@id": "node/1241619240",
        "ele": "824",
        "name": "El Aeropuerto",
        "natural": "peak"
      },
      "geometry": {
        "type": "Point",
        "coordinates": [
          -5.6422244,
          39.6807558
        ]
      },
      "id": "node/1241619240"
    },
    {
      "type": "Feature",
      "properties": {
        "@id": "node/1241619454",
        "ele": "436",
        "name": "Cerro de la Cisterna",
        "natural": "peak"
      },
      "geometry": {
        "type": "Point",
        "coordinates": [
          -6.2073741,
          39.6899119
        ]
      },
      "id": "node/1241619454"
    },
    {
      "type": "Feature",
      "properties": {
        "@id": "node/1241619955",
        "ele": "816",
        "name": "Cerro de las Uvas",
        "natural": "peak",
        "source": "Instituto Geográfico Nacional"
      },
      "geometry": {
        "type": "Point",
        "coordinates": [
          -5.7630122,
          40.2030919
        ]
      },
      "id": "node/1241619955"
    },
    {
      "type": "Feature",
      "properties": {
        "@id": "node/1241620933",
        "ele": "328",
        "name": "Cerro de los Piquitos",
        "natural": "peak"
      },
      "geometry": {
        "type": "Point",
        "coordinates": [
          -6.4252125,
          39.7676411
        ]
      },
      "id": "node/1241620933"
    },
    {
      "type": "Feature",
      "properties": {
        "@id": "node/1241620945",
        "ele": "762",
        "name": "Cerro del Castaño",
        "natural": "peak"
      },
      "geometry": {
        "type": "Point",
        "coordinates": [
          -5.5931179,
          39.70327
        ]
      },
      "id": "node/1241620945"
    },
    {
      "type": "Feature",
      "properties": {
        "@id": "node/1241622113",
        "ele": "532",
        "name": "Morrón del Sevellar",
        "natural": "peak"
      },
      "geometry": {
        "type": "Point",
        "coordinates": [
          -5.8251943,
          39.7132987
        ]
      },
      "id": "node/1241622113"
    },
    {
      "type": "Feature",
      "properties": {
        "@id": "node/1241622499",
        "ele": "302",
        "name": "Peñas Altas",
        "natural": "peak"
      },
      "geometry": {
        "type": "Point",
        "coordinates": [
          -6.404503,
          39.7278344
        ]
      },
      "id": "node/1241622499"
    },
    {
      "type": "Feature",
      "properties": {
        "@id": "node/1241622603",
        "ele": "442",
        "name": "La Cumbre",
        "natural": "peak"
      },
      "geometry": {
        "type": "Point",
        "coordinates": [
          -6.4459107,
          39.7941008
        ]
      },
      "id": "node/1241622603"
    },
    {
      "type": "Feature",
      "properties": {
        "@id": "node/1241622959",
        "ele": "311",
        "name": "Cerro del Charco del Hombre",
        "natural": "peak"
      },
      "geometry": {
        "type": "Point",
        "coordinates": [
          -6.3806988,
          39.7578683
        ]
      },
      "id": "node/1241622959"
    },
    {
      "type": "Feature",
      "properties": {
        "@id": "node/1241623150",
        "ele": "437",
        "name": "Las Encrucijadas",
        "natural": "peak"
      },
      "geometry": {
        "type": "Point",
        "coordinates": [
          -5.7155579,
          39.7303345
        ]
      },
      "id": "node/1241623150"
    },
    {
      "type": "Feature",
      "properties": {
        "@id": "node/1241623317",
        "ele": "776",
        "name": "El Acarreón",
        "natural": "peak"
      },
      "geometry": {
        "type": "Point",
        "coordinates": [
          -5.538145,
          39.6725327
        ]
      },
      "id": "node/1241623317"
    },
    {
      "type": "Feature",
      "properties": {
        "@id": "node/1241623364",
        "ele": "335",
        "name": "Risco de la Junta",
        "natural": "peak"
      },
      "geometry": {
        "type": "Point",
        "coordinates": [
          -5.5571785,
          39.8084372
        ]
      },
      "id": "node/1241623364"
    },
    {
      "type": "Feature",
      "properties": {
        "@id": "node/1241623527",
        "ele": "347",
        "name": "Cerro Roque",
        "natural": "peak"
      },
      "geometry": {
        "type": "Point",
        "coordinates": [
          -6.5928104,
          39.7880181
        ]
      },
      "id": "node/1241623527"
    },
    {
      "type": "Feature",
      "properties": {
        "@id": "node/1241623815",
        "ele": "347",
        "name": "Cerro del Pavero",
        "natural": "peak"
      },
      "geometry": {
        "type": "Point",
        "coordinates": [
          -6.393851,
          39.769947
        ]
      },
      "id": "node/1241623815"
    },
    {
      "type": "Feature",
      "properties": {
        "@id": "node/1241624678",
        "ele": "381",
        "name": "Cerro de la Lobera",
        "natural": "peak"
      },
      "geometry": {
        "type": "Point",
        "coordinates": [
          -5.5441513,
          39.7999925
        ]
      },
      "id": "node/1241624678"
    },
    {
      "type": "Feature",
      "properties": {
        "@id": "node/1241625484",
        "ele": "433",
        "name": "Sevellares de la Paloma",
        "natural": "peak"
      },
      "geometry": {
        "type": "Point",
        "coordinates": [
          -5.8225835,
          39.7244178
        ]
      },
      "id": "node/1241625484"
    },
    {
      "type": "Feature",
      "properties": {
        "@id": "node/1241625648",
        "ele": "452",
        "name": "La Cabreriza",
        "natural": "peak"
      },
      "geometry": {
        "type": "Point",
        "coordinates": [
          -6.5053252,
          39.8190499
        ]
      },
      "id": "node/1241625648"
    },
    {
      "type": "Feature",
      "properties": {
        "@id": "node/1241625704",
        "ele": "2121",
        "name": "Risco de los Peones",
        "natural": "peak"
      },
      "geometry": {
        "type": "Point",
        "coordinates": [
          -5.4211326,
          40.2453816
        ]
      },
      "id": "node/1241625704"
    },
    {
      "type": "Feature",
      "properties": {
        "@id": "node/1241625848",
        "ele": "461",
        "name": "El Bigote",
        "natural": "peak"
      },
      "geometry": {
        "type": "Point",
        "coordinates": [
          -6.500389,
          39.8177378
        ]
      },
      "id": "node/1241625848"
    },
    {
      "type": "Feature",
      "properties": {
        "@id": "node/1241625870",
        "ele": "539",
        "name": "Cerro Cártamo",
        "natural": "peak"
      },
      "geometry": {
        "type": "Point",
        "coordinates": [
          -5.7942273,
          39.7145549
        ]
      },
      "id": "node/1241625870"
    },
    {
      "type": "Feature",
      "properties": {
        "@id": "node/1241626898",
        "ele": "338",
        "name": "Cerro de la Cocha",
        "natural": "peak"
      },
      "geometry": {
        "type": "Point",
        "coordinates": [
          -6.0796239,
          39.8265748
        ]
      },
      "id": "node/1241626898"
    },
    {
      "type": "Feature",
      "properties": {
        "@id": "node/1241627595",
        "ele": "376",
        "name": "El Pando",
        "natural": "peak"
      },
      "geometry": {
        "type": "Point",
        "coordinates": [
          -6.5694152,
          39.8434384
        ]
      },
      "id": "node/1241627595"
    },
    {
      "type": "Feature",
      "properties": {
        "@id": "node/1241627742",
        "ele": "331",
        "name": "Atalayuela",
        "natural": "peak"
      },
      "geometry": {
        "type": "Point",
        "coordinates": [
          -6.3703491,
          39.7526922
        ]
      },
      "id": "node/1241627742"
    },
    {
      "type": "Feature",
      "properties": {
        "@id": "node/1241627867",
        "ele": "381",
        "name": "El Quejigo",
        "natural": "peak"
      },
      "geometry": {
        "type": "Point",
        "coordinates": [
          -5.9776417,
          39.825316
        ]
      },
      "id": "node/1241627867"
    },
    {
      "type": "Feature",
      "properties": {
        "@id": "node/1241628120",
        "ele": "353",
        "name": "Cerro del Águila",
        "natural": "peak"
      },
      "geometry": {
        "type": "Point",
        "coordinates": [
          -5.7566257,
          39.7692988
        ]
      },
      "id": "node/1241628120"
    },
    {
      "type": "Feature",
      "properties": {
        "@id": "node/1241629011",
        "ele": "269",
        "name": "Cerro de la Horca",
        "natural": "peak"
      },
      "geometry": {
        "type": "Point",
        "coordinates": [
          -6.4528594,
          39.7291155
        ]
      },
      "id": "node/1241629011"
    },
    {
      "type": "Feature",
      "properties": {
        "@id": "node/1241629136",
        "ele": "393",
        "name": "El Espino",
        "natural": "peak"
      },
      "geometry": {
        "type": "Point",
        "coordinates": [
          -6.4230522,
          39.78064
        ]
      },
      "id": "node/1241629136"
    },
    {
      "type": "Feature",
      "properties": {
        "@id": "node/1241630129",
        "ele": "561",
        "name": "Manchón de Mojena",
        "natural": "peak"
      },
      "geometry": {
        "type": "Point",
        "coordinates": [
          -6.440611,
          39.8125044
        ]
      },
      "id": "node/1241630129"
    },
    {
      "type": "Feature",
      "properties": {
        "@id": "node/1241630336",
        "ele": "1817",
        "name": "Cerro del Acarradero",
        "natural": "peak",
        "source": "Instituto Geográfico Nacional"
      },
      "geometry": {
        "type": "Point",
        "coordinates": [
          -5.6860864,
          40.1934818
        ]
      },
      "id": "node/1241630336"
    },
    {
      "type": "Feature",
      "properties": {
        "@id": "node/1241630346",
        "ele": "288",
        "name": "Cerro del Rano",
        "natural": "peak"
      },
      "geometry": {
        "type": "Point",
        "coordinates": [
          -5.910737,
          39.8199601
        ]
      },
      "id": "node/1241630346"
    },
    {
      "type": "Feature",
      "properties": {
        "@id": "node/1241630545",
        "ele": "516",
        "name": "El Sierro",
        "natural": "peak"
      },
      "geometry": {
        "type": "Point",
        "coordinates": [
          -5.5554931,
          39.7545094
        ]
      },
      "id": "node/1241630545"
    },
    {
      "type": "Feature",
      "properties": {
        "@id": "node/1241630726",
        "ele": "633",
        "name": "Cerro de la Silleta Chica",
        "natural": "peak"
      },
      "geometry": {
        "type": "Point",
        "coordinates": [
          -5.7988023,
          39.7356114
        ]
      },
      "id": "node/1241630726"
    },
    {
      "type": "Feature",
      "properties": {
        "@id": "node/1241630748",
        "ele": "319",
        "name": "Cerro del Cesto",
        "natural": "peak"
      },
      "geometry": {
        "type": "Point",
        "coordinates": [
          -5.7341087,
          39.7755422
        ]
      },
      "id": "node/1241630748"
    },
    {
      "type": "Feature",
      "properties": {
        "@id": "node/1241631584",
        "ele": "814",
        "name": "Peña de los Valles",
        "natural": "peak"
      },
      "geometry": {
        "type": "Point",
        "coordinates": [
          -6.4057264,
          39.8047552
        ]
      },
      "id": "node/1241631584"
    },
    {
      "type": "Feature",
      "properties": {
        "@id": "node/1241632241",
        "ele": "394",
        "name": "Cerro Horno de la Cal",
        "natural": "peak"
      },
      "geometry": {
        "type": "Point",
        "coordinates": [
          -5.7323129,
          39.7369793
        ]
      },
      "id": "node/1241632241"
    },
    {
      "type": "Feature",
      "properties": {
        "@id": "node/1241633083",
        "ele": "346",
        "name": "Cabeza Rubia",
        "natural": "peak"
      },
      "geometry": {
        "type": "Point",
        "coordinates": [
          -6.4388228,
          39.7715243
        ]
      },
      "id": "node/1241633083"
    },
    {
      "type": "Feature",
      "properties": {
        "@id": "node/1241633183",
        "ele": "401",
        "name": "Cerro de Valdezorreras",
        "natural": "peak"
      },
      "geometry": {
        "type": "Point",
        "coordinates": [
          -5.6812077,
          39.747469
        ]
      },
      "id": "node/1241633183"
    },
    {
      "type": "Feature",
      "properties": {
        "@id": "node/1241633213",
        "ele": "383",
        "name": "Cerro de la Ermita",
        "natural": "peak"
      },
      "geometry": {
        "type": "Point",
        "coordinates": [
          -5.5918287,
          39.7746653
        ]
      },
      "id": "node/1241633213"
    },
    {
      "type": "Feature",
      "properties": {
        "@id": "node/1241633284",
        "ele": "1446",
        "name": "Cerro Carretas",
        "natural": "peak",
        "source": "Instituto Geográfico Nacional"
      },
      "geometry": {
        "type": "Point",
        "coordinates": [
          -5.7169897,
          40.1939439
        ]
      },
      "id": "node/1241633284"
    },
    {
      "type": "Feature",
      "properties": {
        "@id": "node/1241633904",
        "ele": "292",
        "name": "Cerro de los Guijarros",
        "natural": "peak"
      },
      "geometry": {
        "type": "Point",
        "coordinates": [
          -6.4088594,
          39.7246168
        ]
      },
      "id": "node/1241633904"
    },
    {
      "type": "Feature",
      "properties": {
        "@id": "node/1241634063",
        "ele": "536",
        "name": "Cerro de las Canteras",
        "natural": "peak"
      },
      "geometry": {
        "type": "Point",
        "coordinates": [
          -6.3685919,
          39.8179653
        ]
      },
      "id": "node/1241634063"
    },
    {
      "type": "Feature",
      "properties": {
        "@id": "node/1241634093",
        "ele": "768",
        "name": "Cerro de las Lagunillas",
        "natural": "peak"
      },
      "geometry": {
        "type": "Point",
        "coordinates": [
          -5.756989,
          39.722758
        ]
      },
      "id": "node/1241634093"
    },
    {
      "type": "Feature",
      "properties": {
        "@id": "node/1241634291",
        "ele": "322",
        "name": "Zanco del Humo",
        "natural": "peak"
      },
      "geometry": {
        "type": "Point",
        "coordinates": [
          -6.5904654,
          39.8007692
        ]
      },
      "id": "node/1241634291"
    },
    {
      "type": "Feature",
      "properties": {
        "@id": "node/1241634756",
        "ele": "703",
        "name": "Cantaelgallo",
        "natural": "peak"
      },
      "geometry": {
        "type": "Point",
        "coordinates": [
          -5.7794483,
          39.7025351
        ]
      },
      "id": "node/1241634756"
    },
    {
      "type": "Feature",
      "properties": {
        "@id": "node/1241634781",
        "ele": "511",
        "name": "Cancho del Guarro",
        "natural": "peak"
      },
      "geometry": {
        "type": "Point",
        "coordinates": [
          -5.8288637,
          39.8158306
        ]
      },
      "id": "node/1241634781"
    },
    {
      "type": "Feature",
      "properties": {
        "@id": "node/1241635314",
        "ele": "286",
        "name": "Pajares",
        "natural": "peak"
      },
      "geometry": {
        "type": "Point",
        "coordinates": [
          -6.6545293,
          39.7852366
        ]
      },
      "id": "node/1241635314"
    },
    {
      "type": "Feature",
      "properties": {
        "@id": "node/1241635452",
        "ele": "555",
        "name": "Cabezo Alto",
        "natural": "peak"
      },
      "geometry": {
        "type": "Point",
        "coordinates": [
          -5.5386519,
          39.768377
        ]
      },
      "id": "node/1241635452"
    },
    {
      "type": "Feature",
      "properties": {
        "@id": "node/1241635794",
        "ele": "665",
        "name": "Cerro del Reventón",
        "natural": "peak"
      },
      "geometry": {
        "type": "Point",
        "coordinates": [
          -6.3845236,
          39.8097995
        ]
      },
      "id": "node/1241635794"
    },
    {
      "type": "Feature",
      "properties": {
        "@id": "node/1241636602",
        "ele": "322",
        "name": "Cerro del Sotillo",
        "natural": "peak"
      },
      "geometry": {
        "type": "Point",
        "coordinates": [
          -6.3725719,
          39.7590068
        ]
      },
      "id": "node/1241636602"
    },
    {
      "type": "Feature",
      "properties": {
        "@id": "node/1241636612",
        "ele": "549",
        "name": "Morro Chico",
        "natural": "peak"
      },
      "geometry": {
        "type": "Point",
        "coordinates": [
          -5.8046618,
          39.707565
        ]
      },
      "id": "node/1241636612"
    },
    {
      "type": "Feature",
      "properties": {
        "@id": "node/1241636662",
        "ele": "457",
        "name": "Cerro de la Cantera",
        "natural": "peak"
      },
      "geometry": {
        "type": "Point",
        "coordinates": [
          -5.7305791,
          39.7516065
        ]
      },
      "id": "node/1241636662"
    },
    {
      "type": "Feature",
      "properties": {
        "@id": "node/1241638270",
        "ele": "474",
        "name": "Cancho Amarillo",
        "natural": "peak"
      },
      "geometry": {
        "type": "Point",
        "coordinates": [
          -6.4642953,
          39.8049916
        ]
      },
      "id": "node/1241638270"
    },
    {
      "type": "Feature",
      "properties": {
        "@id": "node/1241638501",
        "ele": "305",
        "name": "Cancho del Chivo",
        "natural": "peak"
      },
      "geometry": {
        "type": "Point",
        "coordinates": [
          -6.7998971,
          39.8486118
        ]
      },
      "id": "node/1241638501"
    },
    {
      "type": "Feature",
      "properties": {
        "@id": "node/1241638578",
        "ele": "413",
        "name": "Cerro de la Cabreriza",
        "natural": "peak"
      },
      "geometry": {
        "type": "Point",
        "coordinates": [
          -5.8621379,
          39.8007235
        ]
      },
      "id": "node/1241638578"
    },
    {
      "type": "Feature",
      "properties": {
        "@id": "node/1241638644",
        "ele": "334",
        "name": "Cerro de Tallisca",
        "natural": "peak"
      },
      "geometry": {
        "type": "Point",
        "coordinates": [
          -6.4282803,
          39.7476029
        ]
      },
      "id": "node/1241638644"
    },
    {
      "type": "Feature",
      "properties": {
        "@id": "node/1241639463",
        "ele": "311",
        "name": "Cerro Colorado",
        "natural": "peak"
      },
      "geometry": {
        "type": "Point",
        "coordinates": [
          -6.4297958,
          39.7627418
        ]
      },
      "id": "node/1241639463"
    },
    {
      "type": "Feature",
      "properties": {
        "@id": "node/1241639552",
        "ele": "326",
        "name": "Cerro del Zarzo",
        "natural": "peak"
      },
      "geometry": {
        "type": "Point",
        "coordinates": [
          -6.4415074,
          39.7645709
        ]
      },
      "id": "node/1241639552"
    },
    {
      "type": "Feature",
      "properties": {
        "@id": "node/1241639851",
        "ele": "421",
        "name": "Altos de la Cierva",
        "natural": "peak"
      },
      "geometry": {
        "type": "Point",
        "coordinates": [
          -6.1399864,
          39.7039696
        ]
      },
      "id": "node/1241639851"
    },
    {
      "type": "Feature",
      "properties": {
        "@id": "node/1241640256",
        "ele": "619",
        "name": "Cerro de los Morenos",
        "natural": "peak"
      },
      "geometry": {
        "type": "Point",
        "coordinates": [
          -5.7567785,
          39.6955513
        ]
      },
      "id": "node/1241640256"
    },
    {
      "type": "Feature",
      "properties": {
        "@id": "node/1241640385",
        "ele": "992",
        "name": "Cerro de la Timona",
        "natural": "peak",
        "source": "Instituto Geográfico Nacional"
      },
      "geometry": {
        "type": "Point",
        "coordinates": [
          -5.4818768,
          40.1405305
        ]
      },
      "id": "node/1241640385"
    },
    {
      "type": "Feature",
      "properties": {
        "@id": "node/1241640596",
        "ele": "308",
        "name": "Cerro del Tesoro",
        "natural": "peak"
      },
      "geometry": {
        "type": "Point",
        "coordinates": [
          -5.7100737,
          39.7757988
        ]
      },
      "id": "node/1241640596"
    },
    {
      "type": "Feature",
      "properties": {
        "@id": "node/1241640684",
        "ele": "827",
        "name": "Alto de las Majadillas",
        "natural": "peak"
      },
      "geometry": {
        "type": "Point",
        "coordinates": [
          -5.601226,
          39.7039901
        ]
      },
      "id": "node/1241640684"
    },
    {
      "type": "Feature",
      "properties": {
        "@id": "node/1241641236",
        "ele": "342",
        "name": "Cerro de Pajares",
        "natural": "peak"
      },
      "geometry": {
        "type": "Point",
        "coordinates": [
          -6.3936829,
          39.7602178
        ]
      },
      "id": "node/1241641236"
    },
    {
      "type": "Feature",
      "properties": {
        "@id": "node/1241641250",
        "ele": "437",
        "name": "El Cabezo",
        "natural": "peak"
      },
      "geometry": {
        "type": "Point",
        "coordinates": [
          -5.7236049,
          39.7417918
        ]
      },
      "id": "node/1241641250"
    },
    {
      "type": "Feature",
      "properties": {
        "@id": "node/1241641891",
        "ele": "413",
        "name": "Cerro de las Arenas",
        "natural": "peak"
      },
      "geometry": {
        "type": "Point",
        "coordinates": [
          -6.144648,
          39.7450049
        ]
      },
      "id": "node/1241641891"
    },
    {
      "type": "Feature",
      "properties": {
        "@id": "node/1241641972",
        "ele": "466",
        "name": "Cabeza de la Bolona",
        "natural": "peak"
      },
      "geometry": {
        "type": "Point",
        "coordinates": [
          -5.8869661,
          39.7296692
        ]
      },
      "id": "node/1241641972"
    },
    {
      "type": "Feature",
      "properties": {
        "@id": "node/1241642119",
        "ele": "313",
        "name": "Cerros de la Fuente del Socorro",
        "natural": "peak"
      },
      "geometry": {
        "type": "Point",
        "coordinates": [
          -6.3904096,
          39.7482541
        ]
      },
      "id": "node/1241642119"
    },
    {
      "type": "Feature",
      "properties": {
        "@id": "node/1241642428",
        "ele": "471",
        "name": "Cerro Maluéñez",
        "natural": "peak"
      },
      "geometry": {
        "type": "Point",
        "coordinates": [
          -5.8412556,
          39.7124694
        ]
      },
      "id": "node/1241642428"
    },
    {
      "type": "Feature",
      "properties": {
        "@id": "node/1241642502",
        "ele": "787",
        "name": "Cerro de la Peña",
        "natural": "peak"
      },
      "geometry": {
        "type": "Point",
        "coordinates": [
          -5.6236848,
          39.6822606
        ]
      },
      "id": "node/1241642502"
    },
    {
      "type": "Feature",
      "properties": {
        "@id": "node/1241642613",
        "ele": "388",
        "name": "Cerro Jabalí",
        "natural": "peak"
      },
      "geometry": {
        "type": "Point",
        "coordinates": [
          -5.6235443,
          39.7730938
        ]
      },
      "id": "node/1241642613"
    },
    {
      "type": "Feature",
      "properties": {
        "@id": "node/1241642793",
        "ele": "404",
        "name": "Cerro de la Plata",
        "natural": "peak"
      },
      "geometry": {
        "type": "Point",
        "coordinates": [
          -6.4194588,
          39.7834152
        ]
      },
      "id": "node/1241642793"
    },
    {
      "type": "Feature",
      "properties": {
        "@id": "node/1241643232",
        "ele": "381",
        "name": "Valdeobispo Chico",
        "natural": "peak"
      },
      "geometry": {
        "type": "Point",
        "coordinates": [
          -5.6556813,
          39.7770505
        ]
      },
      "id": "node/1241643232"
    },
    {
      "type": "Feature",
      "properties": {
        "@id": "node/1241643255",
        "ele": "378",
        "name": "Cerro de los Montesinos",
        "natural": "peak"
      },
      "geometry": {
        "type": "Point",
        "coordinates": [
          -5.8753736,
          39.8116113
        ]
      },
      "id": "node/1241643255"
    },
    {
      "type": "Feature",
      "properties": {
        "@id": "node/1241643313",
        "ele": "352",
        "name": "La Jara",
        "natural": "peak"
      },
      "geometry": {
        "type": "Point",
        "coordinates": [
          -5.5928954,
          39.8024369
        ]
      },
      "id": "node/1241643313"
    },
    {
      "type": "Feature",
      "properties": {
        "@id": "node/1241643335",
        "ele": "365",
        "name": "Cerro Aullador de Lobos",
        "natural": "peak"
      },
      "geometry": {
        "type": "Point",
        "coordinates": [
          -5.7799186,
          39.7841557
        ]
      },
      "id": "node/1241643335"
    },
    {
      "type": "Feature",
      "properties": {
        "@id": "node/1241644347",
        "ele": "341",
        "name": "Cerro Lenguo",
        "natural": "peak"
      },
      "geometry": {
        "type": "Point",
        "coordinates": [
          -5.7529738,
          39.7463999
        ]
      },
      "id": "node/1241644347"
    },
    {
      "type": "Feature",
      "properties": {
        "@id": "node/1241644777",
        "ele": "363",
        "name": "Cerro del Corral de los Linos",
        "natural": "peak"
      },
      "geometry": {
        "type": "Point",
        "coordinates": [
          -6.414292,
          39.7817118
        ]
      },
      "id": "node/1241644777"
    },
    {
      "type": "Feature",
      "properties": {
        "@id": "node/1241644817",
        "ele": "351",
        "name": "Cerro de la Pascuala",
        "natural": "peak"
      },
      "geometry": {
        "type": "Point",
        "coordinates": [
          -6.4221182,
          39.7436698
        ]
      },
      "id": "node/1241644817"
    },
    {
      "type": "Feature",
      "properties": {
        "@id": "node/1241645624",
        "ele": "335",
        "name": "Vuelta de la Hormiga",
        "natural": "peak"
      },
      "geometry": {
        "type": "Point",
        "coordinates": [
          -6.0171215,
          39.8893373
        ]
      },
      "id": "node/1241645624"
    },
    {
      "type": "Feature",
      "properties": {
        "@id": "node/1241645759",
        "ele": "369",
        "name": "Peñajara",
        "natural": "peak"
      },
      "geometry": {
        "type": "Point",
        "coordinates": [
          -6.13303,
          39.7839495
        ]
      },
      "id": "node/1241645759"
    },
    {
      "type": "Feature",
      "properties": {
        "@id": "node/1241645807",
        "ele": "289",
        "name": "Cerro de los Contrabandistas",
        "natural": "peak"
      },
      "geometry": {
        "type": "Point",
        "coordinates": [
          -6.398832,
          39.730817
        ]
      },
      "id": "node/1241645807"
    },
    {
      "type": "Feature",
      "properties": {
        "@id": "node/1241646099",
        "ele": "405",
        "name": "Las Almenillas",
        "natural": "peak"
      },
      "geometry": {
        "type": "Point",
        "coordinates": [
          -5.8683912,
          39.7941138
        ]
      },
      "id": "node/1241646099"
    },
    {
      "type": "Feature",
      "properties": {
        "@id": "node/1241646245",
        "ele": "362",
        "name": "Cerro de las Queseras",
        "natural": "peak"
      },
      "geometry": {
        "type": "Point",
        "coordinates": [
          -6.4430665,
          39.7737466
        ]
      },
      "id": "node/1241646245"
    },
    {
      "type": "Feature",
      "properties": {
        "@id": "node/1241646282",
        "ele": "733",
        "name": "Cerro del Pimpollar Grande",
        "natural": "peak"
      },
      "geometry": {
        "type": "Point",
        "coordinates": [
          -5.522986,
          39.7220376
        ]
      },
      "id": "node/1241646282"
    },
    {
      "type": "Feature",
      "properties": {
        "@id": "node/1241646925",
        "ele": "291",
        "name": "Cancho del Monje",
        "natural": "peak"
      },
      "geometry": {
        "type": "Point",
        "coordinates": [
          -6.3923832,
          39.7344544
        ]
      },
      "id": "node/1241646925"
    },
    {
      "type": "Feature",
      "properties": {
        "@id": "node/1241646978",
        "ele": "401",
        "name": "Cerro del Burro",
        "natural": "peak"
      },
      "geometry": {
        "type": "Point",
        "coordinates": [
          -6.4030549,
          39.7892041
        ]
      },
      "id": "node/1241646978"
    },
    {
      "type": "Feature",
      "properties": {
        "@id": "node/1241647051",
        "ele": "269",
        "name": "Cerro Tumbarruines",
        "natural": "peak"
      },
      "geometry": {
        "type": "Point",
        "coordinates": [
          -6.2947978,
          39.7531314
        ]
      },
      "id": "node/1241647051"
    },
    {
      "type": "Feature",
      "properties": {
        "@id": "node/1241647159",
        "ele": "337",
        "name": "Cerro de la Pita",
        "natural": "peak"
      },
      "geometry": {
        "type": "Point",
        "coordinates": [
          -6.4066222,
          39.7728934
        ]
      },
      "id": "node/1241647159"
    },
    {
      "type": "Feature",
      "properties": {
        "@id": "node/1241647219",
        "ele": "339",
        "name": "El Cabezo",
        "natural": "peak"
      },
      "geometry": {
        "type": "Point",
        "coordinates": [
          -5.8922561,
          39.8272258
        ]
      },
      "id": "node/1241647219"
    },
    {
      "type": "Feature",
      "properties": {
        "@id": "node/1241647236",
        "ele": "1895",
        "name": "Tejerón",
        "natural": "peak"
      },
      "geometry": {
        "type": "Point",
        "coordinates": [
          -5.7775162,
          40.2779395
        ]
      },
      "id": "node/1241647236"
    },
    {
      "type": "Feature",
      "properties": {
        "@id": "node/1241647622",
        "ele": "287",
        "name": "La Lapona",
        "natural": "peak"
      },
      "geometry": {
        "type": "Point",
        "coordinates": [
          -6.3603316,
          39.7439958
        ]
      },
      "id": "node/1241647622"
    },
    {
      "type": "Feature",
      "properties": {
        "@id": "node/1241655213",
        "ele": "742",
        "name": "Cerro del Rebozo",
        "natural": "peak"
      },
      "geometry": {
        "type": "Point",
        "coordinates": [
          -5.6829467,
          39.7245975
        ]
      },
      "id": "node/1241655213"
    },
    {
      "type": "Feature",
      "properties": {
        "@id": "node/1241655278",
        "ele": "954",
        "name": "Cerro de Roble Vardera",
        "natural": "peak"
      },
      "geometry": {
        "type": "Point",
        "coordinates": [
          -5.6354479,
          39.3586246
        ]
      },
      "id": "node/1241655278"
    },
    {
      "type": "Feature",
      "properties": {
        "@id": "node/1241655412",
        "ele": "841",
        "name": "Risco Gordo",
        "natural": "peak"
      },
      "geometry": {
        "type": "Point",
        "coordinates": [
          -5.3727992,
          39.3692609
        ]
      },
      "id": "node/1241655412"
    },
    {
      "type": "Feature",
      "properties": {
        "@id": "node/1241655434",
        "ele": "659",
        "name": "Cerro Mirasivanse",
        "natural": "peak"
      },
      "geometry": {
        "type": "Point",
        "coordinates": [
          -5.5882072,
          39.3575456
        ]
      },
      "id": "node/1241655434"
    },
    {
      "type": "Feature",
      "properties": {
        "@id": "node/1241656013",
        "ele": "804",
        "name": "Cerro del Zarzal",
        "natural": "peak"
      },
      "geometry": {
        "type": "Point",
        "coordinates": [
          -5.5817551,
          39.4443847
        ]
      },
      "id": "node/1241656013"
    },
    {
      "type": "Feature",
      "properties": {
        "@id": "node/1241656115",
        "ele": "1139",
        "name": "Risco de los Goterones",
        "natural": "peak"
      },
      "geometry": {
        "type": "Point",
        "coordinates": [
          -5.4110819,
          39.5496798
        ]
      },
      "id": "node/1241656115"
    },
    {
      "type": "Feature",
      "properties": {
        "@id": "node/1241656233",
        "ele": "1184",
        "name": "Risco de Palancarejo",
        "natural": "peak"
      },
      "geometry": {
        "type": "Point",
        "coordinates": [
          -5.4561869,
          39.5621663
        ]
      },
      "id": "node/1241656233"
    },
    {
      "type": "Feature",
      "properties": {
        "@id": "node/1241656335",
        "ele": "1058",
        "name": "Risco de la Majada Vieja",
        "natural": "peak"
      },
      "geometry": {
        "type": "Point",
        "coordinates": [
          -5.4277459,
          39.5698106
        ]
      },
      "id": "node/1241656335"
    },
    {
      "type": "Feature",
      "properties": {
        "@id": "node/1241656477",
        "ele": "587",
        "name": "Cuchillo del Romeral",
        "natural": "peak"
      },
      "geometry": {
        "type": "Point",
        "coordinates": [
          -5.1169974,
          39.4668409
        ]
      },
      "id": "node/1241656477"
    },
    {
      "type": "Feature",
      "properties": {
        "@id": "node/1241656482",
        "ele": "738",
        "name": "Cerro de las Navezuelas",
        "natural": "peak"
      },
      "geometry": {
        "type": "Point",
        "coordinates": [
          -5.3894459,
          39.7074212
        ]
      },
      "id": "node/1241656482"
    },
    {
      "type": "Feature",
      "properties": {
        "@id": "node/1241656518",
        "ele": "621",
        "name": "Cerro Cabezo",
        "natural": "peak"
      },
      "geometry": {
        "type": "Point",
        "coordinates": [
          -5.5164185,
          39.6412562
        ]
      },
      "id": "node/1241656518"
    },
    {
      "type": "Feature",
      "properties": {
        "@id": "node/1241656610",
        "ele": "1009",
        "name": "El Camorro",
        "natural": "peak"
      },
      "geometry": {
        "type": "Point",
        "coordinates": [
          -5.4897207,
          39.5951087
        ]
      },
      "id": "node/1241656610"
    },
    {
      "type": "Feature",
      "properties": {
        "@id": "node/1241656661",
        "ele": "837",
        "name": "Cerro Valhondo",
        "natural": "peak"
      },
      "geometry": {
        "type": "Point",
        "coordinates": [
          -5.5044368,
          39.4383778
        ]
      },
      "id": "node/1241656661"
    },
    {
      "type": "Feature",
      "properties": {
        "@id": "node/1241656662",
        "ele": "1172",
        "name": "El Castañarejo",
        "natural": "peak"
      },
      "geometry": {
        "type": "Point",
        "coordinates": [
          -5.3770564,
          39.6146666
        ]
      },
      "id": "node/1241656662"
    },
    {
      "type": "Feature",
      "properties": {
        "@id": "node/1241656665",
        "ele": "695",
        "name": "Cerro Pedrera de Rico Hoyo",
        "natural": "peak"
      },
      "geometry": {
        "type": "Point",
        "coordinates": [
          -5.6824334,
          39.7158261
        ]
      },
      "id": "node/1241656665"
    },
    {
      "type": "Feature",
      "properties": {
        "@id": "node/1241656692",
        "ele": "552",
        "name": "Toconal de Arriba",
        "natural": "peak"
      },
      "geometry": {
        "type": "Point",
        "coordinates": [
          -5.5732475,
          39.5405886
        ]
      },
      "id": "node/1241656692"
    },
    {
      "type": "Feature",
      "properties": {
        "@id": "node/1241656791",
        "ele": "1102",
        "name": "Cerro del Fresno",
        "natural": "peak"
      },
      "geometry": {
        "type": "Point",
        "coordinates": [
          -5.5732957,
          39.3850573
        ]
      },
      "id": "node/1241656791"
    },
    {
      "type": "Feature",
      "properties": {
        "@id": "node/1241656931",
        "ele": "419",
        "name": "Cerro del Guijarral",
        "natural": "peak"
      },
      "geometry": {
        "type": "Point",
        "coordinates": [
          -5.6040794,
          39.7351319
        ]
      },
      "id": "node/1241656931"
    },
    {
      "type": "Feature",
      "properties": {
        "@id": "node/1241657658",
        "ele": "1032",
        "name": "El Horcado",
        "natural": "peak"
      },
      "geometry": {
        "type": "Point",
        "coordinates": [
          -5.4848853,
          39.5436559
        ]
      },
      "id": "node/1241657658"
    },
    {
      "type": "Feature",
      "properties": {
        "@id": "node/1241657740",
        "ele": "404",
        "name": "Cerro de la Mimbre",
        "natural": "peak"
      },
      "geometry": {
        "type": "Point",
        "coordinates": [
          -5.5153561,
          39.7509534
        ]
      },
      "id": "node/1241657740"
    },
    {
      "type": "Feature",
      "properties": {
        "@id": "node/1241657764",
        "ele": "572",
        "name": "Cerro Cuclillo",
        "natural": "peak"
      },
      "geometry": {
        "type": "Point",
        "coordinates": [
          -5.5029147,
          39.678388
        ]
      },
      "id": "node/1241657764"
    },
    {
      "type": "Feature",
      "properties": {
        "@id": "node/1241657767",
        "ele": "705",
        "name": "Alto de Matavacas",
        "natural": "peak"
      },
      "geometry": {
        "type": "Point",
        "coordinates": [
          -5.7074824,
          39.3244097
        ]
      },
      "id": "node/1241657767"
    },
    {
      "type": "Feature",
      "properties": {
        "@id": "node/1241657792",
        "ele": "744",
        "name": "Cerro Buen Amigo",
        "natural": "peak"
      },
      "geometry": {
        "type": "Point",
        "coordinates": [
          -5.3045866,
          39.5845956
        ]
      },
      "id": "node/1241657792"
    },
    {
      "type": "Feature",
      "properties": {
        "@id": "node/1241657959",
        "ele": "631",
        "name": "Cerro de Torreherrera",
        "natural": "peak"
      },
      "geometry": {
        "type": "Point",
        "coordinates": [
          -5.7661998,
          39.476183
        ]
      },
      "id": "node/1241657959"
    },
    {
      "type": "Feature",
      "properties": {
        "@id": "node/1241658003",
        "ele": "911",
        "name": "Rincón de Arriba",
        "natural": "peak"
      },
      "geometry": {
        "type": "Point",
        "coordinates": [
          -5.4018525,
          39.6476151
        ]
      },
      "id": "node/1241658003"
    },
    {
      "type": "Feature",
      "properties": {
        "@id": "node/1241658159",
        "ele": "563",
        "name": "Cerro del Arroyo Moral",
        "natural": "peak"
      },
      "geometry": {
        "type": "Point",
        "coordinates": [
          -5.4905663,
          39.6852995
        ]
      },
      "id": "node/1241658159"
    },
    {
      "type": "Feature",
      "properties": {
        "@id": "node/1241658276",
        "ele": "1113",
        "name": "Risco Viejo",
        "natural": "peak"
      },
      "geometry": {
        "type": "Point",
        "coordinates": [
          -5.4146902,
          39.4191356
        ]
      },
      "id": "node/1241658276"
    },
    {
      "type": "Feature",
      "properties": {
        "@id": "node/1241658285",
        "ele": "723",
        "name": "Cerro de Casasola",
        "natural": "peak"
      },
      "geometry": {
        "type": "Point",
        "coordinates": [
          -5.2795605,
          39.6312535
        ]
      },
      "id": "node/1241658285"
    },
    {
      "type": "Feature",
      "properties": {
        "@id": "node/1241658529",
        "ele": "735",
        "name": "El Rosalejo",
        "natural": "peak"
      },
      "geometry": {
        "type": "Point",
        "coordinates": [
          -5.4678129,
          39.4187226
        ]
      },
      "id": "node/1241658529"
    },
    {
      "type": "Feature",
      "properties": {
        "@id": "node/1241658530",
        "ele": "901",
        "name": "Cerro del Arrascadero",
        "natural": "peak"
      },
      "geometry": {
        "type": "Point",
        "coordinates": [
          -5.2309491,
          39.5895277
        ]
      },
      "id": "node/1241658530"
    },
    {
      "type": "Feature",
      "properties": {
        "@id": "node/1241658563",
        "ele": "823",
        "name": "Cerro de Berezosa",
        "natural": "peak"
      },
      "geometry": {
        "type": "Point",
        "coordinates": [
          -5.6244766,
          39.3771743
        ]
      },
      "id": "node/1241658563"
    },
    {
      "type": "Feature",
      "properties": {
        "@id": "node/1241658735",
        "ele": "758",
        "name": "Cerro de los Gatos",
        "natural": "peak"
      },
      "geometry": {
        "type": "Point",
        "coordinates": [
          -5.6244191,
          39.4047987
        ]
      },
      "id": "node/1241658735"
    },