{
  "type": "FeatureCollection",
  "generator": "overpass-turbo",
  "copyright": "The data included in this document is from www.openstreetmap.org. The data is made available under ODbL.",
  "timestamp": "2025-04-22T16:31:00Z",
  "features": [
    {
      "type": "Feature",
      "properties": {
        "@id": "node/26863556",
        "ele": "1377",
        "name": "Lobatejo",
        "natural": "peak",
        "wikidata": "Q23984671"
      },
      "geometry": {
        "type": "Point",
        "coordinates": [
          -4.3197139,
          37.49142
        ]
      },
      "id": "node/26863556"
    },
    {
      "type": "Feature",
      "properties": {
        "@id": "node/616067461",
        "ele": "3604",
        "name": "Cerro Azuayo",
        "natural": "peak"
      },
      "geometry": {
        "type": "Point",
        "coordinates": [
          -77.3852976,
          0.815621
        ]
      },
      "id": "node/616067461"
    },
    {
      "type": "Feature",
      "properties": {
        "@id": "node/618029913",
        "name": "Loma de Miguel Perez",
        "natural": "peak"
      },
      "geometry": {
        "type": "Point",
        "coordinates": [
          -74.95,
          9.583333
        ]
      },
      "id": "node/618029913"
    },
    {
      "type": "Feature",
      "properties": {
        "@id": "node/703210072",
        "comment": "convertido a OSM usando http://GaleNUx.com",
        "divipola": "13212",
        "fixme": "Revisar: este punto fue creado por importación directa",
        "is_in": "Colombia; Bolívar ; Córdoba",
        "name": "Loma Bonga",
        "natural": "peak",
        "note": "OROGRAFIA, MONTAÑAS Y CERROS, 8b46e523bc8d7eda03999bb2c573cebc",
        "source": "OCHA Colombia 2010"
      },
      "geometry": {
        "type": "Point",
        "coordinates": [
          -74.9348638,
          9.542452
        ]
      },
      "id": "node/703210072"
    },
    {
      "type": "Feature",
      "properties": {
        "@id": "node/703210082",
        "comment": "convertido a OSM usando http://GaleNUx.com",
        "divipola": "13212",
        "fixme": "Revisar: este punto fue creado por importación directa",
        "is_in": "Colombia; Bolívar ; Córdoba",
        "name": "Lomas El Covedo",
        "natural": "peak",
        "note": "OROGRAFIA, MONTAÑAS Y CERROS, f6c5c9d0b6a9c23f9c064a3a02906ab6",
        "source": "OCHA Colombia 2010"
      },
      "geometry": {
        "type": "Point",
        "coordinates": [
          -74.9620956,
          9.541911
        ]
      },
      "id": "node/703210082"
    },
    {
      "type": "Feature",
      "properties": {
        "@id": "node/703210083",
        "comment": "convertido a OSM usando http://GaleNUx.com",
        "divipola": "13212",
        "fixme": "Revisar: este punto fue creado por importación directa",
        "is_in": "Colombia; Bolívar ; Córdoba",
        "name": "Lomas De Las Piedras",
        "natural": "peak",
        "note": "OROGRAFIA, MONTAÑAS Y CERROS, b589cc136242d4203746d239f22703c6",
        "source": "OCHA Colombia 2010"
      },
      "geometry": {
        "type": "Point",
        "coordinates": [
          -74.9586691,
          9.5289263
        ]
      },
      "id": "node/703210083"
    },
    {
      "type": "Feature",
      "properties": {
        "@id": "node/703210097",
        "comment": "convertido a OSM usando http://GaleNUx.com",
        "divipola": "13212",
        "fixme": "Revisar: este punto fue creado por importación directa",
        "is_in": "Colombia; Bolívar ; Córdoba",
        "name": "Loma De Piedra",
        "natural": "peak",
        "note": "OROGRAFIA, MONTAÑAS Y CERROS, 89fa56e59fece162d7da7298e4e55262",
        "source": "OCHA Colombia 2010"
      },
      "geometry": {
        "type": "Point",
        "coordinates": [
          -74.8904994,
          9.5336152
        ]
      },
      "id": "node/703210097"
    },
    {
      "type": "Feature",
      "properties": {
        "@id": "node/703210114",
        "comment": "convertido a OSM usando http://GaleNUx.com",
        "divipola": "13212",
        "fixme": "Revisar: este punto fue creado por importación directa",
        "is_in": "Colombia; Bolívar ; Córdoba",
        "name": "Lomas Carreto",
        "natural": "peak",
        "note": "OROGRAFIA, MONTAÑAS Y CERROS, e2301f08505ae32e09bc6871e264b6c3",
        "source": "OCHA Colombia 2010"
      },
      "geometry": {
        "type": "Point",
        "coordinates": [
          -74.888155,
          9.6254098
        ]
      },
      "id": "node/703210114"
    },
    {
      "type": "Feature",
      "properties": {
        "@id": "node/703210118",
        "comment": "convertido a OSM usando http://GaleNUx.com",
        "divipola": "13212",
        "fixme": "Revisar: este punto fue creado por importación directa",
        "is_in": "Colombia; Bolívar ; Córdoba",
        "name": "Lomas Santa Rita",
        "natural": "peak",
        "note": "OROGRAFIA, MONTAÑAS Y CERROS, 1dfa2e5a9af6dd6a76c98e5b06dc7245",
        "source": "OCHA Colombia 2010"
      },
      "geometry": {
        "type": "Point",
        "coordinates": [
          -74.8832857,
          9.5998011
        ]
      },
      "id": "node/703210118"
    },
    {
      "type": "Feature",
      "properties": {
        "@id": "node/703210316",
        "comment": "convertido a OSM usando http://GaleNUx.com",
        "divipola": "13212",
        "fixme": "Revisar: este punto fue creado por importación directa",
        "is_in": "Colombia; Bolívar ; Córdoba",
        "name": "Loma Del Papayo",
        "natural": "peak",
        "note": "OROGRAFIA, MONTAÑAS Y CERROS, 57a68a29bdfbe2f19f36daa6e07b38ee",
        "source": "OCHA Colombia 2010"
      },
      "geometry": {
        "type": "Point",
        "coordinates": [
          -74.8704813,
          9.6457886
        ]
      },
      "id": "node/703210316"
    },
    {
      "type": "Feature",
      "properties": {
        "@id": "node/703492461",
        "comment": "convertido a OSM usando http://GaleNUx.com",
        "divipola": "63212",
        "ele": "1777.9",
        "fixme": "Revisar: este punto fue creado por importación directa",
        "is_in": "Colombia; Quindío ; Córdoba",
        "name": "Alto San Jose",
        "natural": "peak",
        "note": "OROGRAFIA, MONTAÑAS Y CERROS, 8979e6c3cd943da7b788c6a4df8b3891",
        "source": "OCHA Colombia 2010"
      },
      "geometry": {
        "type": "Point",
        "coordinates": [
          -75.6926828,
          4.3775777
        ]
      },
      "id": "node/703492461"
    },
    {
      "type": "Feature",
      "properties": {
        "@id": "node/703492483",
        "comment": "convertido a OSM usando http://GaleNUx.com",
        "divipola": "63212",
        "ele": "2320.2",
        "fixme": "Revisar: este punto fue creado por importación directa",
        "is_in": "Colombia; Quindío ; Córdoba",
        "name": "Alto El Castillo",
        "natural": "peak",
        "note": "OROGRAFIA, MONTAÑAS Y CERROS, 22a792cf3ca29540ee9ea5a037d701f1",
        "source": "OCHA Colombia 2010"
      },
      "geometry": {
        "type": "Point",
        "coordinates": [
          -75.6591348,
          4.3811957
        ]
      },
      "id": "node/703492483"
    },
    {
      "type": "Feature",
      "properties": {
        "@id": "node/703492487",
        "comment": "convertido a OSM usando http://GaleNUx.com",
        "divipola": "63212",
        "ele": "3377",
        "fixme": "Revisar: este punto fue creado por importación directa",
        "is_in": "Colombia; Quindío ; Córdoba",
        "name": "Cuchilla Las Camelias",
        "natural": "peak",
        "note": "OROGRAFIA, MONTAÑAS Y CERROS, 170dc3b570618dfb0366193e7da2c8ee",
        "source": "OCHA Colombia 2010"
      },
      "geometry": {
        "type": "Point",
        "coordinates": [
          -75.6232845,
          4.381086
        ]
      },
      "id": "node/703492487"
    },
    {
      "type": "Feature",
      "properties": {
        "@id": "node/940337369",
        "natural": "peak"
      },
      "geometry": {
        "type": "Point",
        "coordinates": [
          -4.9353203,
          38.6195814
        ]
      },
      "id": "node/940337369"
    },
    {
      "type": "Feature",
      "properties": {
        "@id": "node/945710961",
        "natural": "peak"
      },
      "geometry": {
        "type": "Point",
        "coordinates": [
          -5.0017368,
          38.6724233
        ]
      },
      "id": "node/945710961"
    },
    {
      "type": "Feature",
      "properties": {
        "@id": "node/945718262",
        "natural": "peak"
      },
      "geometry": {
        "type": "Point",
        "coordinates": [
          -5.0123799,
          38.7173734
        ]
      },
      "id": "node/945718262"
    },
    {
      "type": "Feature",
      "properties": {
        "@id": "node/949512847",
        "ele": "1306.00",
        "name": "La Pelona",
        "natural": "peak",
        "wikidata": "Q115504725"
      },
      "geometry": {
        "type": "Point",
        "coordinates": [
          -4.1520501,
          37.3881118
        ]
      },
      "id": "node/949512847"
    },
    {
      "type": "Feature",
      "properties": {
        "@id": "node/949518058",
        "ele": "1567.60",
        "name": "La Tiñosa",
        "natural": "peak",
        "wikidata": "Q24939924"
      },
      "geometry": {
        "type": "Point",
        "coordinates": [
          -4.2411153,
          37.3847334
        ]
      },
      "id": "node/949518058"
    },
    {
      "type": "Feature",
      "properties": {
        "@id": "node/949519649",
        "ele": "448.30",
        "name": "Clavellina",
        "natural": "peak",
        "wikidata": "Q115501903"
      },
      "geometry": {
        "type": "Point",
        "coordinates": [
          -4.6674631,
          37.9723864
        ]
      },
      "id": "node/949519649"
    },
    {
      "type": "Feature",
      "properties": {
        "@id": "node/1241912893",
        "ele": "981",
        "name": "Cerro de la Chiva",
        "natural": "peak"
      },
      "geometry": {
        "type": "Point",
        "coordinates": [
          -4.334182,
          37.5340764
        ]
      },
      "id": "node/1241912893"
    },
    {
      "type": "Feature",
      "properties": {
        "@id": "node/1241917289",
        "ele": "1099",
        "name": "Cerro del Bramadero",
        "natural": "peak"
      },
      "geometry": {
        "type": "Point",
        "coordinates": [
          -4.3243766,
          37.5193085
        ]
      },
      "id": "node/1241917289"
    },
    {
      "type": "Feature",
      "properties": {
        "@id": "node/1241919200",
        "ele": "971",
        "name": "Cerro de los Cangilones",
        "natural": "peak"
      },
      "geometry": {
        "type": "Point",
        "coordinates": [
          -4.2961699,
          37.544011
        ]
      },
      "id": "node/1241919200"
    },
    {
      "type": "Feature",
      "properties": {
        "@id": "node/1241934998",
        "ele": "469",
        "name": "Cerro de la Amazona",
        "natural": "peak"
      },
      "geometry": {
        "type": "Point",
        "coordinates": [
          -4.1706162,
          37.5686809
        ]
      },
      "id": "node/1241934998"
    },
    {
      "type": "Feature",
      "properties": {
        "@id": "node/1241936790",
        "ele": "708",
        "name": "Cerro de Pedro López",
        "natural": "peak"
      },
      "geometry": {
        "type": "Point",
        "coordinates": [
          -4.8304273,
          37.972983
        ]
      },
      "id": "node/1241936790"
    },
    {
      "type": "Feature",
      "properties": {
        "@id": "node/1241937354",
        "ele": "626",
        "name": "Cerro de Valladolid",
        "natural": "peak"
      },
      "geometry": {
        "type": "Point",
        "coordinates": [
          -4.3413832,
          37.6025673
        ]
      },
      "id": "node/1241937354"
    },
    {
      "type": "Feature",
      "properties": {
        "@id": "node/1241938794",
        "ele": "539",
        "name": "Cerro de Cotillas",
        "natural": "peak"
      },
      "geometry": {
        "type": "Point",
        "coordinates": [
          -4.321964,
          37.5644752
        ]
      },
      "id": "node/1241938794"
    },
    {
      "type": "Feature",
      "properties": {
        "@id": "node/1241942414",
        "ele": "801",
        "name": "Cerro del Chivo",
        "natural": "peak"
      },
      "geometry": {
        "type": "Point",
        "coordinates": [
          -4.3535058,
          37.5630884
        ]
      },
      "id": "node/1241942414"
    },
    {
      "type": "Feature",
      "properties": {
        "@id": "node/1241942765",
        "ele": "1011",
        "name": "Cerro de los Murciélagos",
        "natural": "peak"
      },
      "geometry": {
        "type": "Point",
        "coordinates": [
          -4.3025926,
          37.5407625
        ]
      },
      "id": "node/1241942765"
    },
    {
      "type": "Feature",
      "properties": {
        "@id": "node/1241945701",
        "ele": "257",
        "name": "Cerro Gordo",
        "natural": "peak"
      },
      "geometry": {
        "type": "Point",
        "coordinates": [
          -4.6775953,
          37.9518182
        ]
      },
      "id": "node/1241945701"
    },
    {
      "type": "Feature",
      "properties": {
        "@id": "node/1241949350",
        "ele": "1262",
        "name": "Peña de Miguel Pérez",
        "natural": "peak"
      },
      "geometry": {
        "type": "Point",
        "coordinates": [
          -4.3329728,
          37.5031749
        ]
      },
      "id": "node/1241949350"
    },
    {
      "type": "Feature",
      "properties": {
        "@id": "node/1241952073",
        "ele": "1033",
        "name": "Cerro del Zumacal",
        "natural": "peak"
      },
      "geometry": {
        "type": "Point",
        "coordinates": [
          -4.3278403,
          37.5304796
        ]
      },
      "id": "node/1241952073"
    },
    {
      "type": "Feature",
      "properties": {
        "@id": "node/1241956006",
        "ele": "1065",
        "name": "Cerro de la Montosa",
        "natural": "peak"
      },
      "geometry": {
        "type": "Point",
        "coordinates": [
          -4.3048251,
          37.525333
        ]
      },
      "id": "node/1241956006"
    },
    {
      "type": "Feature",
      "properties": {
        "@id": "node/1242002362",
        "ele": "1174",
        "name": "Cerro del Charcón",
        "natural": "peak"
      },
      "geometry": {
        "type": "Point",
        "coordinates": [
          -4.2841698,
          37.5124939
        ]
      },
      "id": "node/1242002362"
    },
    {
      "type": "Feature",
      "properties": {
        "@id": "node/1242002530",
        "ele": "441",
        "name": "Cerro de Pedrea",
        "natural": "peak"
      },
      "geometry": {
        "type": "Point",
        "coordinates": [
          -4.3317728,
          37.6224998
        ]
      },
      "id": "node/1242002530"
    },
    {
      "type": "Feature",
      "properties": {
        "@id": "node/1242002771",
        "ele": "791",
        "name": "Peñón del Grajo",
        "natural": "peak"
      },
      "geometry": {
        "type": "Point",
        "coordinates": [
          -4.3489976,
          37.561124
        ]
      },
      "id": "node/1242002771"
    },
    {
      "type": "Feature",
      "properties": {
        "@id": "node/1242004052",
        "ele": "526",
        "name": "El Villar",
        "natural": "peak"
      },
      "geometry": {
        "type": "Point",
        "coordinates": [
          -4.1871349,
          37.6086209
        ]
      },
      "id": "node/1242004052"
    },
    {
      "type": "Feature",
      "properties": {
        "@id": "node/1242004092",
        "ele": "547",
        "name": "Cerro del Aceitunillo",
        "natural": "peak"
      },
      "geometry": {
        "type": "Point",
        "coordinates": [
          -4.2613654,
          37.5772662
        ]
      },
      "id": "node/1242004092"
    },
    {
      "type": "Feature",
      "properties": {
        "@id": "node/1242012504",
        "ele": "1203",
        "name": "Cerro de las Mentiras",
        "natural": "peak"
      },
      "geometry": {
        "type": "Point",
        "coordinates": [
          -4.291524,
          37.5135358
        ]
      },
      "id": "node/1242012504"
    },
    {
      "type": "Feature",
      "properties": {
        "@id": "node/1249943386",
        "ele": "561",
        "name": "Cerro Matoso",
        "natural": "peak"
      },
      "geometry": {
        "type": "Point",
        "coordinates": [
          -4.2790429,
          37.6406052
        ]
      },
      "id": "node/1249943386"
    },
    {
      "type": "Feature",
      "properties": {
        "@id": "node/1249943413",
        "name": "La Atalaya",
        "natural": "peak"
      },
      "geometry": {
        "type": "Point",
        "coordinates": [
          -4.2624848,
          37.5399396
        ]
      },
      "id": "node/1249943413"
    },
    {
      "type": "Feature",
      "properties": {
        "@id": "node/1249943794",
        "name": "Pico de Albayate",
        "natural": "peak"
      },
      "geometry": {
        "type": "Point",
        "coordinates": [
          -4.1244905,
          37.4065588
        ]
      },
      "id": "node/1249943794"
    },
    {
      "type": "Feature",
      "properties": {
        "@id": "node/1249944067",
        "ele": "585",
        "name": "Cerro Cabeza Grillos",
        "natural": "peak"
      },
      "geometry": {
        "type": "Point",
        "coordinates": [
          -4.179323,
          37.6062976
        ]
      },
      "id": "node/1249944067"
    },
    {
      "type": "Feature",
      "properties": {
        "@id": "node/1249944374",
        "ele": "470",
        "name": "Cerro Caldera",
        "natural": "peak"
      },
      "geometry": {
        "type": "Point",
        "coordinates": [
          -4.2163361,
          37.6135833
        ]
      },
      "id": "node/1249944374"
    },
    {
      "type": "Feature",
      "properties": {
        "@id": "node/1249944463",
        "name": "Peñón del Castillo",
        "natural": "peak"
      },
      "geometry": {
        "type": "Point",
        "coordinates": [
          -5.1014476,
          38.2791685
        ]
      },
      "id": "node/1249944463"
    },
    {
      "type": "Feature",
      "properties": {
        "@id": "node/1249944494",
        "name": "Cerro de Rodahuevos",
        "natural": "peak"
      },
      "geometry": {
        "type": "Point",
        "coordinates": [
          -4.1666853,
          37.3689343
        ]
      },
      "id": "node/1249944494"
    },
    {
      "type": "Feature",
      "properties": {
        "@id": "node/1249945347",
        "name": "Cerro del Muchacho",
        "natural": "peak"
      },
      "geometry": {
        "type": "Point",
        "coordinates": [
          -4.1523684,
          37.388327
        ]
      },
      "id": "node/1249945347"
    },
    {
      "type": "Feature",
      "properties": {
        "@id": "node/1249945853",
        "name": "Cerro del Minguillar",
        "natural": "peak"
      },
      "geometry": {
        "type": "Point",
        "coordinates": [
          -4.3084564,
          37.5966266
        ]
      },
      "id": "node/1249945853"
    },
    {
      "type": "Feature",
      "properties": {
        "@id": "node/1249946267",
        "name": "Cerro del Cardo",
        "natural": "peak"
      },
      "geometry": {
        "type": "Point",
        "coordinates": [
          -4.544598,
          38.182791
        ]
      },
      "id": "node/1249946267"
    },
    {
      "type": "Feature",
      "properties": {
        "@id": "node/1249948506",
        "name": "Cerro de Majadahonda",
        "natural": "peak"
      },
      "geometry": {
        "type": "Point",
        "coordinates": [
          -4.2419445,
          37.6649154
        ]
      },
      "id": "node/1249948506"
    },
    {
      "type": "Feature",
      "properties": {
        "@id": "node/1249949670",
        "name": "Cerro del Doncellar",
        "natural": "peak"
      },
      "geometry": {
        "type": "Point",
        "coordinates": [
          -4.2380429,
          37.6286251
        ]
      },
      "id": "node/1249949670"
    },
    {
      "type": "Feature",
      "properties": {
        "@id": "node/1249949733",
        "name": "Cerro de los Pedernales",
        "natural": "peak"
      },
      "geometry": {
        "type": "Point",
        "coordinates": [
          -4.195479,
          37.598203
        ]
      },
      "id": "node/1249949733"
    },
    {
      "type": "Feature",
      "properties": {
        "@id": "node/1249949993",
        "name": "Cerro de Alensiano",
        "natural": "peak"
      },
      "geometry": {
        "type": "Point",
        "coordinates": [
          -4.3182905,
          37.6374788
        ]
      },
      "id": "node/1249949993"
    },
    {
      "type": "Feature",
      "properties": {
        "@id": "node/1249950646",
        "name": "Cerro de Priegos",
        "natural": "peak"
      },
      "geometry": {
        "type": "Point",
        "coordinates": [
          -4.0667689,
          37.4084544
        ]
      },
      "id": "node/1249950646"
    },
    {
      "type": "Feature",
      "properties": {
        "@id": "node/1249952840",
        "ele": "540",
        "name": "Cerro de San Cristóbal",
        "natural": "peak"
      },
      "geometry": {
        "type": "Point",
        "coordinates": [
          -4.3104137,
          37.6080353
        ]
      },
      "id": "node/1249952840"
    },
    {
      "type": "Feature",
      "properties": {
        "@id": "node/1249953671",
        "name": "Peña Parda",
        "natural": "peak"
      },
      "geometry": {
        "type": "Point",
        "coordinates": [
          -4.5620537,
          37.2485015
        ]
      },
      "id": "node/1249953671"
    },
    {
      "type": "Feature",
      "properties": {
        "@id": "node/1249954490",
        "ele": "1242",
        "name": "Cerro de Abuchite",
        "natural": "peak"
      },
      "geometry": {
        "type": "Point",
        "coordinates": [
          -4.2758731,
          37.5168657
        ]
      },
      "id": "node/1249954490"
    },
    {
      "type": "Feature",
      "properties": {
        "@id": "node/1249956221",
        "name": "Peñaladrones",
        "natural": "peak",
        "wikidata": "Q23984991"
      },
      "geometry": {
        "type": "Point",
        "coordinates": [
          -5.1123708,
          38.2899688
        ]
      },
      "id": "node/1249956221"
    },
    {
      "type": "Feature",
      "properties": {
        "@id": "node/1249957448",
        "name": "Valle de la Viguera",
        "natural": "peak"
      },
      "geometry": {
        "type": "Point",
        "coordinates": [
          -5.1692002,
          38.6928143
        ]
      },
      "id": "node/1249957448"
    },
    {
      "type": "Feature",
      "properties": {
        "@id": "node/1249957617",
        "name": "Cerro de la Cruz",
        "natural": "peak"
      },
      "geometry": {
        "type": "Point",
        "coordinates": [
          -4.0816074,
          37.4366719
        ]
      },
      "id": "node/1249957617"
    },
    {
      "type": "Feature",
      "properties": {
        "@id": "node/1249958523",
        "name": "Peña Crispina",
        "natural": "peak",
        "wikidata": "Q23987104"
      },
      "geometry": {
        "type": "Point",
        "coordinates": [
          -5.0619878,
          38.2593376
        ]
      },
      "id": "node/1249958523"
    },
    {
      "type": "Feature",
      "properties": {
        "@id": "node/1249959240",
        "name": "Cerro de Piedra Blanca",
        "natural": "peak"
      },
      "geometry": {
        "type": "Point",
        "coordinates": [
          -4.5132346,
          38.3550025
        ]
      },
      "id": "node/1249959240"
    },
    {
      "type": "Feature",
      "properties": {
        "@id": "node/1249960613",
        "name": "Cerro del Almendro",
        "natural": "peak"
      },
      "geometry": {
        "type": "Point",
        "coordinates": [
          -4.2075129,
          37.592826
        ]
      },
      "id": "node/1249960613"
    },
    {
      "type": "Feature",
      "properties": {
        "@id": "node/1249960921",
        "name": "Cerro de Juan Martín",
        "natural": "peak"
      },
      "geometry": {
        "type": "Point",
        "coordinates": [
          -4.2453751,
          37.5994089
        ]
      },
      "id": "node/1249960921"
    },
    {
      "type": "Feature",
      "properties": {
        "@id": "node/1665579695",
        "natural": "peak"
      },
      "geometry": {
        "type": "Point",
        "coordinates": [
          -4.8272874,
          38.0109284
        ]
      },
      "id": "node/1665579695"
    },
    {
      "type": "Feature",
      "properties": {
        "@id": "node/3638719346",
        "ele": "327",
        "name": "Cerro del Buho",
        "natural": "peak"
      },
      "geometry": {
        "type": "Point",
        "coordinates": [
          -4.6980808,
          37.9571668
        ]
      },
      "id": "node/3638719346"
    },
    {
      "type": "Feature",
      "properties": {
        "@id": "node/5116134796",
        "name": "Peñas Altas",
        "natural": "peak"
      },
      "geometry": {
        "type": "Point",
        "coordinates": [
          -5.3311139,
          38.3863016
        ]
      },
      "id": "node/5116134796"
    },
    {
      "type": "Feature",
      "properties": {
        "@id": "node/5448180010",
        "name": "Puerto Artafi",
        "natural": "peak"
      },
      "geometry": {
        "type": "Point",
        "coordinates": [
          -4.9388665,
          37.9411366
        ]
      },
      "id": "node/5448180010"
    },
    {
      "type": "Feature",
      "properties": {
        "@id": "node/5902880390",
        "ele": "2000",
        "name": "Alto Carniceros",
        "natural": "peak"
      },
      "geometry": {
        "type": "Point",
        "coordinates": [
          -75.6911629,
          4.3672218
        ]
      },
      "id": "node/5902880390"
    },
    {
      "type": "Feature",
      "properties": {
        "@id": "node/6680751619",
        "ele": "1350",
        "natural": "peak"
      },
      "geometry": {
        "type": "Point",
        "coordinates": [
          -96.9944561,
          18.9641715
        ]
      },
      "id": "node/6680751619"
    },
    {
      "type": "Feature",
      "properties": {
        "@id": "node/8315079670",
        "ele": "816",
        "natural": "peak"
      },
      "geometry": {
        "type": "Point",
        "coordinates": [
          -4.2623974,
          37.2288189
        ]
      },
      "id": "node/8315079670"
    },
    {
      "type": "Feature",
      "properties": {
        "@id": "node/9660518809",
        "ele": "427",
        "name": "Peña Mocón",
        "natural": "peak"
      },
      "geometry": {
        "type": "Point",
        "coordinates": [
          -4.6336823,
          38.0747219
        ]
      },
      "id": "node/9660518809"
    },
    {
      "type": "Feature",
      "properties": {
        "@id": "node/9749784498",
        "ele": "1431",
        "name": "Cresta de Alhucemas",
        "natural": "peak"
      },
      "geometry": {
        "type": "Point",
        "coordinates": [
          -4.2748945,
          37.3776915
        ]
      },
      "id": "node/9749784498"
    },
    {
      "type": "Feature",
      "properties": {
        "@id": "node/9749795224",
        "ele": "1474",
        "name": "Pico Bermejo",
        "natural": "peak"
      },
      "geometry": {
        "type": "Point",
        "coordinates": [
          -4.2819947,
          37.3865002
        ]
      },
      "id": "node/9749795224"
    },
    {
      "type": "Feature",
      "properties": {
        "@id": "node/9749827681",
        "ele": "1105",
        "name": "Morrón del Salvador",
        "natural": "peak"
      },
      "geometry": {
        "type": "Point",
        "coordinates": [
          -4.2993712,
          37.3542549
        ]
      },
      "id": "node/9749827681"
    },
    {
      "type": "Feature",
      "properties": {
        "@id": "node/9749847776",
        "ele": "1095",
        "name": "Gallinera",
        "natural": "peak"
      },
      "geometry": {
        "type": "Point",
        "coordinates": [
          -4.3114888,
          37.3978534
        ]
      },
      "id": "node/9749847776"
    },
    {
      "type": "Feature",
      "properties": {
        "@id": "node/9749872840",
        "ele": "1325",
        "name": "Sierra Alta",
        "natural": "peak"
      },
      "geometry": {
        "type": "Point",
        "coordinates": [
          -4.3347046,
          37.3413828
        ]
      },
      "id": "node/9749872840"
    },
    {
      "type": "Feature",
      "properties": {
        "@id": "node/10031965878",
        "ele": "403",
        "name": "Cerro Capellanía",
        "natural": "peak"
      },
      "geometry": {
        "type": "Point",
        "coordinates": [
          -4.7080561,
          37.9536061
        ]
      },
      "id": "node/10031965878"
    },
    {
      "type": "Feature",
      "properties": {
        "@id": "node/11547313017",
        "ele": "391",
        "name": "Cerro la Tabla",
        "natural": "peak"
      },
      "geometry": {
        "type": "Point",
        "coordinates": [
          -4.6758964,
          38.0238055
        ]
      },
      "id": "node/11547313017"
    },
    {
      "type": "Feature",
      "properties": {
        "@id": "node/11547327029",
        "ele": "571",
        "name": "Cerro los Puntales",
        "natural": "peak"
      },
      "geometry": {
        "type": "Point",
        "coordinates": [
          -4.7001057,
          38.0407842
        ]
      },
      "id": "node/11547327029"
    },
    {
      "type": "Feature",
      "properties": {
        "@id": "node/11833279402",
        "ele": "422",
        "natural": "peak"
      },
      "geometry": {
        "type": "Point",
        "coordinates": [
          -4.1620344,
          37.5766926
        ]
      },
      "id": "node/11833279402"
    },
    {
      "type": "Feature",
      "properties": {
        "@id": "node/11833279403",
        "ele": "491",
        "natural": "peak"
      },
      "geometry": {
        "type": "Point",
        "coordinates": [
          -4.1691322,
          37.5767454
        ]
      },
      "id": "node/11833279403"
    },
    {
      "type": "Feature",
      "properties": {
        "@id": "node/11833279404",
        "ele": "489",
        "natural": "peak"
      },
      "geometry": {
        "type": "Point",
        "coordinates": [
          -4.1722858,
          37.5744606
        ]
      },
      "id": "node/11833279404"
    },
    {
      "type": "Feature",
      "properties": {
        "@id": "node/11833279405",
        "ele": "492",
        "natural": "peak"
      },
      "geometry": {
        "type": "Point",
        "coordinates": [
          -4.1712596,
          37.5753952
        ]
      },
      "id": "node/11833279405"
    },
    {
      "type": "Feature",
      "properties": {
        "@id": "node/11833279406",
        "ele": "467",
        "natural": "peak"
      },
      "geometry": {
        "type": "Point",
        "coordinates": [
          -4.1651257,
          37.5703833
        ]
      },
      "id": "node/11833279406"
    },
    {
      "type": "Feature",
      "properties": {
        "@id": "node/11833279407",
        "ele": "398",
        "natural": "peak"
      },
      "geometry": {
        "type": "Point",
        "coordinates": [
          -4.1599438,
          37.5719635
        ]
      },
      "id": "node/11833279407"
    },
    {
      "type": "Feature",
      "properties": {
        "@id": "node/11833279408",
        "ele": "444",
        "natural": "peak"
      },
      "geometry": {
        "type": "Point",
        "coordinates": [
          -4.1551044,
          37.571686
        ]
      },
      "id": "node/11833279408"
    },
    {
      "type": "Feature",
      "properties": {
        "@id": "node/11833279409",
        "ele": "434",
        "natural": "peak"
      },
      "geometry": {
        "type": "Point",
        "coordinates": [
          -4.1569107,
          37.5695342
        ]
      },
      "id": "node/11833279409"
    },
    {
      "type": "Feature",
      "properties": {
        "@id": "node/11833279410",
        "ele": "459",
        "natural": "peak"
      },
      "geometry": {
        "type": "Point",
        "coordinates": [
          -4.1533548,
          37.5706826
        ]
      },
      "id": "node/11833279410"
    },
    {
      "type": "Feature",
      "properties": {
        "@id": "node/11833279411",
        "ele": "483",
        "natural": "peak"
      },
      "geometry": {
        "type": "Point",
        "coordinates": [
          -4.1857437,
          37.5661758
        ]
      },
      "id": "node/11833279411"
    },
    {
      "type": "Feature",
      "properties": {
        "@id": "node/11833279412",
        "ele": "435",
        "natural": "peak"
      },
      "geometry": {
        "type": "Point",
        "coordinates": [
          -4.1804578,
          37.5646038
        ]
      },
      "id": "node/11833279412"
    },
    {
      "type": "Feature",
      "properties": {
        "@id": "node/11833279413",
        "ele": "469",
        "natural": "peak"
      },
      "geometry": {
        "type": "Point",
        "coordinates": [
          -4.1804876,
          37.5704356
        ]
      },
      "id": "node/11833279413"
    },
    {
      "type": "Feature",
      "properties": {
        "@id": "node/11833279414",
        "ele": "474",
        "natural": "peak"
      },
      "geometry": {
        "type": "Point",
        "coordinates": [
          -4.1756082,
          37.5699344
        ]
      },
      "id": "node/11833279414"
    },
    {
      "type": "Feature",
      "properties": {
        "@id": "node/11833279415",
        "ele": "691",
        "natural": "peak"
      },
      "geometry": {
        "type": "Point",
        "coordinates": [
          -4.2116066,
          37.5521803
        ]
      },
      "id": "node/11833279415"
    },
    {
      "type": "Feature",
      "properties": {
        "@id": "node/11833279416",
        "ele": "582",
        "name": "Cerro Carrascón",
        "natural": "peak"
      },
      "geometry": {
        "type": "Point",
        "coordinates": [
          -4.2135997,
          37.5573219
        ]
      },
      "id": "node/11833279416"
    },
    {
      "type": "Feature",
      "properties": {
        "@id": "node/11833279417",
        "ele": "543",
        "name": "Cerro Picoso",
        "natural": "peak"
      },
      "geometry": {
        "type": "Point",
        "coordinates": [
          -4.2566512,
          37.5671183
        ]
      },
      "id": "node/11833279417"
    },
    {
      "type": "Feature",
      "properties": {
        "@id": "node/11833279418",
        "ele": "559",
        "natural": "peak"
      },
      "geometry": {
        "type": "Point",
        "coordinates": [
          -4.2704927,
          37.5692709
        ]
      },
      "id": "node/11833279418"
    },
    {
      "type": "Feature",
      "properties": {
        "@id": "node/11833279419",
        "ele": "523",
        "natural": "peak"
      },
      "geometry": {
        "type": "Point",
        "coordinates": [
          -4.2567627,
          37.5744786
        ]
      },
      "id": "node/11833279419"
    },
    {
      "type": "Feature",
      "properties": {
        "@id": "node/11833279420",
        "ele": "514",
        "natural": "peak"
      },
      "geometry": {
        "type": "Point",
        "coordinates": [
          -4.2701283,
          37.5742086
        ]
      },
      "id": "node/11833279420"
    },
    {
      "type": "Feature",
      "properties": {
        "@id": "node/11833279421",
        "ele": "512",
        "natural": "peak"
      },
      "geometry": {
        "type": "Point",
        "coordinates": [
          -4.272445,
          37.5746455
        ]
      },
      "id": "node/11833279421"
    },
    {
      "type": "Feature",
      "properties": {
        "@id": "node/11833279422",
        "ele": "810",
        "name": "Luque",
        "natural": "peak"
      },
      "geometry": {
        "type": "Point",
        "coordinates": [
          -4.2821246,
          37.5633809
        ]
      },
      "id": "node/11833279422"
    },
    {
      "type": "Feature",
      "properties": {
        "@id": "node/11833279423",
        "ele": "745",
        "name": "Cerro el Moro Colgado",
        "natural": "peak"
      },
      "geometry": {
        "type": "Point",
        "coordinates": [
          -4.2885352,
          37.5630092
        ]
      },
      "id": "node/11833279423"
    },
    {
      "type": "Feature",
      "properties": {
        "@id": "node/11833279424",
        "ele": "636",
        "name": "Castillarejo",
        "natural": "peak"
      },
      "geometry": {
        "type": "Point",
        "coordinates": [
          -4.3059393,
          37.5611486
        ]
      },
      "id": "node/11833279424"
    },
    {
      "type": "Feature",
      "properties": {
        "@id": "node/11833279425",
        "ele": "783",
        "natural": "peak"
      },
      "geometry": {
        "type": "Point",
        "coordinates": [
          -4.3486283,
          37.5587336
        ]
      },
      "id": "node/11833279425"
    },
    {
      "type": "Feature",
      "properties": {
        "@id": "node/11833279426",
        "ele": "791",
        "natural": "peak"
      },
      "geometry": {
        "type": "Point",
        "coordinates": [
          -4.3499657,
          37.5621085
        ]
      },
      "id": "node/11833279426"
    },
    {
      "type": "Feature",
      "properties": {
        "@id": "node/11833279427",
        "ele": "778",
        "name": "Cerro de San Cristóbal",
        "natural": "peak"
      },
      "geometry": {
        "type": "Point",
        "coordinates": [
          -4.35452,
          37.5616556
        ]
      },
      "id": "node/11833279427"
    },
    {
      "type": "Feature",
      "properties": {
        "@id": "node/11833279428",
        "ele": "793",
        "name": "Oreja de Mula",
        "natural": "peak"
      },
      "geometry": {
        "type": "Point",
        "coordinates": [
          -4.3466858,
          37.5527671
        ]
      },
      "id": "node/11833279428"
    },
    {
      "type": "Feature",
      "properties": {
        "@id": "node/11833279429",
        "ele": "782",
        "natural": "peak"
      },
      "geometry": {
        "type": "Point",
        "coordinates": [
          -4.347258,
          37.5522324
        ]
      },
      "id": "node/11833279429"
    },
    {
      "type": "Feature",
      "properties": {
        "@id": "node/11833279430",
        "ele": "933",
        "natural": "peak"
      },
      "geometry": {
        "type": "Point",
        "coordinates": [
          -4.2969571,
          37.5404954
        ]
      },
      "id": "node/11833279430"
    },
    {
      "type": "Feature",
      "properties": {
        "@id": "node/11833279432",
        "ele": "751",
        "natural": "peak"
      },
      "geometry": {
        "type": "Point",
        "coordinates": [
          -4.3081976,
          37.5460165
        ]
      },
      "id": "node/11833279432"
    },
    {
      "type": "Feature",
      "properties": {
        "@id": "node/11833279433",
        "ele": "679",
        "natural": "peak"
      },
      "geometry": {
        "type": "Point",
        "coordinates": [
          -4.3238341,
          37.5422074
        ]
      },
      "id": "node/11833279433"
    },
    {
      "type": "Feature",
      "properties": {
        "@id": "node/11833279434",
        "ele": "872",
        "natural": "peak"
      },
      "geometry": {
        "type": "Point",
        "coordinates": [
          -4.3148366,
          37.5327362
        ]
      },
      "id": "node/11833279434"
    },
    {
      "type": "Feature",
      "properties": {
        "@id": "node/11833279435",
        "ele": "946",
        "natural": "peak"
      },
      "geometry": {
        "type": "Point",
        "coordinates": [
          -4.3052697,
          37.5341206
        ]
      },
      "id": "node/11833279435"
    },
    {
      "type": "Feature",
      "properties": {
        "@id": "node/11833279436",
        "ele": "1022",
        "natural": "peak"
      },
      "geometry": {
        "type": "Point",
        "coordinates": [
          -4.3257177,
          37.529439
        ]
      },
      "id": "node/11833279436"
    },
    {
      "type": "Feature",
      "properties": {
        "@id": "node/11833279437",
        "ele": "891",
        "natural": "peak"
      },
      "geometry": {
        "type": "Point",
        "coordinates": [
          -4.3100957,
          37.5321663
        ]
      },
      "id": "node/11833279437"
    },
    {
      "type": "Feature",
      "properties": {
        "@id": "node/11833279438",
        "ele": "1054",
        "name": "Cero de la Montosilla",
        "natural": "peak"
      },
      "geometry": {
        "type": "Point",
        "coordinates": [
          -4.2962956,
          37.5260385
        ]
      },
      "id": "node/11833279438"
    },
    {
      "type": "Feature",
      "properties": {
        "@id": "node/11833279439",
        "ele": "1013",
        "natural": "peak"
      },
      "geometry": {
        "type": "Point",
        "coordinates": [
          -4.296706,
          37.531715
        ]
      },
      "id": "node/11833279439"
    },
    {
      "type": "Feature",
      "properties": {
        "@id": "node/11833279440",
        "ele": "1052",
        "natural": "peak"
      },
      "geometry": {
        "type": "Point",
        "coordinates": [
          -4.2905843,
          37.5230451
        ]
      },
      "id": "node/11833279440"
    },
    {
      "type": "Feature",
      "properties": {
        "@id": "node/11833279441",
        "ele": "1057",
        "natural": "peak"
      },
      "geometry": {
        "type": "Point",
        "coordinates": [
          -4.2869398,
          37.5223123
        ]
      },
      "id": "node/11833279441"
    },
    {
      "type": "Feature",
      "properties": {
        "@id": "node/11833279442",
        "ele": "1137",
        "natural": "peak"
      },
      "geometry": {
        "type": "Point",
        "coordinates": [
          -4.285941,
          37.5184446
        ]
      },
      "id": "node/11833279442"
    },
    {
      "type": "Feature",
      "properties": {
        "@id": "node/11833279443",
        "ele": "1104",
        "natural": "peak"
      },
      "geometry": {
        "type": "Point",
        "coordinates": [
          -4.2833144,
          37.5175702
        ]
      },
      "id": "node/11833279443"
    },
    {
      "type": "Feature",
      "properties": {
        "@id": "node/11833279444",
        "ele": "1203",
        "natural": "peak"
      },
      "geometry": {
        "type": "Point",
        "coordinates": [
          -4.2783605,
          37.5178226
        ]
      },
      "id": "node/11833279444"
    },
    {
      "type": "Feature",
      "properties": {
        "@id": "node/11833279445",
        "ele": "1241",
        "natural": "peak"
      },
      "geometry": {
        "type": "Point",
        "coordinates": [
          -4.2741919,
          37.514514
        ]
      },
      "id": "node/11833279445"
    },
    {
      "type": "Feature",
      "properties": {
        "@id": "node/11833279446",
        "ele": "1248",
        "natural": "peak"
      },
      "geometry": {
        "type": "Point",
        "coordinates": [
          -4.2734082,
          37.5135835
        ]
      },
      "id": "node/11833279446"
    },
    {
      "type": "Feature",
      "properties": {
        "@id": "node/11833279447",
        "ele": "1203",
        "natural": "peak"
      },
      "geometry": {
        "type": "Point",
        "coordinates": [
          -4.2915413,
          37.5130008
        ]
      },
      "id": "node/11833279447"
    },
    {
      "type": "Feature",
      "properties": {
        "@id": "node/11833279448",
        "ele": "1222",
        "name": "Cerro del Cavio",
        "natural": "peak"
      },
      "geometry": {
        "type": "Point",
        "coordinates": [
          -4.3019314,
          37.5104765
        ]
      },
      "id": "node/11833279448"
    },
    {
      "type": "Feature",
      "properties": {
        "@id": "node/11833279450",
        "ele": "1187",
        "natural": "peak"
      },
      "geometry": {
        "type": "Point",
        "coordinates": [
          -4.312747,
          37.5088332
        ]
      },
      "id": "node/11833279450"
    },
    {
      "type": "Feature",
      "properties": {
        "@id": "node/11833279455",
        "ele": "1218",
        "natural": "peak"
      },
      "geometry": {
        "type": "Point",
        "coordinates": [
          -4.318422,
          37.508528
        ]
      },
      "id": "node/11833279455"
    },
    {
      "type": "Feature",
      "properties": {
        "@id": "node/11833279457",
        "ele": "1261",
        "natural": "peak"
      },
      "geometry": {
        "type": "Point",
        "coordinates": [
          -4.3341614,
          37.5022772
        ]
      },
      "id": "node/11833279457"
    },
    {
      "type": "Feature",
      "properties": {
        "@id": "node/11833279458",
        "ele": "1201",
        "natural": "peak"
      },
      "geometry": {
        "type": "Point",
        "coordinates": [
          -4.3355269,
          37.4863617
        ]
      },
      "id": "node/11833279458"
    },
    {
      "type": "Feature",
      "properties": {
        "@id": "node/11833279459",
        "ele": "1191",
        "natural": "peak"
      },
      "geometry": {
        "type": "Point",
        "coordinates": [
          -4.3373469,
          37.4879979
        ]
      },
      "id": "node/11833279459"
    },
    {
      "type": "Feature",
      "properties": {
        "@id": "node/11833279461",
        "ele": "1124",
        "natural": "peak"
      },
      "geometry": {
        "type": "Point",
        "coordinates": [
          -4.3576162,
          37.49281
        ]
      },
      "id": "node/11833279461"
    },
    {
      "type": "Feature",
      "properties": {
        "@id": "node/11833279462",
        "ele": "965",
        "natural": "peak"
      },
      "geometry": {
        "type": "Point",
        "coordinates": [
          -4.3367098,
          37.5225086
        ]
      },
      "id": "node/11833279462"
    },
    {
      "type": "Feature",
      "properties": {
        "@id": "node/11833279463",
        "ele": "1129",
        "name": "Abrevia",
        "natural": "peak"
      },
      "geometry": {
        "type": "Point",
        "coordinates": [
          -4.3682203,
          37.5290956
        ]
      },
      "id": "node/11833279463"
    },
    {
      "type": "Feature",
      "properties": {
        "@id": "node/11833279464",
        "ele": "1125",
        "natural": "peak"
      },
      "geometry": {
        "type": "Point",
        "coordinates": [
          -4.364919,
          37.5293316
        ]
      },
      "id": "node/11833279464"
    },
    {
      "type": "Feature",
      "properties": {
        "@id": "node/11833279465",
        "ele": "645",
        "natural": "peak"
      },
      "geometry": {
        "type": "Point",
        "coordinates": [
          -4.3723853,
          37.6063507
        ]
      },
      "id": "node/11833279465"
    },
    {
      "type": "Feature",
      "properties": {
        "@id": "node/11833279466",
        "ele": "631",
        "natural": "peak"
      },
      "geometry": {
        "type": "Point",
        "coordinates": [
          -4.3693726,
          37.6051459
        ]
      },
      "id": "node/11833279466"
    },
    {
      "type": "Feature",
      "properties": {
        "@id": "node/11833279467",
        "ele": "649",
        "name": "Castañia",
        "natural": "peak"
      },
      "geometry": {
        "type": "Point",
        "coordinates": [
          -4.3746303,
          37.6062792
        ]
      },
      "id": "node/11833279467"
    },
    {
      "type": "Feature",
      "properties": {
        "@id": "node/11833279468",
        "ele": "601",
        "natural": "peak"
      },
      "geometry": {
        "type": "Point",
        "coordinates": [
          -4.3373204,
          37.6023562
        ]
      },
      "id": "node/11833279468"
    },
    {
      "type": "Feature",
      "properties": {
        "@id": "node/11833279469",
        "ele": "447",
        "natural": "peak"
      },
      "geometry": {
        "type": "Point",
        "coordinates": [
          -4.3227849,
          37.6265464
        ]
      },
      "id": "node/11833279469"
    },
    {
      "type": "Feature",
      "properties": {
        "@id": "node/11833279470",
        "ele": "502",
        "natural": "peak"
      },
      "geometry": {
        "type": "Point",
        "coordinates": [
          -4.3162542,
          37.6349096
        ]
      },
      "id": "node/11833279470"
    },
    {
      "type": "Feature",
      "properties": {
        "@id": "node/11833279471",
        "ele": "501",
        "natural": "peak"
      },
      "geometry": {
        "type": "Point",
        "coordinates": [
          -4.3149266,
          37.6360252
        ]
      },
      "id": "node/11833279471"
    },
    {
      "type": "Feature",
      "properties": {
        "@id": "node/11833279472",
        "ele": "501",
        "natural": "peak"
      },
      "geometry": {
        "type": "Point",
        "coordinates": [
          -4.312152,
          37.6352921
        ]
      },
      "id": "node/11833279472"
    },
    {
      "type": "Feature",
      "properties": {
        "@id": "node/11833279473",
        "ele": "502",
        "natural": "peak"
      },
      "geometry": {
        "type": "Point",
        "coordinates": [
          -4.3093593,
          37.6352558
        ]
      },
      "id": "node/11833279473"
    },
    {
      "type": "Feature",
      "properties": {
        "@id": "node/11833279474",
        "ele": "498",
        "natural": "peak"
      },
      "geometry": {
        "type": "Point",
        "coordinates": [
          -4.3232669,
          37.6389977
        ]
      },
      "id": "node/11833279474"
    },
    {
      "type": "Feature",
      "properties": {
        "@id": "node/11833279475",
        "ele": "461",
        "natural": "peak"
      },
      "geometry": {
        "type": "Point",
        "coordinates": [
          -4.3275965,
          37.6373577
        ]
      },
      "id": "node/11833279475"
    },
    {
      "type": "Feature",
      "properties": {
        "@id": "node/11833279476",
        "ele": "523",
        "natural": "peak"
      },
      "geometry": {
        "type": "Point",
        "coordinates": [
          -4.3121905,
          37.6422786
        ]
      },
      "id": "node/11833279476"
    },
    {
      "type": "Feature",
      "properties": {
        "@id": "node/11833279477",
        "ele": "688",
        "name": "Torremorana",
        "natural": "peak"
      },
      "geometry": {
        "type": "Point",
        "coordinates": [
          -4.2761118,
          37.6530521
        ]
      },
      "id": "node/11833279477"
    },
    {
      "type": "Feature",
      "properties": {
        "@id": "node/11833279478",
        "ele": "468",
        "natural": "peak"
      },
      "geometry": {
        "type": "Point",
        "coordinates": [
          -4.241518,
          37.6260773
        ]
      },
      "id": "node/11833279478"
    },
    {
      "type": "Feature",
      "properties": {
        "@id": "node/11833279479",
        "ele": "457",
        "natural": "peak"
      },
      "geometry": {
        "type": "Point",
        "coordinates": [
          -4.2278692,
          37.6222762
        ]
      },
      "id": "node/11833279479"
    },
    {
      "type": "Feature",
      "properties": {
        "@id": "node/11833279480",
        "ele": "387",
        "natural": "peak"
      },
      "geometry": {
        "type": "Point",
        "coordinates": [
          -4.2241423,
          37.6190891
        ]
      },
      "id": "node/11833279480"
    },
    {
      "type": "Feature",
      "properties": {
        "@id": "node/11833279481",
        "ele": "445",
        "natural": "peak"
      },
      "geometry": {
        "type": "Point",
        "coordinates": [
          -4.2160424,
          37.6069653
        ]
      },
      "id": "node/11833279481"
    },
    {
      "type": "Feature",
      "properties": {
        "@id": "node/11833279482",
        "ele": "548",
        "natural": "peak"
      },
      "geometry": {
        "type": "Point",
        "coordinates": [
          -4.1827089,
          37.6079761
        ]
      },
      "id": "node/11833279482"
    },
    {
      "type": "Feature",
      "properties": {
        "@id": "node/11833279483",
        "ele": "429",
        "natural": "peak"
      },
      "geometry": {
        "type": "Point",
        "coordinates": [
          -4.1865978,
          37.6133581
        ]
      },
      "id": "node/11833279483"
    },
    {
      "type": "Feature",
      "properties": {
        "@id": "node/12408883422",
        "ele": "864",
        "natural": "peak"
      },
      "geometry": {
        "type": "Point",
        "coordinates": [
          -4.2923978,
          37.2038973
        ]
      },
      "id": "node/12408883422"
    },
    {
      "type": "Feature",
      "properties": {
        "@id": "node/12408883426",
        "ele": "881",
        "natural": "peak"
      },
      "geometry": {
        "type": "Point",
        "coordinates": [
          -4.2663275,
          37.2250084
        ]
      },
      "id": "node/12408883426"
    },
    {
      "type": "Feature",
      "properties": {
        "@id": "node/12408883428",
        "ele": "901",
        "natural": "peak"
      },
      "geometry": {
        "type": "Point",
        "coordinates": [
          -4.2687844,
          37.2225073
        ]
      },
      "id": "node/12408883428"
    },
    {
      "type": "Feature",
      "properties": {
        "@id": "node/12471473678",
        "ele": "812",
        "natural": "peak"
      },
      "geometry": {
        "type": "Point",
        "coordinates": [
          -4.2489726,
          37.2767624
        ]
      },
      "id": "node/12471473678"
    },
    {
      "type": "Feature",
      "properties": {
        "@id": "node/12471473683",
        "ele": "736",
        "natural": "peak"
      },
      "geometry": {
        "type": "Point",
        "coordinates": [
          -4.2580752,
          37.2700247
        ]
      },
      "id": "node/12471473683"
    },
    {
      "type": "Feature",
      "properties": {
        "@id": "node/12471473684",
        "ele": "689",
        "natural": "peak"
      },
      "geometry": {
        "type": "Point",
        "coordinates": [
          -4.2676047,
          37.2683274
        ]
      },
      "id": "node/12471473684"
    },
    {
      "type": "Feature",
      "properties": {
        "@id": "node/12471473685",
        "ele": "705",
        "name": "Llamas",
        "natural": "peak"
      },
      "geometry": {
        "type": "Point",
        "coordinates": [
          -4.2717219,
          37.2653958
        ]
      },
      "id": "node/12471473685"
    },
    {
      "type": "Feature",
      "properties": {
        "@id": "node/12471473686",
        "ele": "705",
        "natural": "peak"
      },
      "geometry": {
        "type": "Point",
        "coordinates": [
          -4.2815558,
          37.2715683
        ]
      },
      "id": "node/12471473686"
    },
    {
      "type": "Feature",
      "properties": {
        "@id": "node/12471473687",
        "ele": "707",
        "natural": "peak"
      },
      "geometry": {
        "type": "Point",
        "coordinates": [
          -4.2597514,
          37.2767233
        ]
      },
      "id": "node/12471473687"
    },
    {
      "type": "Feature",
      "properties": {
        "@id": "node/12471473688",
        "ele": "827",
        "natural": "peak"
      },
      "geometry": {
        "type": "Point",
        "coordinates": [
          -4.26457,
          37.2788673
        ]
      },
      "id": "node/12471473688"
    },
    {
      "type": "Feature",
      "properties": {
        "@id": "node/12471473689",
        "ele": "829",
        "natural": "peak"
      },
      "geometry": {
        "type": "Point",
        "coordinates": [
          -4.2642457,
          37.281062
        ]
      },
      "id": "node/12471473689"
    },
    {
      "type": "Feature",
      "properties": {
        "@id": "node/12471473690",
        "ele": "809",
        "natural": "peak"
      },
      "geometry": {
        "type": "Point",
        "coordinates": [
          -4.2731376,
          37.2778013
        ]
      },
      "id": "node/12471473690"
    },
    {
      "type": "Feature",
      "properties": {
        "@id": "node/12471473691",
        "ele": "816",
        "natural": "peak"
      },
      "geometry": {
        "type": "Point",
        "coordinates": [
          -4.2656002,
          37.2826369
        ]
      },
      "id": "node/12471473691"
    },
    {
      "type": "Feature",
      "properties": {
        "@id": "node/12471473692",
        "ele": "851",
        "name": "Talilla",
        "natural": "peak"
      },
      "geometry": {
        "type": "Point",
        "coordinates": [
          -4.2613592,
          37.2836042
        ]
      },
      "id": "node/12471473692"
    },
    {
      "type": "Feature",
      "properties": {
        "@id": "node/12471473693",
        "ele": "875",
        "natural": "peak"
      },
      "geometry": {
        "type": "Point",
        "coordinates": [
          -4.2540542,
          37.2857304
        ]
      },
      "id": "node/12471473693"
    },
    {
      "type": "Feature",
      "properties": {
        "@id": "node/12471473694",
        "ele": "876",
        "natural": "peak"
      },
      "geometry": {
        "type": "Point",
        "coordinates": [
          -4.2491873,
          37.2878506
        ]
      },
      "id": "node/12471473694"
    }
  ]
}