{
  "type": "FeatureCollection",
  "generator": "overpass-turbo",
  "copyright": "The data included in this document is from www.openstreetmap.org. The data is made available under ODbL.",
  "timestamp": "2025-04-22T17:42:28Z",
  "features": [
    {
      "type": "Feature",
      "properties": {
        "@id": "node/26863556",
        "ele": "1377",
        "name": "Lobatejo",
        "natural": "peak",
        "wikidata": "Q23984671"
      },
      "geometry": {
        "type": "Point",
        "coordinates": [
          -4.3197139,
          37.49142
        ]
      },
      "id": "node/26863556"
    },
    {
      "type": "Feature",
      "properties": {
        "@id": "node/26864593",
        "ele": "1452",
        "name": "Sierra Ahillos",
        "natural": "peak",
        "wikidata": "Q23988624"
      },
      "geometry": {
        "type": "Point",
        "coordinates": [
          -4.0332278,
          37.6001088
        ]
      },
      "id": "node/26864593"
    },
    {
      "type": "Feature",
      "properties": {
        "@id": "node/949512847",
        "ele": "1306.00",
        "name": "La Pelona",
        "natural": "peak",
        "wikidata": "Q115504725"
      },
      "geometry": {
        "type": "Point",
        "coordinates": [
          -4.1520501,
          37.3881118
        ]
      },
      "id": "node/949512847"
    },
    {
      "type": "Feature",
      "properties": {
        "@id": "node/949516785",
        "ele": "1211.50",
        "name": "Morrón",
        "natural": "peak",
        "wikidata": "Q115506710"
      },
      "geometry": {
        "type": "Point",
        "coordinates": [
          -4.1218153,
          37.3074923
        ]
      },
      "id": "node/949516785"
    },
    {
      "type": "Feature",
      "properties": {
        "@id": "node/949518058",
        "ele": "1567.60",
        "name": "La Tiñosa",
        "natural": "peak",
        "wikidata": "Q24939924"
      },
      "geometry": {
        "type": "Point",
        "coordinates": [
          -4.2411153,
          37.3847334
        ]
      },
      "id": "node/949518058"
    },
    {
      "type": "Feature",
      "properties": {
        "@id": "node/949519649",
        "ele": "448.30",
        "name": "Clavellina",
        "natural": "peak",
        "wikidata": "Q115501903"
      },
      "geometry": {
        "type": "Point",
        "coordinates": [
          -4.6674631,
          37.9723864
        ]
      },
      "id": "node/949519649"
    },
    {
      "type": "Feature",
      "properties": {
        "@id": "node/1241912893",
        "ele": "981",
        "name": "Cerro de la Chiva",
        "natural": "peak"
      },
      "geometry": {
        "type": "Point",
        "coordinates": [
          -4.334182,
          37.5340764
        ]
      },
      "id": "node/1241912893"
    },
    {
      "type": "Feature",
      "properties": {
        "@id": "node/1241917289",
        "ele": "1099",
        "name": "Cerro del Bramadero",
        "natural": "peak"
      },
      "geometry": {
        "type": "Point",
        "coordinates": [
          -4.3243766,
          37.5193085
        ]
      },
      "id": "node/1241917289"
    },
    {
      "type": "Feature",
      "properties": {
        "@id": "node/1241919200",
        "ele": "971",
        "name": "Cerro de los Cangilones",
        "natural": "peak"
      },
      "geometry": {
        "type": "Point",
        "coordinates": [
          -4.2961699,
          37.544011
        ]
      },
      "id": "node/1241919200"
    },
    {
      "type": "Feature",
      "properties": {
        "@id": "node/1241934998",
        "ele": "469",
        "name": "Cerro de la Amazona",
        "natural": "peak"
      },
      "geometry": {
        "type": "Point",
        "coordinates": [
          -4.1706162,
          37.5686809
        ]
      },
      "id": "node/1241934998"
    },
    {
      "type": "Feature",
      "properties": {
        "@id": "node/1241936790",
        "ele": "708",
        "name": "Cerro de Pedro López",
        "natural": "peak"
      },
      "geometry": {
        "type": "Point",
        "coordinates": [
          -4.8304273,
          37.972983
        ]
      },
      "id": "node/1241936790"
    },
    {
      "type": "Feature",
      "properties": {
        "@id": "node/1241937354",
        "ele": "626",
        "name": "Cerro de Valladolid",
        "natural": "peak"
      },
      "geometry": {
        "type": "Point",
        "coordinates": [
          -4.3413832,
          37.6025673
        ]
      },
      "id": "node/1241937354"
    },
    {
      "type": "Feature",
      "properties": {
        "@id": "node/1241938794",
        "ele": "539",
        "name": "Cerro de Cotillas",
        "natural": "peak"
      },
      "geometry": {
        "type": "Point",
        "coordinates": [
          -4.321964,
          37.5644752
        ]
      },
      "id": "node/1241938794"
    },
    {
      "type": "Feature",
      "properties": {
        "@id": "node/1241942414",
        "ele": "801",
        "name": "Cerro del Chivo",
        "natural": "peak"
      },
      "geometry": {
        "type": "Point",
        "coordinates": [
          -4.3535058,
          37.5630884
        ]
      },
      "id": "node/1241942414"
    },
    {
      "type": "Feature",
      "properties": {
        "@id": "node/1241942765",
        "ele": "1011",
        "name": "Cerro de los Murciélagos",
        "natural": "peak"
      },
      "geometry": {
        "type": "Point",
        "coordinates": [
          -4.3025926,
          37.5407625
        ]
      },
      "id": "node/1241942765"
    },
    {
      "type": "Feature",
      "properties": {
        "@id": "node/1241945701",
        "ele": "257",
        "name": "Cerro Gordo",
        "natural": "peak"
      },
      "geometry": {
        "type": "Point",
        "coordinates": [
          -4.6775953,
          37.9518182
        ]
      },
      "id": "node/1241945701"
    },
    {
      "type": "Feature",
      "properties": {
        "@id": "node/1241949350",
        "ele": "1262",
        "name": "Peña de Miguel Pérez",
        "natural": "peak"
      },
      "geometry": {
        "type": "Point",
        "coordinates": [
          -4.3329728,
          37.5031749
        ]
      },
      "id": "node/1241949350"
    },
    {
      "type": "Feature",
      "properties": {
        "@id": "node/1241952073",
        "ele": "1033",
        "name": "Cerro del Zumacal",
        "natural": "peak"
      },
      "geometry": {
        "type": "Point",
        "coordinates": [
          -4.3278403,
          37.5304796
        ]
      },
      "id": "node/1241952073"
    },
    {
      "type": "Feature",
      "properties": {
        "@id": "node/1241956006",
        "ele": "1065",
        "name": "Cerro de la Montosa",
        "natural": "peak"
      },
      "geometry": {
        "type": "Point",
        "coordinates": [
          -4.3048251,
          37.525333
        ]
      },
      "id": "node/1241956006"
    },
    {
      "type": "Feature",
      "properties": {
        "@id": "node/1242002362",
        "ele": "1174",
        "name": "Cerro del Charcón",
        "natural": "peak"
      },
      "geometry": {
        "type": "Point",
        "coordinates": [
          -4.2841698,
          37.5124939
        ]
      },
      "id": "node/1242002362"
    },
    {
      "type": "Feature",
      "properties": {
        "@id": "node/1242002530",
        "ele": "441",
        "name": "Cerro de Pedrea",
        "natural": "peak"
      },
      "geometry": {
        "type": "Point",
        "coordinates": [
          -4.3317728,
          37.6224998
        ]
      },
      "id": "node/1242002530"
    },
    {
      "type": "Feature",
      "properties": {
        "@id": "node/1242002771",
        "ele": "791",
        "name": "Peñón del Grajo",
        "natural": "peak"
      },
      "geometry": {
        "type": "Point",
        "coordinates": [
          -4.3489976,
          37.561124
        ]
      },
      "id": "node/1242002771"
    },
    {
      "type": "Feature",
      "properties": {
        "@id": "node/1242004052",
        "ele": "526",
        "name": "El Villar",
        "natural": "peak"
      },
      "geometry": {
        "type": "Point",
        "coordinates": [
          -4.1871349,
          37.6086209
        ]
      },
      "id": "node/1242004052"
    },
    {
      "type": "Feature",
      "properties": {
        "@id": "node/1242004092",
        "ele": "547",
        "name": "Cerro del Aceitunillo",
        "natural": "peak"
      },
      "geometry": {
        "type": "Point",
        "coordinates": [
          -4.2613654,
          37.5772662
        ]
      },
      "id": "node/1242004092"
    },
    {
      "type": "Feature",
      "properties": {
        "@id": "node/1242012504",
        "ele": "1203",
        "name": "Cerro de las Mentiras",
        "natural": "peak"
      },
      "geometry": {
        "type": "Point",
        "coordinates": [
          -4.291524,
          37.5135358
        ]
      },
      "id": "node/1242012504"
    },
    {
      "type": "Feature",
      "properties": {
        "@id": "node/1243095894",
        "ele": "1208",
        "name": "Cerro García",
        "natural": "peak",
        "source": "Instituto Geográfico Nacional",
        "source:date": "201011"
      },
      "geometry": {
        "type": "Point",
        "coordinates": [
          -4.0124697,
          37.6130432
        ]
      },
      "id": "node/1243095894"
    },
    {
      "type": "Feature",
      "properties": {
        "@id": "node/1243099974",
        "ele": "732",
        "name": "Cerro Azulejos",
        "natural": "peak",
        "source": "Instituto Geográfico Nacional",
        "source:date": "201011"
      },
      "geometry": {
        "type": "Point",
        "coordinates": [
          -4.0501997,
          37.6329152
        ]
      },
      "id": "node/1243099974"
    },
    {
      "type": "Feature",
      "properties": {
        "@id": "node/1243105262",
        "ele": "525",
        "name": "Cabeza la Gruesa",
        "natural": "peak",
        "source": "Instituto Geográfico Nacional",
        "source:date": "201011"
      },
      "geometry": {
        "type": "Point",
        "coordinates": [
          -4.1425231,
          37.5914999
        ]
      },
      "id": "node/1243105262"
    },
    {
      "type": "Feature",
      "properties": {
        "@id": "node/1243127232",
        "ele": "702",
        "name": "El Calvario",
        "natural": "peak"
      },
      "geometry": {
        "type": "Point",
        "coordinates": [
          -4.0867063,
          37.5851497
        ]
      },
      "id": "node/1243127232"
    },
    {
      "type": "Feature",
      "properties": {
        "@id": "node/1243143295",
        "ele": "638",
        "name": "Cerro Baena",
        "natural": "peak",
        "source": "Instituto Geográfico Nacional",
        "source:date": "201011"
      },
      "geometry": {
        "type": "Point",
        "coordinates": [
          -4.1094537,
          37.5896291
        ]
      },
      "id": "node/1243143295"
    },
    {
      "type": "Feature",
      "properties": {
        "@id": "node/1243149062",
        "ele": "648",
        "name": "Cerro de los Rulos",
        "natural": "peak",
        "source": "Instituto Geográfico Nacional",
        "source:date": "201011"
      },
      "geometry": {
        "type": "Point",
        "coordinates": [
          -4.1211808,
          37.5969796
        ]
      },
      "id": "node/1243149062"
    },
    {
      "type": "Feature",
      "properties": {
        "@id": "node/1243166327",
        "ele": "439",
        "name": "Cerro del Cambrón",
        "natural": "peak",
        "source": "Instituto Geográfico Nacional",
        "source:date": "201011"
      },
      "geometry": {
        "type": "Point",
        "coordinates": [
          -4.1581486,
          37.5849782
        ]
      },
      "id": "node/1243166327"
    },
    {
      "type": "Feature",
      "properties": {
        "@id": "node/1243168193",
        "ele": "627",
        "name": "Cerro Serafín",
        "natural": "peak",
        "source": "Instituto Geográfico Nacional",
        "source:date": "201011"
      },
      "geometry": {
        "type": "Point",
        "coordinates": [
          -4.1169015,
          37.5899592
        ]
      },
      "id": "node/1243168193"
    },
    {
      "type": "Feature",
      "properties": {
        "@id": "node/1243296469",
        "ele": "1142",
        "name": "El Hachuelo",
        "natural": "peak",
        "source": "Instituto Geográfico Nacional;MTA25k",
        "source:date": "201011"
      },
      "geometry": {
        "type": "Point",
        "coordinates": [
          -4.0266922,
          37.3046224
        ]
      },
      "id": "node/1243296469"
    },
    {
      "type": "Feature",
      "properties": {
        "@id": "node/1243296831",
        "ele": "964",
        "name": "Peña Redonda",
        "natural": "peak",
        "source": "Instituto Geográfico Nacional",
        "source:date": "201011"
      },
      "geometry": {
        "type": "Point",
        "coordinates": [
          -4.0112117,
          37.315043
        ]
      },
      "id": "node/1243296831"
    },
    {
      "type": "Feature",
      "properties": {
        "@id": "node/1249943386",
        "ele": "561",
        "name": "Cerro Matoso",
        "natural": "peak"
      },
      "geometry": {
        "type": "Point",
        "coordinates": [
          -4.2790429,
          37.6406052
        ]
      },
      "id": "node/1249943386"
    },
    {
      "type": "Feature",
      "properties": {
        "@id": "node/1249943413",
        "name": "La Atalaya",
        "natural": "peak"
      },
      "geometry": {
        "type": "Point",
        "coordinates": [
          -4.2624848,
          37.5399396
        ]
      },
      "id": "node/1249943413"
    },
    {
      "type": "Feature",
      "properties": {
        "@id": "node/1249943794",
        "name": "Pico de Albayate",
        "natural": "peak"
      },
      "geometry": {
        "type": "Point",
        "coordinates": [
          -4.1244905,
          37.4065588
        ]
      },
      "id": "node/1249943794"
    },
    {
      "type": "Feature",
      "properties": {
        "@id": "node/1249944067",
        "ele": "585",
        "name": "Cerro Cabeza Grillos",
        "natural": "peak"
      },
      "geometry": {
        "type": "Point",
        "coordinates": [
          -4.179323,
          37.6062976
        ]
      },
      "id": "node/1249944067"
    },
    {
      "type": "Feature",
      "properties": {
        "@id": "node/1249944374",
        "ele": "470",
        "name": "Cerro Caldera",
        "natural": "peak"
      },
      "geometry": {
        "type": "Point",
        "coordinates": [
          -4.2163361,
          37.6135833
        ]
      },
      "id": "node/1249944374"
    },
    {
      "type": "Feature",
      "properties": {
        "@id": "node/1249944494",
        "name": "Cerro de Rodahuevos",
        "natural": "peak"
      },
      "geometry": {
        "type": "Point",
        "coordinates": [
          -4.1666853,
          37.3689343
        ]
      },
      "id": "node/1249944494"
    },
    {
      "type": "Feature",
      "properties": {
        "@id": "node/1249945347",
        "name": "Cerro del Muchacho",
        "natural": "peak"
      },
      "geometry": {
        "type": "Point",
        "coordinates": [
          -4.1523684,
          37.388327
        ]
      },
      "id": "node/1249945347"
    },
    {
      "type": "Feature",
      "properties": {
        "@id": "node/1249945853",
        "name": "Cerro del Minguillar",
        "natural": "peak"
      },
      "geometry": {
        "type": "Point",
        "coordinates": [
          -4.3084564,
          37.5966266
        ]
      },
      "id": "node/1249945853"
    },
    {
      "type": "Feature",
      "properties": {
        "@id": "node/1249946267",
        "name": "Cerro del Cardo",
        "natural": "peak"
      },
      "geometry": {
        "type": "Point",
        "coordinates": [
          -4.544598,
          38.182791
        ]
      },
      "id": "node/1249946267"
    },
    {
      "type": "Feature",
      "properties": {
        "@id": "node/1249948506",
        "name": "Cerro de Majadahonda",
        "natural": "peak"
      },
      "geometry": {
        "type": "Point",
        "coordinates": [
          -4.2419445,
          37.6649154
        ]
      },
      "id": "node/1249948506"
    },
    {
      "type": "Feature",
      "properties": {
        "@id": "node/1249949081",
        "ele": "801",
        "name": "Cerro del Arco",
        "natural": "peak",
        "source": "Instituto Geográfico Nacional",
        "source:date": "201011"
      },
      "geometry": {
        "type": "Point",
        "coordinates": [
          -4.1808298,
          37.3041542
        ]
      },
      "id": "node/1249949081"
    },
    {
      "type": "Feature",
      "properties": {
        "@id": "node/1249949670",
        "name": "Cerro del Doncellar",
        "natural": "peak"
      },
      "geometry": {
        "type": "Point",
        "coordinates": [
          -4.2380429,
          37.6286251
        ]
      },
      "id": "node/1249949670"
    },
    {
      "type": "Feature",
      "properties": {
        "@id": "node/1249949733",
        "name": "Cerro de los Pedernales",
        "natural": "peak"
      },
      "geometry": {
        "type": "Point",
        "coordinates": [
          -4.195479,
          37.598203
        ]
      },
      "id": "node/1249949733"
    },
    {
      "type": "Feature",
      "properties": {
        "@id": "node/1249949993",
        "name": "Cerro de Alensiano",
        "natural": "peak"
      },
      "geometry": {
        "type": "Point",
        "coordinates": [
          -4.3182905,
          37.6374788
        ]
      },
      "id": "node/1249949993"
    },
    {
      "type": "Feature",
      "properties": {
        "@id": "node/1249950646",
        "name": "Cerro de Priegos",
        "natural": "peak"
      },
      "geometry": {
        "type": "Point",
        "coordinates": [
          -4.0667689,
          37.4084544
        ]
      },
      "id": "node/1249950646"
    },
    {
      "type": "Feature",
      "properties": {
        "@id": "node/1249952840",
        "ele": "540",
        "name": "Cerro de San Cristóbal",
        "natural": "peak"
      },
      "geometry": {
        "type": "Point",
        "coordinates": [
          -4.3104137,
          37.6080353
        ]
      },
      "id": "node/1249952840"
    },
    {
      "type": "Feature",
      "properties": {
        "@id": "node/1249954490",
        "ele": "1242",
        "name": "Cerro de Abuchite",
        "natural": "peak"
      },
      "geometry": {
        "type": "Point",
        "coordinates": [
          -4.2758731,
          37.5168657
        ]
      },
      "id": "node/1249954490"
    },
    {
      "type": "Feature",
      "properties": {
        "@id": "node/1249957617",
        "name": "Cerro de la Cruz",
        "natural": "peak"
      },
      "geometry": {
        "type": "Point",
        "coordinates": [
          -4.0816074,
          37.4366719
        ]
      },
      "id": "node/1249957617"
    },
    {
      "type": "Feature",
      "properties": {
        "@id": "node/1249959228",
        "ele": "1082",
        "name": "Cerro el Muro",
        "natural": "peak",
        "source": "Instituto Geográfico Nacional",
        "source:date": "201011"
      },
      "geometry": {
        "type": "Point",
        "coordinates": [
          -4.0461426,
          37.3003077
        ]
      },
      "id": "node/1249959228"
    },
    {
      "type": "Feature",
      "properties": {
        "@id": "node/1249960613",
        "name": "Cerro del Almendro",
        "natural": "peak"
      },
      "geometry": {
        "type": "Point",
        "coordinates": [
          -4.2075129,
          37.592826
        ]
      },
      "id": "node/1249960613"
    },
    {
      "type": "Feature",
      "properties": {
        "@id": "node/1249960921",
        "name": "Cerro de Juan Martín",
        "natural": "peak"
      },
      "geometry": {
        "type": "Point",
        "coordinates": [
          -4.2453751,
          37.5994089
        ]
      },
      "id": "node/1249960921"
    },
    {
      "type": "Feature",
      "properties": {
        "@id": "node/1250016080",
        "ele": "604",
        "name": "Cerro San Cristóbal",
        "natural": "peak",
        "source": "Instituto Geográfico Nacional",
        "source:date": "201011"
      },
      "geometry": {
        "type": "Point",
        "coordinates": [
          -4.0248684,
          37.6446563
        ]
      },
      "id": "node/1250016080"
    },
    {
      "type": "Feature",
      "properties": {
        "@id": "node/1250018616",
        "ele": "977",
        "name": "Cerro Utrera",
        "natural": "peak",
        "source": "Instituto Geográfico Nacional",
        "source:date": "201011"
      },
      "geometry": {
        "type": "Point",
        "coordinates": [
          -4.037872,
          37.6316063
        ]
      },
      "id": "node/1250018616"
    },
    {
      "type": "Feature",
      "properties": {
        "@id": "node/1250023452",
        "name": "Cerro del Carpio",
        "natural": "peak",
        "source": "Instituto Geográfico Nacional",
        "source:date": "201011"
      },
      "geometry": {
        "type": "Point",
        "coordinates": [
          -4.1056869,
          37.6331992
        ]
      },
      "id": "node/1250023452"
    },
    {
      "type": "Feature",
      "properties": {
        "@id": "node/1250039078",
        "name": "Cerro Alardales",
        "natural": "peak",
        "source": "Instituto Geográfico Nacional",
        "source:date": "201011"
      },
      "geometry": {
        "type": "Point",
        "coordinates": [
          -4.000122,
          37.5903447
        ]
      },
      "id": "node/1250039078"
    },
    {
      "type": "Feature",
      "properties": {
        "@id": "node/1250039099",
        "name": "Cerro Buitrón",
        "natural": "peak",
        "source": "Instituto Geográfico Nacional",
        "source:date": "201011"
      },
      "geometry": {
        "type": "Point",
        "coordinates": [
          -4.0003126,
          37.5183743
        ]
      },
      "id": "node/1250039099"
    },
    {
      "type": "Feature",
      "properties": {
        "@id": "node/1250039757",
        "name": "Cerro Villodres",
        "natural": "peak",
        "source": "Instituto Geográfico Nacional",
        "source:date": "201011"
      },
      "geometry": {
        "type": "Point",
        "coordinates": [
          -4.1270347,
          37.6619716
        ]
      },
      "id": "node/1250039757"
    },
    {
      "type": "Feature",
      "properties": {
        "@id": "node/1665579695",
        "natural": "peak"
      },
      "geometry": {
        "type": "Point",
        "coordinates": [
          -4.8272874,
          38.0109284
        ]
      },
      "id": "node/1665579695"
    },
    {
      "type": "Feature",
      "properties": {
        "@id": "node/1677682756",
        "name": "Loma de Mingo",
        "natural": "peak"
      },
      "geometry": {
        "type": "Point",
        "coordinates": [
          -4.8419783,
          37.3127774
        ]
      },
      "id": "node/1677682756"
    },
    {
      "type": "Feature",
      "properties": {
        "@id": "node/3638719346",
        "ele": "327",
        "name": "Cerro del Buho",
        "natural": "peak"
      },
      "geometry": {
        "type": "Point",
        "coordinates": [
          -4.6980808,
          37.9571668
        ]
      },
      "id": "node/3638719346"
    },
    {
      "type": "Feature",
      "properties": {
        "@id": "node/5448180010",
        "name": "Puerto Artafi",
        "natural": "peak"
      },
      "geometry": {
        "type": "Point",
        "coordinates": [
          -4.9388665,
          37.9411366
        ]
      },
      "id": "node/5448180010"
    },
    {
      "type": "Feature",
      "properties": {
        "@id": "node/6322525461",
        "ele": "982",
        "natural": "peak"
      },
      "geometry": {
        "type": "Point",
        "coordinates": [
          -4.0012497,
          37.3103858
        ]
      },
      "id": "node/6322525461"
    },
    {
      "type": "Feature",
      "properties": {
        "@id": "node/8315079655",
        "ele": "1210",
        "name": "Morrón",
        "natural": "peak"
      },
      "geometry": {
        "type": "Point",
        "coordinates": [
          -4.1217306,
          37.3075067
        ]
      },
      "id": "node/8315079655"
    },
    {
      "type": "Feature",
      "properties": {
        "@id": "node/9660518809",
        "ele": "427",
        "name": "Peña Mocón",
        "natural": "peak"
      },
      "geometry": {
        "type": "Point",
        "coordinates": [
          -4.6336823,
          38.0747219
        ]
      },
      "id": "node/9660518809"
    },
    {
      "type": "Feature",
      "properties": {
        "@id": "node/9749784498",
        "ele": "1431",
        "name": "Cresta de Alhucemas",
        "natural": "peak"
      },
      "geometry": {
        "type": "Point",
        "coordinates": [
          -4.2748945,
          37.3776915
        ]
      },
      "id": "node/9749784498"
    },
    {
      "type": "Feature",
      "properties": {
        "@id": "node/9749795224",
        "ele": "1474",
        "name": "Pico Bermejo",
        "natural": "peak"
      },
      "geometry": {
        "type": "Point",
        "coordinates": [
          -4.2819947,
          37.3865002
        ]
      },
      "id": "node/9749795224"
    },
    {
      "type": "Feature",
      "properties": {
        "@id": "node/9749827681",
        "ele": "1105",
        "name": "Morrón del Salvador",
        "natural": "peak"
      },
      "geometry": {
        "type": "Point",
        "coordinates": [
          -4.2993712,
          37.3542549
        ]
      },
      "id": "node/9749827681"
    },
    {
      "type": "Feature",
      "properties": {
        "@id": "node/9749847776",
        "ele": "1095",
        "name": "Gallinera",
        "natural": "peak"
      },
      "geometry": {
        "type": "Point",
        "coordinates": [
          -4.3114888,
          37.3978534
        ]
      },
      "id": "node/9749847776"
    },
    {
      "type": "Feature",
      "properties": {
        "@id": "node/9749872840",
        "ele": "1325",
        "name": "Sierra Alta",
        "natural": "peak"
      },
      "geometry": {
        "type": "Point",
        "coordinates": [
          -4.3347046,
          37.3413828
        ]
      },
      "id": "node/9749872840"
    },
    {
      "type": "Feature",
      "properties": {
        "@id": "node/10031965878",
        "ele": "403",
        "name": "Cerro Capellanía",
        "natural": "peak"
      },
      "geometry": {
        "type": "Point",
        "coordinates": [
          -4.7080561,
          37.9536061
        ]
      },
      "id": "node/10031965878"
    },
    {
      "type": "Feature",
      "properties": {
        "@id": "node/10713018594",
        "name": "Cerro Barrero",
        "natural": "peak"
      },
      "geometry": {
        "type": "Point",
        "coordinates": [
          -5.3473311,
          37.4387564
        ]
      },
      "id": "node/10713018594"
    },
    {
      "type": "Feature",
      "properties": {
        "@id": "node/11547313017",
        "ele": "391",
        "name": "Cerro la Tabla",
        "natural": "peak"
      },
      "geometry": {
        "type": "Point",
        "coordinates": [
          -4.6758964,
          38.0238055
        ]
      },
      "id": "node/11547313017"
    },
    {
      "type": "Feature",
      "properties": {
        "@id": "node/11547327029",
        "ele": "571",
        "name": "Cerro los Puntales",
        "natural": "peak"
      },
      "geometry": {
        "type": "Point",
        "coordinates": [
          -4.7001057,
          38.0407842
        ]
      },
      "id": "node/11547327029"
    },
    {
      "type": "Feature",
      "properties": {
        "@id": "node/11833279370",
        "ele": "689",
        "natural": "peak"
      },
      "geometry": {
        "type": "Point",
        "coordinates": [
          -4.0142008,
          37.6445699
        ]
      },
      "id": "node/11833279370"
    },
    {
      "type": "Feature",
      "properties": {
        "@id": "node/11833279371",
        "ele": "657",
        "natural": "peak"
      },
      "geometry": {
        "type": "Point",
        "coordinates": [
          -4.0086136,
          37.6452675
        ]
      },
      "id": "node/11833279371"
    },
    {
      "type": "Feature",
      "properties": {
        "@id": "node/11833279372",
        "ele": "615",
        "natural": "peak"
      },
      "geometry": {
        "type": "Point",
        "coordinates": [
          -4.0258335,
          37.6419436
        ]
      },
      "id": "node/11833279372"
    },
    {
      "type": "Feature",
      "properties": {
        "@id": "node/11833279373",
        "ele": "1099",
        "natural": "peak"
      },
      "geometry": {
        "type": "Point",
        "coordinates": [
          -4.0252867,
          37.6275969
        ]
      },
      "id": "node/11833279373"
    },
    {
      "type": "Feature",
      "properties": {
        "@id": "node/11833279374",
        "ele": "1287",
        "natural": "peak"
      },
      "geometry": {
        "type": "Point",
        "coordinates": [
          -4.0139177,
          37.6190079
        ]
      },
      "id": "node/11833279374"
    },
    {
      "type": "Feature",
      "properties": {
        "@id": "node/11833279375",
        "ele": "1325",
        "natural": "peak"
      },
      "geometry": {
        "type": "Point",
        "coordinates": [
          -4.0102955,
          37.6200117
        ]
      },
      "id": "node/11833279375"
    },
    {
      "type": "Feature",
      "properties": {
        "@id": "node/11833279382",
        "ele": "589",
        "natural": "peak"
      },
      "geometry": {
        "type": "Point",
        "coordinates": [
          -4.1222632,
          37.5925261
        ]
      },
      "id": "node/11833279382"
    },
    {
      "type": "Feature",
      "properties": {
        "@id": "node/11833279383",
        "ele": "598",
        "natural": "peak"
      },
      "geometry": {
        "type": "Point",
        "coordinates": [
          -4.1203515,
          37.5932517
        ]
      },
      "id": "node/11833279383"
    },
    {
      "type": "Feature",
      "properties": {
        "@id": "node/11833279384",
        "ele": "622",
        "natural": "peak"
      },
      "geometry": {
        "type": "Point",
        "coordinates": [
          -4.115393,
          37.589322
        ]
      },
      "id": "node/11833279384"
    },
    {
      "type": "Feature",
      "properties": {
        "@id": "node/11833279385",
        "ele": "795",
        "natural": "peak"
      },
      "geometry": {
        "type": "Point",
        "coordinates": [
          -4.1130963,
          37.5950837
        ]
      },
      "id": "node/11833279385"
    },
    {
      "type": "Feature",
      "properties": {
        "@id": "node/11833279386",
        "ele": "789",
        "natural": "peak"
      },
      "geometry": {
        "type": "Point",
        "coordinates": [
          -4.1126845,
          37.5974269
        ]
      },
      "id": "node/11833279386"
    },
    {
      "type": "Feature",
      "properties": {
        "@id": "node/11833279392",
        "ele": "603",
        "natural": "peak"
      },
      "geometry": {
        "type": "Point",
        "coordinates": [
          -4.1019345,
          37.5874581
        ]
      },
      "id": "node/11833279392"
    },
    {
      "type": "Feature",
      "properties": {
        "@id": "node/11833279393",
        "ele": "668",
        "natural": "peak"
      },
      "geometry": {
        "type": "Point",
        "coordinates": [
          -4.0817024,
          37.5819668
        ]
      },
      "id": "node/11833279393"
    },
    {
      "type": "Feature",
      "properties": {
        "@id": "node/11833279394",
        "ele": "533",
        "natural": "peak"
      },
      "geometry": {
        "type": "Point",
        "coordinates": [
          -4.1200242,
          37.5854404
        ]
      },
      "id": "node/11833279394"
    },
    {
      "type": "Feature",
      "properties": {
        "@id": "node/11833279395",
        "ele": "553",
        "natural": "peak"
      },
      "geometry": {
        "type": "Point",
        "coordinates": [
          -4.1227414,
          37.58081
        ]
      },
      "id": "node/11833279395"
    },
    {
      "type": "Feature",
      "properties": {
        "@id": "node/11833279396",
        "ele": "555",
        "natural": "peak"
      },
      "geometry": {
        "type": "Point",
        "coordinates": [
          -4.1208671,
          37.5785537
        ]
      },
      "id": "node/11833279396"
    },
    {
      "type": "Feature",
      "properties": {
        "@id": "node/11833279397",
        "ele": "518",
        "natural": "peak"
      },
      "geometry": {
        "type": "Point",
        "coordinates": [
          -4.1277974,
          37.5849387
        ]
      },
      "id": "node/11833279397"
    },
    {
      "type": "Feature",
      "properties": {
        "@id": "node/11833279398",
        "ele": "458",
        "natural": "peak"
      },
      "geometry": {
        "type": "Point",
        "coordinates": [
          -4.1469103,
          37.5862507
        ]
      },
      "id": "node/11833279398"
    },
    {
      "type": "Feature",
      "properties": {
        "@id": "node/11833279399",
        "ele": "502",
        "natural": "peak"
      },
      "geometry": {
        "type": "Point",
        "coordinates": [
          -4.140736,
          37.5940169
        ]
      },
      "id": "node/11833279399"
    },
    {
      "type": "Feature",
      "properties": {
        "@id": "node/11833279400",
        "ele": "506",
        "natural": "peak"
      },
      "geometry": {
        "type": "Point",
        "coordinates": [
          -4.1386634,
          37.5953835
        ]
      },
      "id": "node/11833279400"
    },
    {
      "type": "Feature",
      "properties": {
        "@id": "node/11833279401",
        "ele": "421",
        "natural": "peak"
      },
      "geometry": {
        "type": "Point",
        "coordinates": [
          -4.1538823,
          37.584598
        ]
      },
      "id": "node/11833279401"
    },
    {
      "type": "Feature",
      "properties": {
        "@id": "node/11833279402",
        "ele": "422",
        "natural": "peak"
      },
      "geometry": {
        "type": "Point",
        "coordinates": [
          -4.1620344,
          37.5766926
        ]
      },
      "id": "node/11833279402"
    },
    {
      "type": "Feature",
      "properties": {
        "@id": "node/11833279403",
        "ele": "491",
        "natural": "peak"
      },
      "geometry": {
        "type": "Point",
        "coordinates": [
          -4.1691322,
          37.5767454
        ]
      },
      "id": "node/11833279403"
    },
    {
      "type": "Feature",
      "properties": {
        "@id": "node/11833279404",
        "ele": "489",
        "natural": "peak"
      },
      "geometry": {
        "type": "Point",
        "coordinates": [
          -4.1722858,
          37.5744606
        ]
      },
      "id": "node/11833279404"
    },
    {
      "type": "Feature",
      "properties": {
        "@id": "node/11833279405",
        "ele": "492",
        "natural": "peak"
      },
      "geometry": {
        "type": "Point",
        "coordinates": [
          -4.1712596,
          37.5753952
        ]
      },
      "id": "node/11833279405"
    },
    {
      "type": "Feature",
      "properties": {
        "@id": "node/11833279406",
        "ele": "467",
        "natural": "peak"
      },
      "geometry": {
        "type": "Point",
        "coordinates": [
          -4.1651257,
          37.5703833
        ]
      },
      "id": "node/11833279406"
    },
    {
      "type": "Feature",
      "properties": {
        "@id": "node/11833279407",
        "ele": "398",
        "natural": "peak"
      },
      "geometry": {
        "type": "Point",
        "coordinates": [
          -4.1599438,
          37.5719635
        ]
      },
      "id": "node/11833279407"
    },
    {
      "type": "Feature",
      "properties": {
        "@id": "node/11833279408",
        "ele": "444",
        "natural": "peak"
      },
      "geometry": {
        "type": "Point",
        "coordinates": [
          -4.1551044,
          37.571686
        ]
      },
      "id": "node/11833279408"
    },
    {
      "type": "Feature",
      "properties": {
        "@id": "node/11833279409",
        "ele": "434",
        "natural": "peak"
      },
      "geometry": {
        "type": "Point",
        "coordinates": [
          -4.1569107,
          37.5695342
        ]
      },
      "id": "node/11833279409"
    },
    {
      "type": "Feature",
      "properties": {
        "@id": "node/11833279410",
        "ele": "459",
        "natural": "peak"
      },
      "geometry": {
        "type": "Point",
        "coordinates": [
          -4.1533548,
          37.5706826
        ]
      },
      "id": "node/11833279410"
    },
    {
      "type": "Feature",
      "properties": {
        "@id": "node/11833279411",
        "ele": "483",
        "natural": "peak"
      },
      "geometry": {
        "type": "Point",
        "coordinates": [
          -4.1857437,
          37.5661758
        ]
      },
      "id": "node/11833279411"
    },
    {
      "type": "Feature",
      "properties": {
        "@id": "node/11833279412",
        "ele": "435",
        "natural": "peak"
      },
      "geometry": {
        "type": "Point",
        "coordinates": [
          -4.1804578,
          37.5646038
        ]
      },
      "id": "node/11833279412"
    },
    {
      "type": "Feature",
      "properties": {
        "@id": "node/11833279413",
        "ele": "469",
        "natural": "peak"
      },
      "geometry": {
        "type": "Point",
        "coordinates": [
          -4.1804876,
          37.5704356
        ]
      },
      "id": "node/11833279413"
    },
    {
      "type": "Feature",
      "properties": {
        "@id": "node/11833279414",
        "ele": "474",
        "natural": "peak"
      },
      "geometry": {
        "type": "Point",
        "coordinates": [
          -4.1756082,
          37.5699344
        ]
      },
      "id": "node/11833279414"
    },
    {
      "type": "Feature",
      "properties": {
        "@id": "node/11833279415",
        "ele": "691",
        "natural": "peak"
      },
      "geometry": {
        "type": "Point",
        "coordinates": [
          -4.2116066,
          37.5521803
        ]
      },
      "id": "node/11833279415"
    },
    {
      "type": "Feature",
      "properties": {
        "@id": "node/11833279416",
        "ele": "582",
        "name": "Cerro Carrascón",
        "natural": "peak"
      },
      "geometry": {
        "type": "Point",
        "coordinates": [
          -4.2135997,
          37.5573219
        ]
      },
      "id": "node/11833279416"
    },
    {
      "type": "Feature",
      "properties": {
        "@id": "node/11833279417",
        "ele": "543",
        "name": "Cerro Picoso",
        "natural": "peak"
      },
      "geometry": {
        "type": "Point",
        "coordinates": [
          -4.2566512,
          37.5671183
        ]
      },
      "id": "node/11833279417"
    },
    {
      "type": "Feature",
      "properties": {
        "@id": "node/11833279418",
        "ele": "559",
        "natural": "peak"
      },
      "geometry": {
        "type": "Point",
        "coordinates": [
          -4.2704927,
          37.5692709
        ]
      },
      "id": "node/11833279418"
    },
    {
      "type": "Feature",
      "properties": {
        "@id": "node/11833279419",
        "ele": "523",
        "natural": "peak"
      },
      "geometry": {
        "type": "Point",
        "coordinates": [
          -4.2567627,
          37.5744786
        ]
      },
      "id": "node/11833279419"
    },
    {
      "type": "Feature",
      "properties": {
        "@id": "node/11833279420",
        "ele": "514",
        "natural": "peak"
      },
      "geometry": {
        "type": "Point",
        "coordinates": [
          -4.2701283,
          37.5742086
        ]
      },
      "id": "node/11833279420"
    },
    {
      "type": "Feature",
      "properties": {
        "@id": "node/11833279421",
        "ele": "512",
        "natural": "peak"
      },
      "geometry": {
        "type": "Point",
        "coordinates": [
          -4.272445,
          37.5746455
        ]
      },
      "id": "node/11833279421"
    },
    {
      "type": "Feature",
      "properties": {
        "@id": "node/11833279422",
        "ele": "810",
        "name": "Luque",
        "natural": "peak"
      },
      "geometry": {
        "type": "Point",
        "coordinates": [
          -4.2821246,
          37.5633809
        ]
      },
      "id": "node/11833279422"
    },
    {
      "type": "Feature",
      "properties": {
        "@id": "node/11833279423",
        "ele": "745",
        "name": "Cerro el Moro Colgado",
        "natural": "peak"
      },
      "geometry": {
        "type": "Point",
        "coordinates": [
          -4.2885352,
          37.5630092
        ]
      },
      "id": "node/11833279423"
    },
    {
      "type": "Feature",
      "properties": {
        "@id": "node/11833279424",
        "ele": "636",
        "name": "Castillarejo",
        "natural": "peak"
      },
      "geometry": {
        "type": "Point",
        "coordinates": [
          -4.3059393,
          37.5611486
        ]
      },
      "id": "node/11833279424"
    },
    {
      "type": "Feature",
      "properties": {
        "@id": "node/11833279425",
        "ele": "783",
        "natural": "peak"
      },
      "geometry": {
        "type": "Point",
        "coordinates": [
          -4.3486283,
          37.5587336
        ]
      },
      "id": "node/11833279425"
    },
    {
      "type": "Feature",
      "properties": {
        "@id": "node/11833279426",
        "ele": "791",
        "natural": "peak"
      },
      "geometry": {
        "type": "Point",
        "coordinates": [
          -4.3499657,
          37.5621085
        ]
      },
      "id": "node/11833279426"
    },
    {
      "type": "Feature",
      "properties": {
        "@id": "node/11833279427",
        "ele": "778",
        "name": "Cerro de San Cristóbal",
        "natural": "peak"
      },
      "geometry": {
        "type": "Point",
        "coordinates": [
          -4.35452,
          37.5616556
        ]
      },
      "id": "node/11833279427"
    },
    {
      "type": "Feature",
      "properties": {
        "@id": "node/11833279428",
        "ele": "793",
        "name": "Oreja de Mula",
        "natural": "peak"
      },
      "geometry": {
        "type": "Point",
        "coordinates": [
          -4.3466858,
          37.5527671
        ]
      },
      "id": "node/11833279428"
    },
    {
      "type": "Feature",
      "properties": {
        "@id": "node/11833279429",
        "ele": "782",
        "natural": "peak"
      },
      "geometry": {
        "type": "Point",
        "coordinates": [
          -4.347258,
          37.5522324
        ]
      },
      "id": "node/11833279429"
    },
    {
      "type": "Feature",
      "properties": {
        "@id": "node/11833279430",
        "ele": "933",
        "natural": "peak"
      },
      "geometry": {
        "type": "Point",
        "coordinates": [
          -4.2969571,
          37.5404954
        ]
      },
      "id": "node/11833279430"
    },
    {
      "type": "Feature",
      "properties": {
        "@id": "node/11833279432",
        "ele": "751",
        "natural": "peak"
      },
      "geometry": {
        "type": "Point",
        "coordinates": [
          -4.3081976,
          37.5460165
        ]
      },
      "id": "node/11833279432"
    },
    {
      "type": "Feature",
      "properties": {
        "@id": "node/11833279433",
        "ele": "679",
        "natural": "peak"
      },
      "geometry": {
        "type": "Point",
        "coordinates": [
          -4.3238341,
          37.5422074
        ]
      },
      "id": "node/11833279433"
    },
    {
      "type": "Feature",
      "properties": {
        "@id": "node/11833279434",
        "ele": "872",
        "natural": "peak"
      },
      "geometry": {
        "type": "Point",
        "coordinates": [
          -4.3148366,
          37.5327362
        ]
      },
      "id": "node/11833279434"
    },
    {
      "type": "Feature",
      "properties": {
        "@id": "node/11833279435",
        "ele": "946",
        "natural": "peak"
      },
      "geometry": {
        "type": "Point",
        "coordinates": [
          -4.3052697,
          37.5341206
        ]
      },
      "id": "node/11833279435"
    },
    {
      "type": "Feature",
      "properties": {
        "@id": "node/11833279436",
        "ele": "1022",
        "natural": "peak"
      },
      "geometry": {
        "type": "Point",
        "coordinates": [
          -4.3257177,
          37.529439
        ]
      },
      "id": "node/11833279436"
    },
    {
      "type": "Feature",
      "properties": {
        "@id": "node/11833279437",
        "ele": "891",
        "natural": "peak"
      },
      "geometry": {
        "type": "Point",
        "coordinates": [
          -4.3100957,
          37.5321663
        ]
      },
      "id": "node/11833279437"
    },
    {
      "type": "Feature",
      "properties": {
        "@id": "node/11833279438",
        "ele": "1054",
        "name": "Cero de la Montosilla",
        "natural": "peak"
      },
      "geometry": {
        "type": "Point",
        "coordinates": [
          -4.2962956,
          37.5260385
        ]
      },
      "id": "node/11833279438"
    },
    {
      "type": "Feature",
      "properties": {
        "@id": "node/11833279439",
        "ele": "1013",
        "natural": "peak"
      },
      "geometry": {
        "type": "Point",
        "coordinates": [
          -4.296706,
          37.531715
        ]
      },
      "id": "node/11833279439"
    },
    {
      "type": "Feature",
      "properties": {
        "@id": "node/11833279440",
        "ele": "1052",
        "natural": "peak"
      },
      "geometry": {
        "type": "Point",
        "coordinates": [
          -4.2905843,
          37.5230451
        ]
      },
      "id": "node/11833279440"
    },
    {
      "type": "Feature",
      "properties": {
        "@id": "node/11833279441",
        "ele": "1057",
        "natural": "peak"
      },
      "geometry": {
        "type": "Point",
        "coordinates": [
          -4.2869398,
          37.5223123
        ]
      },
      "id": "node/11833279441"
    },
    {
      "type": "Feature",
      "properties": {
        "@id": "node/11833279442",
        "ele": "1137",
        "natural": "peak"
      },
      "geometry": {
        "type": "Point",
        "coordinates": [
          -4.285941,
          37.5184446
        ]
      },
      "id": "node/11833279442"
    },
    {
      "type": "Feature",
      "properties": {
        "@id": "node/11833279443",
        "ele": "1104",
        "natural": "peak"
      },
      "geometry": {
        "type": "Point",
        "coordinates": [
          -4.2833144,
          37.5175702
        ]
      },
      "id": "node/11833279443"
    },
    {
      "type": "Feature",
      "properties": {
        "@id": "node/11833279444",
        "ele": "1203",
        "natural": "peak"
      },
      "geometry": {
        "type": "Point",
        "coordinates": [
          -4.2783605,
          37.5178226
        ]
      },
      "id": "node/11833279444"
    },
    {
      "type": "Feature",
      "properties": {
        "@id": "node/11833279445",
        "ele": "1241",
        "natural": "peak"
      },
      "geometry": {
        "type": "Point",
        "coordinates": [
          -4.2741919,
          37.514514
        ]
      },
      "id": "node/11833279445"
    },
    {
      "type": "Feature",
      "properties": {
        "@id": "node/11833279446",
        "ele": "1248",
        "natural": "peak"
      },
      "geometry": {
        "type": "Point",
        "coordinates": [
          -4.2734082,
          37.5135835
        ]
      },
      "id": "node/11833279446"
    },
    {
      "type": "Feature",
      "properties": {
        "@id": "node/11833279447",
        "ele": "1203",
        "natural": "peak"
      },
      "geometry": {
        "type": "Point",
        "coordinates": [
          -4.2915413,
          37.5130008
        ]
      },
      "id": "node/11833279447"
    },
    {
      "type": "Feature",
      "properties": {
        "@id": "node/11833279448",
        "ele": "1222",
        "name": "Cerro del Cavio",
        "natural": "peak"
      },
      "geometry": {
        "type": "Point",
        "coordinates": [
          -4.3019314,
          37.5104765
        ]
      },
      "id": "node/11833279448"
    },
    {
      "type": "Feature",
      "properties": {
        "@id": "node/11833279450",
        "ele": "1187",
        "natural": "peak"
      },
      "geometry": {
        "type": "Point",
        "coordinates": [
          -4.312747,
          37.5088332
        ]
      },
      "id": "node/11833279450"
    },
    {
      "type": "Feature",
      "properties": {
        "@id": "node/11833279455",
        "ele": "1218",
        "natural": "peak"
      },
      "geometry": {
        "type": "Point",
        "coordinates": [
          -4.318422,
          37.508528
        ]
      },
      "id": "node/11833279455"
    },
    {
      "type": "Feature",
      "properties": {
        "@id": "node/11833279457",
        "ele": "1261",
        "natural": "peak"
      },
      "geometry": {
        "type": "Point",
        "coordinates": [
          -4.3341614,
          37.5022772
        ]
      },
      "id": "node/11833279457"
    },
    {
      "type": "Feature",
      "properties": {
        "@id": "node/11833279458",
        "ele": "1201",
        "natural": "peak"
      },
      "geometry": {
        "type": "Point",
        "coordinates": [
          -4.3355269,
          37.4863617
        ]
      },
      "id": "node/11833279458"
    },
    {
      "type": "Feature",
      "properties": {
        "@id": "node/11833279459",
        "ele": "1191",
        "natural": "peak"
      },
      "geometry": {
        "type": "Point",
        "coordinates": [
          -4.3373469,
          37.4879979
        ]
      },
      "id": "node/11833279459"
    },
    {
      "type": "Feature",
      "properties": {
        "@id": "node/11833279461",
        "ele": "1124",
        "natural": "peak"
      },
      "geometry": {
        "type": "Point",
        "coordinates": [
          -4.3576162,
          37.49281
        ]
      },
      "id": "node/11833279461"
    },
    {
      "type": "Feature",
      "properties": {
        "@id": "node/11833279462",
        "ele": "965",
        "natural": "peak"
      },
      "geometry": {
        "type": "Point",
        "coordinates": [
          -4.3367098,
          37.5225086
        ]
      },
      "id": "node/11833279462"
    },
    {
      "type": "Feature",
      "properties": {
        "@id": "node/11833279463",
        "ele": "1129",
        "name": "Abrevia",
        "natural": "peak"
      },
      "geometry": {
        "type": "Point",
        "coordinates": [
          -4.3682203,
          37.5290956
        ]
      },
      "id": "node/11833279463"
    },
    {
      "type": "Feature",
      "properties": {
        "@id": "node/11833279464",
        "ele": "1125",
        "natural": "peak"
      },
      "geometry": {
        "type": "Point",
        "coordinates": [
          -4.364919,
          37.5293316
        ]
      },
      "id": "node/11833279464"
    },
    {
      "type": "Feature",
      "properties": {
        "@id": "node/11833279465",
        "ele": "645",
        "natural": "peak"
      },
      "geometry": {
        "type": "Point",
        "coordinates": [
          -4.3723853,
          37.6063507
        ]
      },
      "id": "node/11833279465"
    },
    {
      "type": "Feature",
      "properties": {
        "@id": "node/11833279466",
        "ele": "631",
        "natural": "peak"
      },
      "geometry": {
        "type": "Point",
        "coordinates": [
          -4.3693726,
          37.6051459
        ]
      },
      "id": "node/11833279466"
    },
    {
      "type": "Feature",
      "properties": {
        "@id": "node/11833279467",
        "ele": "649",
        "name": "Castañia",
        "natural": "peak"
      },
      "geometry": {
        "type": "Point",
        "coordinates": [
          -4.3746303,
          37.6062792
        ]
      },
      "id": "node/11833279467"
    },
    {
      "type": "Feature",
      "properties": {
        "@id": "node/11833279468",
        "ele": "601",
        "natural": "peak"
      },
      "geometry": {
        "type": "Point",
        "coordinates": [
          -4.3373204,
          37.6023562
        ]
      },
      "id": "node/11833279468"
    },
    {
      "type": "Feature",
      "properties": {
        "@id": "node/11833279469",
        "ele": "447",
        "natural": "peak"
      },
      "geometry": {
        "type": "Point",
        "coordinates": [
          -4.3227849,
          37.6265464
        ]
      },
      "id": "node/11833279469"
    },
    {
      "type": "Feature",
      "properties": {
        "@id": "node/11833279470",
        "ele": "502",
        "natural": "peak"
      },
      "geometry": {
        "type": "Point",
        "coordinates": [
          -4.3162542,
          37.6349096
        ]
      },
      "id": "node/11833279470"
    },
    {
      "type": "Feature",
      "properties": {
        "@id": "node/11833279471",
        "ele": "501",
        "natural": "peak"
      },
      "geometry": {
        "type": "Point",
        "coordinates": [
          -4.3149266,
          37.6360252
        ]
      },
      "id": "node/11833279471"
    },
    {
      "type": "Feature",
      "properties": {
        "@id": "node/11833279472",
        "ele": "501",
        "natural": "peak"
      },
      "geometry": {
        "type": "Point",
        "coordinates": [
          -4.312152,
          37.6352921
        ]
      },
      "id": "node/11833279472"
    },
    {
      "type": "Feature",
      "properties": {
        "@id": "node/11833279473",
        "ele": "502",
        "natural": "peak"
      },
      "geometry": {
        "type": "Point",
        "coordinates": [
          -4.3093593,
          37.6352558
        ]
      },
      "id": "node/11833279473"
    },
    {
      "type": "Feature",
      "properties": {
        "@id": "node/11833279474",
        "ele": "498",
        "natural": "peak"
      },
      "geometry": {
        "type": "Point",
        "coordinates": [
          -4.3232669,
          37.6389977
        ]
      },
      "id": "node/11833279474"
    },
    {
      "type": "Feature",
      "properties": {
        "@id": "node/11833279475",
        "ele": "461",
        "natural": "peak"
      },
      "geometry": {
        "type": "Point",
        "coordinates": [
          -4.3275965,
          37.6373577
        ]
      },
      "id": "node/11833279475"
    },
    {
      "type": "Feature",
      "properties": {
        "@id": "node/11833279476",
        "ele": "523",
        "natural": "peak"
      },
      "geometry": {
        "type": "Point",
        "coordinates": [
          -4.3121905,
          37.6422786
        ]
      },
      "id": "node/11833279476"
    },
    {
      "type": "Feature",
      "properties": {
        "@id": "node/11833279477",
        "ele": "688",
        "name": "Torremorana",
        "natural": "peak"
      },
      "geometry": {
        "type": "Point",
        "coordinates": [
          -4.2761118,
          37.6530521
        ]
      },
      "id": "node/11833279477"
    },
    {
      "type": "Feature",
      "properties": {
        "@id": "node/11833279478",
        "ele": "468",
        "natural": "peak"
      },
      "geometry": {
        "type": "Point",
        "coordinates": [
          -4.241518,
          37.6260773
        ]
      },
      "id": "node/11833279478"
    },
    {
      "type": "Feature",
      "properties": {
        "@id": "node/11833279479",
        "ele": "457",
        "natural": "peak"
      },
      "geometry": {
        "type": "Point",
        "coordinates": [
          -4.2278692,
          37.6222762
        ]
      },
      "id": "node/11833279479"
    },
    {
      "type": "Feature",
      "properties": {
        "@id": "node/11833279480",
        "ele": "387",
        "natural": "peak"
      },
      "geometry": {
        "type": "Point",
        "coordinates": [
          -4.2241423,
          37.6190891
        ]
      },
      "id": "node/11833279480"
    },
    {
      "type": "Feature",
      "properties": {
        "@id": "node/11833279481",
        "ele": "445",
        "natural": "peak"
      },
      "geometry": {
        "type": "Point",
        "coordinates": [
          -4.2160424,
          37.6069653
        ]
      },
      "id": "node/11833279481"
    },
    {
      "type": "Feature",
      "properties": {
        "@id": "node/11833279482",
        "ele": "548",
        "natural": "peak"
      },
      "geometry": {
        "type": "Point",
        "coordinates": [
          -4.1827089,
          37.6079761
        ]
      },
      "id": "node/11833279482"
    },
    {
      "type": "Feature",
      "properties": {
        "@id": "node/11833279483",
        "ele": "429",
        "natural": "peak"
      },
      "geometry": {
        "type": "Point",
        "coordinates": [
          -4.1865978,
          37.6133581
        ]
      },
      "id": "node/11833279483"
    },
    {
      "type": "Feature",
      "properties": {
        "@id": "node/11872085904",
        "ele": "1112",
        "natural": "peak"
      },
      "geometry": {
        "type": "Point",
        "coordinates": [
          -4.0026423,
          37.3024938
        ]
      },
      "id": "node/11872085904"
    },
    {
      "type": "Feature",
      "properties": {
        "@id": "node/11872085905",
        "ele": "993",
        "natural": "peak"
      },
      "geometry": {
        "type": "Point",
        "coordinates": [
          -4.013368,
          37.3007244
        ]
      },
      "id": "node/11872085905"
    },
    {
      "type": "Feature",
      "properties": {
        "@id": "node/11872085907",
        "ele": "1062",
        "natural": "peak"
      },
      "geometry": {
        "type": "Point",
        "coordinates": [
          -4.0316748,
          37.3014242
        ]
      },
      "id": "node/11872085907"
    },
    {
      "type": "Feature",
      "properties": {
        "@id": "node/11872085911",
        "ele": "895",
        "natural": "peak"
      },
      "geometry": {
        "type": "Point",
        "coordinates": [
          -4.053445,
          37.3038178
        ]
      },
      "id": "node/11872085911"
    },
    {
      "type": "Feature",
      "properties": {
        "@id": "node/11872085912",
        "ele": "952",
        "natural": "peak"
      },
      "geometry": {
        "type": "Point",
        "coordinates": [
          -4.0382593,
          37.3066864
        ]
      },
      "id": "node/11872085912"
    },
    {
      "type": "Feature",
      "properties": {
        "@id": "node/11872085913",
        "ele": "865",
        "natural": "peak"
      },
      "geometry": {
        "type": "Point",
        "coordinates": [
          -4.0467231,
          37.3092314
        ]
      },
      "id": "node/11872085913"
    },
    {
      "type": "Feature",
      "properties": {
        "@id": "node/11872085914",
        "ele": "949",
        "natural": "peak"
      },
      "geometry": {
        "type": "Point",
        "coordinates": [
          -4.0366371,
          37.3092109
        ]
      },
      "id": "node/11872085914"
    },
    {
      "type": "Feature",
      "properties": {
        "@id": "node/11872085915",
        "ele": "925",
        "natural": "peak"
      },
      "geometry": {
        "type": "Point",
        "coordinates": [
          -4.034978,
          37.3105364
        ]
      },
      "id": "node/11872085915"
    },
    {
      "type": "Feature",
      "properties": {
        "@id": "node/11872085916",
        "ele": "971",
        "natural": "peak"
      },
      "geometry": {
        "type": "Point",
        "coordinates": [
          -4.0210853,
          37.3129251
        ]
      },
      "id": "node/11872085916"
    },
    {
      "type": "Feature",
      "properties": {
        "@id": "node/11872085917",
        "ele": "946",
        "natural": "peak"
      },
      "geometry": {
        "type": "Point",
        "coordinates": [
          -4.0167247,
          37.3133716
        ]
      },
      "id": "node/11872085917"
    },
    {
      "type": "Feature",
      "properties": {
        "@id": "node/11872085918",
        "ele": "902",
        "natural": "peak"
      },
      "geometry": {
        "type": "Point",
        "coordinates": [
          -4.0220329,
          37.316918
        ]
      },
      "id": "node/11872085918"
    },
    {
      "type": "Feature",
      "properties": {
        "@id": "node/11872085919",
        "ele": "956",
        "natural": "peak"
      },
      "geometry": {
        "type": "Point",
        "coordinates": [
          -4.0163896,
          37.3115556
        ]
      },
      "id": "node/11872085919"
    },
    {
      "type": "Feature",
      "properties": {
        "@id": "node/11872085920",
        "ele": "969",
        "natural": "peak"
      },
      "geometry": {
        "type": "Point",
        "coordinates": [
          -4.0118645,
          37.3132878
        ]
      },
      "id": "node/11872085920"
    },
    {
      "type": "Feature",
      "properties": {
        "@id": "node/11872085921",
        "ele": "913",
        "natural": "peak"
      },
      "geometry": {
        "type": "Point",
        "coordinates": [
          -4.0129963,
          37.3214969
        ]
      },
      "id": "node/11872085921"
    },
    {
      "type": "Feature",
      "properties": {
        "@id": "node/12471473670",
        "ele": "732",
        "natural": "peak"
      },
      "geometry": {
        "type": "Point",
        "coordinates": [
          -4.1995552,
          37.3053358
        ]
      },
      "id": "node/12471473670"
    },
    {
      "type": "Feature",
      "properties": {
        "@id": "node/12471473671",
        "ele": "801",
        "natural": "peak"
      },
      "geometry": {
        "type": "Point",
        "coordinates": [
          -4.2083479,
          37.3006185
        ]
      },
      "id": "node/12471473671"
    },
    {
      "type": "Feature",
      "properties": {
        "@id": "node/12471473696",
        "ele": "596",
        "natural": "peak"
      },
      "geometry": {
        "type": "Point",
        "coordinates": [
          -4.1891507,
          37.3118168
        ]
      },
      "id": "node/12471473696"
    },
    {
      "type": "Feature",
      "properties": {
        "@id": "node/12471473697",
        "ele": "664",
        "natural": "peak"
      },
      "geometry": {
        "type": "Point",
        "coordinates": [
          -4.1940627,
          37.3150458
        ]
      },
      "id": "node/12471473697"
    },
    {
      "type": "Feature",
      "properties": {
        "@id": "node/12471473698",
        "ele": "656",
        "natural": "peak"
      },
      "geometry": {
        "type": "Point",
        "coordinates": [
          -4.1626303,
          37.3259386
        ]
      },
      "id": "node/12471473698"
    },
    {
      "type": "Feature",
      "properties": {
        "@id": "node/12471473699",
        "ele": "666",
        "natural": "peak"
      },
      "geometry": {
        "type": "Point",
        "coordinates": [
          -4.1644053,
          37.3272817
        ]
      },
      "id": "node/12471473699"
    },
    {
      "type": "Feature",
      "properties": {
        "@id": "node/12471473700",
        "ele": "652",
        "natural": "peak"
      },
      "geometry": {
        "type": "Point",
        "coordinates": [
          -4.1660847,
          37.3224088
        ]
      },
      "id": "node/12471473700"
    },
    {
      "type": "Feature",
      "properties": {
        "@id": "node/12471521901",
        "ele": "718",
        "natural": "peak"
      },
      "geometry": {
        "type": "Point",
        "coordinates": [
          -4.1726535,
          37.3230598
        ]
      },
      "id": "node/12471521901"
    },
    {
      "type": "Feature",
      "properties": {
        "@id": "node/12471521902",
        "ele": "647",
        "natural": "peak"
      },
      "geometry": {
        "type": "Point",
        "coordinates": [
          -4.1568124,
          37.3292782
        ]
      },
      "id": "node/12471521902"
    },
    {
      "type": "Feature",
      "properties": {
        "@id": "node/12471521903",
        "ele": "736",
        "natural": "peak"
      },
      "geometry": {
        "type": "Point",
        "coordinates": [
          -4.1520317,
          37.3316821
        ]
      },
      "id": "node/12471521903"
    },
    {
      "type": "Feature",
      "properties": {
        "@id": "node/12471521904",
        "ele": "809",
        "natural": "peak"
      },
      "geometry": {
        "type": "Point",
        "coordinates": [
          -4.1477848,
          37.3382061
        ]
      },
      "id": "node/12471521904"
    },
    {
      "type": "Feature",
      "properties": {
        "@id": "node/12471521905",
        "ele": "824",
        "natural": "peak"
      },
      "geometry": {
        "type": "Point",
        "coordinates": [
          -4.1458311,
          37.3394405
        ]
      },
      "id": "node/12471521905"
    },
    {
      "type": "Feature",
      "properties": {
        "@id": "node/12471521906",
        "ele": "764",
        "natural": "peak"
      },
      "geometry": {
        "type": "Point",
        "coordinates": [
          -4.1405387,
          37.3341932
        ]
      },
      "id": "node/12471521906"
    },
    {
      "type": "Feature",
      "properties": {
        "@id": "node/12471521907",
        "ele": "819",
        "natural": "peak"
      },
      "geometry": {
        "type": "Point",
        "coordinates": [
          -4.1427199,
          37.341269
        ]
      },
      "id": "node/12471521907"
    },
    {
      "type": "Feature",
      "properties": {
        "@id": "node/12600338337",
        "ele": "877",
        "natural": "peak"
      },
      "geometry": {
        "type": "Point",
        "coordinates": [
          -4.1567121,
          37.3029602
        ]
      },
      "id": "node/12600338337"
    },
    {
      "type": "Feature",
      "properties": {
        "@id": "node/12600338338",
        "ele": "951",
        "name": "Castillejo",
        "natural": "peak"
      },
      "geometry": {
        "type": "Point",
        "coordinates": [
          -4.1577793,
          37.3094732
        ]
      },
      "id": "node/12600338338"
    },
    {
      "type": "Feature",
      "properties": {
        "@id": "node/12600338339",
        "ele": "933",
        "name": "Cerro de la Cruz",
        "natural": "peak"
      },
      "geometry": {
        "type": "Point",
        "coordinates": [
          -4.153245,
          37.3159747
        ]
      },
      "id": "node/12600338339"
    }
  ]
}