{
  "type": "FeatureCollection",
  "generator": "overpass-turbo",
  "copyright": "The data included in this document is from www.openstreetmap.org. The data is made available under ODbL.",
  "timestamp": "2025-04-22T16:33:00Z",
  "features": [
    {
      "type": "Feature",
      "properties": {
        "@id": "node/26862531",
        "ele": "1373.3",
        "name": "Puig de Bassegoda",
        "name:ca": "Puig de Bassegoda",
        "natural": "peak",
        "prominence": "570",
        "source:prominence": "ICGC map: Key col: Col at SE of Puig del Magre: 803m",
        "wikidata": "Q4894784",
        "wikipedia": "ca:Puig de Bassegoda"
      },
      "geometry": {
        "type": "Point",
        "coordinates": [
          2.6307749,
          42.3127984
        ]
      },
      "id": "node/26862531"
    },
    {
      "type": "Feature",
      "properties": {
        "@id": "node/26863661",
        "ele": "1697.2",
        "name": "Matagalls",
        "name:ca": "Matagalls",
        "natural": "peak",
        "prominence": "594",
        "ref": "ftp://geofons.icc.cat/fitxes/100CIMS/294106006.pdf",
        "source": "Institut Cartogràfic i Geològic de Catalunya",
        "summit:cross": "yes",
        "wikidata": "Q6785970",
        "wikipedia": "ca:Matagalls"
      },
      "geometry": {
        "type": "Point",
        "coordinates": [
          2.3827185,
          41.8087979
        ]
      },
      "id": "node/26863661"
    },
    {
      "type": "Feature",
      "properties": {
        "@id": "node/26864645",
        "ele": "1547.3",
        "name": "Santa Magdalena de Cambrils",
        "natural": "peak",
        "prominence": "656",
        "source": "Institut Cartogràfic i Geològic de Catalunya",
        "source:prominence": "1547-891 (Collada de Sant Pau)"
      },
      "geometry": {
        "type": "Point",
        "coordinates": [
          2.3402461,
          42.1689548
        ]
      },
      "id": "node/26864645"
    },
    {
      "type": "Feature",
      "properties": {
        "@id": "node/46470893",
        "alt_name": "Puigmal Petit del Segre",
        "ele": "2810",
        "name": "Pic Petit de Segre",
        "name:ca": "Pic Petit de Segre",
        "natural": "peak",
        "wikidata": "Q7190454",
        "wikipedia": "ca:Pic Petit de Segre"
      },
      "geometry": {
        "type": "Point",
        "coordinates": [
          2.1148482,
          42.3945884
        ]
      },
      "id": "node/46470893"
    },
    {
      "type": "Feature",
      "properties": {
        "@id": "node/46471006",
        "ele": "2826",
        "name": "Pic Inferior de la Vaca",
        "name:ca": "Pic Inferior de la Vaca",
        "natural": "peak"
      },
      "geometry": {
        "type": "Point",
        "coordinates": [
          2.2015791,
          42.4165786
        ]
      },
      "id": "node/46471006"
    },
    {
      "type": "Feature",
      "properties": {
        "@id": "node/46471031",
        "ele": "2820",
        "name": "Pic Superior de la Vaca",
        "name:ca": "Pic Superior de la Vaca",
        "natural": "peak"
      },
      "geometry": {
        "type": "Point",
        "coordinates": [
          2.2064819,
          42.4174253
        ]
      },
      "id": "node/46471031"
    },
    {
      "type": "Feature",
      "properties": {
        "@id": "node/46471064",
        "ele": "2798.4",
        "name": "Noucreus",
        "name:ca": "Noucreus",
        "natural": "peak"
      },
      "geometry": {
        "type": "Point",
        "coordinates": [
          2.1804147,
          42.4181882
        ]
      },
      "id": "node/46471064"
    },
    {
      "type": "Feature",
      "properties": {
        "@id": "node/46471271",
        "ele": "2496.7",
        "name": "Gorrablanc",
        "name:ca": "Gorrablanc",
        "natural": "peak"
      },
      "geometry": {
        "type": "Point",
        "coordinates": [
          2.0726092,
          42.3654658
        ]
      },
      "id": "node/46471271"
    },
    {
      "type": "Feature",
      "properties": {
        "@id": "node/46471604",
        "ele": "2572",
        "name": "Puig Farinós",
        "name:ca": "Puig Farinós",
        "natural": "peak",
        "wikidata": "Q11943373",
        "wikipedia": "ca:Puig Farinós"
      },
      "geometry": {
        "type": "Point",
        "coordinates": [
          1.8042982,
          42.4903593
        ]
      },
      "id": "node/46471604"
    },
    {
      "type": "Feature",
      "properties": {
        "@id": "node/46471623",
        "ele": "2414.8",
        "name": "Roca de Colom",
        "name:ca": "Roca de Colom",
        "natural": "peak",
        "source": "Instituto Geográfico Nacional",
        "source:date": "201011",
        "wikidata": "Q11945977",
        "wikipedia": "ca:Roca de Colom"
      },
      "geometry": {
        "type": "Point",
        "coordinates": [
          1.8167212,
          42.4831448
        ]
      },
      "id": "node/46471623"
    },
    {
      "type": "Feature",
      "properties": {
        "@id": "node/46471675",
        "ele": "2692",
        "name": "Puig Pedró de la Tossa",
        "name:ca": "Puig Pedró de la Tossa",
        "natural": "peak",
        "source": "Instituto Geográfico Nacional",
        "source:date": "201011",
        "summit:cross": "no",
        "summit:register": "no"
      },
      "geometry": {
        "type": "Point",
        "coordinates": [
          1.7919423,
          42.4854956
        ]
      },
      "id": "node/46471675"
    },
    {
      "type": "Feature",
      "properties": {
        "@id": "node/273154401",
        "ele": "527.5",
        "name": "Puig de l'Àliga",
        "name:ca": "Puig de l'Àliga",
        "natural": "peak",
        "wikidata": "Q17481208",
        "wikipedia": "ca:Llista de topònims de Portbou"
      },
      "geometry": {
        "type": "Point",
        "coordinates": [
          3.1233781,
          42.4355419
        ]
      },
      "id": "node/273154401"
    },
    {
      "type": "Feature",
      "properties": {
        "@id": "node/273188819",
        "ele": "699",
        "name": "Puig de Taravaus",
        "name:ca": "Puig de Taravaus",
        "natural": "peak",
        "source": "Instituto Geográfico Nacional",
        "source:date": "201011",
        "wikidata": "Q11943648",
        "wikipedia": "ca:Puig de Taravaus"
      },
      "geometry": {
        "type": "Point",
        "coordinates": [
          3.0987331,
          42.4251065
        ]
      },
      "id": "node/273188819"
    },
    {
      "type": "Feature",
      "properties": {
        "@id": "node/273188838",
        "ele": "746",
        "name": "La Torre Petita",
        "name:ca": "la Torre Petita",
        "natural": "peak"
      },
      "geometry": {
        "type": "Point",
        "coordinates": [
          3.085199,
          42.4258439
        ]
      },
      "id": "node/273188838"
    },
    {
      "type": "Feature",
      "properties": {
        "@id": "node/273188840",
        "ele": "754.2",
        "name": "Puig d'en Jordà",
        "name:ca": "Puig d'en Jordà",
        "natural": "peak",
        "prominence": "402",
        "source:prominence": "ICGC map. Key col: Coll de Banyuls 352m",
        "wikidata": "Q11943529",
        "wikipedia": "ca:Puig d'en Jordà"
      },
      "geometry": {
        "type": "Point",
        "coordinates": [
          3.082045,
          42.4277552
        ]
      },
      "id": "node/273188840"
    },
    {
      "type": "Feature",
      "properties": {
        "@id": "node/273188854",
        "ele": "684.5",
        "name": "Puig de les Guilles",
        "name:ca": "Puig de les Guilles",
        "natural": "peak"
      },
      "geometry": {
        "type": "Point",
        "coordinates": [
          3.0778119,
          42.4312167
        ]
      },
      "id": "node/273188854"
    },
    {
      "type": "Feature",
      "properties": {
        "@id": "node/273188868",
        "ele": "663.3",
        "name": "Puig del Torn",
        "name:ca": "Puig del Torn",
        "natural": "peak",
        "wikidata": "Q11943785",
        "wikipedia": "ca:Puig del Torn (Banyuls de la Marenda)"
      },
      "geometry": {
        "type": "Point",
        "coordinates": [
          3.076523,
          42.435379
        ]
      },
      "id": "node/273188868"
    },
    {
      "type": "Feature",
      "properties": {
        "@id": "node/353753837",
        "ele": "2691",
        "name": "Pic de Bacivers",
        "name:ca": "Pic de Bacivers",
        "natural": "peak"
      },
      "geometry": {
        "type": "Point",
        "coordinates": [
          2.2569345,
          42.4386996
        ]
      },
      "id": "node/353753837"
    },
    {
      "type": "Feature",
      "properties": {
        "@id": "node/370877363",
        "ele": "925.5",
        "name": "Puig Llobregat",
        "name:ca": "Puig Llobregat",
        "natural": "peak",
        "source": "Institut Cartogràfic de Catalunya",
        "wikidata": "Q17482381",
        "wikipedia": "ca:Puig Llobregat"
      },
      "geometry": {
        "type": "Point",
        "coordinates": [
          2.9184408,
          42.4561786
        ]
      },
      "id": "node/370877363"
    },
    {
      "type": "Feature",
      "properties": {
        "@id": "node/436568792",
        "ele": "493.1",
        "name": "Sant Grau",
        "name:ca": "Sant Grau",
        "natural": "peak",
        "wikidata": "Q17318030",
        "wikipedia": "ca:Sant Grau (Sant Gregori)"
      },
      "geometry": {
        "type": "Point",
        "coordinates": [
          2.7148175,
          41.99258
        ]
      },
      "id": "node/436568792"
    },
    {
      "type": "Feature",
      "properties": {
        "@id": "node/488467077",
        "ele": "2789.0",
        "name": "Pic d’Eyne",
        "name:ca": "Pic d'Eina",
        "natural": "peak",
        "summit:cross": "no",
        "summit:register": "no",
        "wikidata": "Q1742230",
        "wikipedia": "ca:Pic d'Eina"
      },
      "geometry": {
        "type": "Point",
        "coordinates": [
          2.1569382,
          42.4234778
        ]
      },
      "id": "node/488467077"
    },
    {
      "type": "Feature",
      "properties": {
        "@id": "node/488467098",
        "ele": "2861",
        "name": "Pic de les Nou Fonts",
        "name:ca": "Pic de Nou Fonts",
        "natural": "peak",
        "prominence": "210",
        "summit:cross": "no",
        "summit:register": "no",
        "wikidata": "Q1269228",
        "wikimedia_commons": "File:Pic de les Nou Fonts 2013.jpg",
        "wikipedia": "ca:Pic de Nou Fonts"
      },
      "geometry": {
        "type": "Point",
        "coordinates": [
          2.1676294,
          42.4248996
        ]
      },
      "id": "node/488467098"
    },
    {
      "type": "Feature",
      "properties": {
        "@id": "node/488467153",
        "ele": "2800.6",
        "name": "Pic de Noucreus",
        "name:ca": "Pic de Noucreus",
        "natural": "peak",
        "summit:cross": "no",
        "wikidata": "Q7190463",
        "wikipedia": "ca:Pic de Nou Creus"
      },
      "geometry": {
        "type": "Point",
        "coordinates": [
          2.1841979,
          42.4194914
        ]
      },
      "id": "node/488467153"
    },
    {
      "type": "Feature",
      "properties": {
        "@id": "node/505825883",
        "alt_name": "Puig Moll",
        "historic": "boundary_stone",
        "name": "Borne frontière 579bis",
        "natural": "peak",
        "ref": "579bis",
        "source": "cadastre-dgi-fr source : Direction Générale des Impôts - Cadastre. Mise à jour : 2009"
      },
      "geometry": {
        "type": "Point",
        "coordinates": [
          2.8704552,
          42.467438
        ]
      },
      "id": "node/505825883"
    },
    {
      "type": "Feature",
      "properties": {
        "@id": "node/526831808",
        "ele": "2506",
        "name": "Roca Colom",
        "name:ca": "Roca Colom",
        "name:fr": "Roc Colom",
        "natural": "peak",
        "wikidata": "Q3437330",
        "wikipedia": "fr:Roc Colom"
      },
      "geometry": {
        "type": "Point",
        "coordinates": [
          2.3187875,
          42.4250759
        ]
      },
      "id": "node/526831808"
    },
    {
      "type": "Feature",
      "properties": {
        "@id": "node/530811818",
        "ele": "127",
        "name": "Turó d'en Montells",
        "name:ca": "Turó d'en Montells",
        "natural": "peak",
        "wikidata": "Q11953455",
        "wikipedia": "ca:Turó d'en Montells"
      },
      "geometry": {
        "type": "Point",
        "coordinates": [
          2.7771138,
          41.6905809
        ]
      },
      "id": "node/530811818"
    },
    {
      "type": "Feature",
      "properties": {
        "@id": "node/530811819",
        "alt_name": "la Roca Grossa",
        "alt_name:ca": "la Roca Grossa",
        "ele": "328.2",
        "name": "Montbarbat",
        "name:ca": "Montbarbat",
        "natural": "peak"
      },
      "geometry": {
        "type": "Point",
        "coordinates": [
          2.7767008,
          41.7355901
        ]
      },
      "id": "node/530811819"
    },
    {
      "type": "Feature",
      "properties": {
        "@id": "node/575712821",
        "ele": "2198.9",
        "name": "Cap de les Costes de l'Huguet",
        "name:ca": "Cap de les Costes de l'Huguet",
        "natural": "peak",
        "wikidata": "Q17481538",
        "wikipedia": "ca:Cap de les Costes de l'Huguet"
      },
      "geometry": {
        "type": "Point",
        "coordinates": [
          1.9486107,
          42.315325
        ]
      },
      "id": "node/575712821"
    },
    {
      "type": "Feature",
      "properties": {
        "@id": "node/575713018",
        "ele": "2031.1",
        "name": "Pleta Roja",
        "name:ca": "Pleta Roja",
        "natural": "peak",
        "source": "Institut Cartogràfic de Catalunya",
        "wikidata": "Q17483052",
        "wikipedia": "ca:La Pleta Roja"
      },
      "geometry": {
        "type": "Point",
        "coordinates": [
          2.0138186,
          42.307395
        ]
      },
      "id": "node/575713018"
    },
    {
      "type": "Feature",
      "properties": {
        "@id": "node/575713025",
        "ele": "2066.5",
        "name": "la Creueta",
        "name:ca": "la Creueta",
        "natural": "peak",
        "prominence": "195",
        "source": "Institut Cartogràfic de Catalunya",
        "source:prominence": "ICGC map. Key col: Coll de la Bassa 1872m",
        "wikidata": "Q17481836",
        "wikipedia": "ca:La Creueta (Castellar de n'Hug)"
      },
      "geometry": {
        "type": "Point",
        "coordinates": [
          2.0023053,
          42.3055519
        ]
      },
      "id": "node/575713025"
    },
    {
      "type": "Feature",
      "properties": {
        "@id": "node/575838817",
        "ele": "1136.0",
        "name": "Puig de Can Mic",
        "name:ca": "Puig de Can Mic",
        "natural": "peak",
        "wikidata": "Q17481497",
        "wikipedia": "ca:Puig de Can Mic"
      },
      "geometry": {
        "type": "Point",
        "coordinates": [
          2.3513211,
          42.2445577
        ]
      },
      "id": "node/575838817"
    },
    {
      "type": "Feature",
      "properties": {
        "@id": "node/575838822",
        "ele": "1131.6",
        "name": "Puig de les Tres Fonts",
        "name:ca": "Puig de les Tres Fonts",
        "natural": "peak",
        "wikidata": "Q11941548",
        "wikipedia": "ca:Puig de les Tres Fonts"
      },
      "geometry": {
        "type": "Point",
        "coordinates": [
          2.3443018,
          42.2412622
        ]
      },
      "id": "node/575838822"
    },
    {
      "type": "Feature",
      "properties": {
        "@id": "node/575840021",
        "ele": "570.8",
        "name": "Puig del Sucre",
        "name:ca": "Puig del Sucre",
        "natural": "peak",
        "wikidata": "Q11943781",
        "wikipedia": "ca:Puig del Sucre"
      },
      "geometry": {
        "type": "Point",
        "coordinates": [
          2.6350684,
          42.1929608
        ]
      },
      "id": "node/575840021"
    },
    {
      "type": "Feature",
      "properties": {
        "@id": "node/575840024",
        "ele": "516.1",
        "name": "Puig de Pallenc",
        "name:ca": "Puig de Pallenc",
        "natural": "peak",
        "wikidata": "Q17482907",
        "wikipedia": "ca:Puig de Pallenc"
      },
      "geometry": {
        "type": "Point",
        "coordinates": [
          2.6295336,
          42.197771
        ]
      },
      "id": "node/575840024"
    },
    {
      "type": "Feature",
      "properties": {
        "@id": "node/575870986",
        "ele": "898.0",
        "name": "Roc de les Cols",
        "name:ca": "Roc de les Cols",
        "natural": "peak",
        "source": "Institut Cartogràfic de Catalunya",
        "wikidata": "Q11945862",
        "wikipedia": "ca:Roc de les Cols"
      },
      "geometry": {
        "type": "Point",
        "coordinates": [
          2.9191068,
          42.4506391
        ]
      },
      "id": "node/575870986"
    },
    {
      "type": "Feature",
      "properties": {
        "@id": "node/575907090",
        "ele": "1361",
        "name": "Puig d'Estela",
        "name:ca": "Puig d'Estela",
        "natural": "peak",
        "prominence": "240"
      },
      "geometry": {
        "type": "Point",
        "coordinates": [
          2.3469961,
          42.2016815
        ]
      },
      "id": "node/575907090"
    },
    {
      "type": "Feature",
      "properties": {
        "@id": "node/575908066",
        "ele": "1161",
        "name": "Puig de Plana Ferriola",
        "name:ca": "Puig de Plana Ferriola",
        "natural": "peak",
        "wikidata": "Q11943611",
        "wikipedia": "ca:Puig de Plana Ferriola"
      },
      "geometry": {
        "type": "Point",
        "coordinates": [
          2.2517292,
          42.1806689
        ]
      },
      "id": "node/575908066"
    },
    {
      "type": "Feature",
      "properties": {
        "@id": "node/576021902",
        "ele": "1989.8",
        "name": "Puig Sistra",
        "name:ca": "Puig Sistra",
        "natural": "peak",
        "source": "Instituto Geográfico Nacional",
        "source:date": "201011",
        "wikidata": "Q17483608",
        "wikipedia": "ca:Puig Sistra"
      },
      "geometry": {
        "type": "Point",
        "coordinates": [
          2.3429098,
          42.3805996
        ]
      },
      "id": "node/576021902"
    },
    {
      "type": "Feature",
      "properties": {
        "@id": "node/576552427",
        "ele": "1305.6",
        "name": "Torrelles",
        "name:ca": "Torrelles",
        "natural": "peak",
        "wikidata": "Q11952351",
        "wikipedia": "ca:Torrelles (Prats i Sansor)"
      },
      "geometry": {
        "type": "Point",
        "coordinates": [
          1.8348336,
          42.355692
        ]
      },
      "id": "node/576552427"
    },
    {
      "type": "Feature",
      "properties": {
        "@id": "node/576594062",
        "ele": "2692.3",
        "name": "les Borregues",
        "name:ca": "les Borregues",
        "natural": "peak",
        "prominence": "193",
        "source": "Institut Cartogràfic i Geològic de Catalunya",
        "source:prominence": "ICGC map. Key col: Coll de la Coma de l’Orri 2499m",
        "wikidata": "Q6529253",
        "wikipedia": "ca:Les Borregues"
      },
      "geometry": {
        "type": "Point",
        "coordinates": [
          2.24773,
          42.3963367
        ]
      },
      "id": "node/576594062"
    },
    {
      "type": "Feature",
      "properties": {
        "@id": "node/576594073",
        "ele": "2581.1",
        "name": "Puig de Fontlletera",
        "name:ca": "Puig de Fontlletera",
        "natural": "peak",
        "source": "Institut Cartogràfic i Geològic de Catalunya",
        "wikidata": "Q8531448",
        "wikipedia": "ca:Puig de Fontlletera"
      },
      "geometry": {
        "type": "Point",
        "coordinates": [
          2.235764,
          42.3768178
        ]
      },
      "id": "node/576594073"
    },
    {
      "type": "Feature",
      "properties": {
        "@id": "node/576594080",
        "ele": "2585.2",
        "name": "el Balandrau",
        "name:ca": "el Balandrau",
        "natural": "peak",
        "prominence": "186",
        "source": "Institut Cartogràfic i Geològic de Catalunya",
        "source:prominence": "ICGC map: Key col: Coll dels Trespics 2399",
        "wikidata": "Q4850026",
        "wikipedia": "ca:Balandrau"
      },
      "geometry": {
        "type": "Point",
        "coordinates": [
          2.2195628,
          42.3701395
        ]
      },
      "id": "node/576594080"
    },
    {
      "type": "Feature",
      "properties": {
        "@id": "node/576649656",
        "ele": "1111.80",
        "name": "Puigsacreu",
        "name:ca": "Puigsacreu",
        "natural": "peak",
        "wikidata": "Q17483174",
        "wikipedia": "ca:Puigsacreu (Sant Pau de Segúries)"
      },
      "geometry": {
        "type": "Point",
        "coordinates": [
          2.3645373,
          42.2490041
        ]
      },
      "id": "node/576649656"
    },
    {
      "type": "Feature",
      "properties": {
        "@id": "node/576650666",
        "alt_name": "La Tosa",
        "ele": "2536.4",
        "name": "la Tosa",
        "name:ca": "la Tosa",
        "natural": "peak",
        "prominence": "759",
        "source:prominence": "ICGC map: Key col: Collada de Toses 1777m",
        "wikidata": "Q3776656",
        "wikipedia": "ca:La Tosa"
      },
      "geometry": {
        "type": "Point",
        "coordinates": [
          1.8926568,
          42.3205828
        ]
      },
      "id": "node/576650666"
    },
    {
      "type": "Feature",
      "properties": {
        "@id": "node/576798430",
        "ele": "2736",
        "name": "La Carbassa",
        "name:ca": "la Carbassa",
        "natural": "peak",
        "source": "ICGC",
        "wikidata": "Q6461537",
        "wikipedia": "ca:La Carbassa"
      },
      "geometry": {
        "type": "Point",
        "coordinates": [
          1.7269651,
          42.4530092
        ]
      },
      "id": "node/576798430"
    },
    {
      "type": "Feature",
      "properties": {
        "@id": "node/576798442",
        "ele": "2809",
        "name": "Bony del Manyer",
        "name:ca": "Bony del Manyer",
        "natural": "peak",
        "source": "Instituto Geográfico Nacional",
        "source:date": "201011",
        "wikidata": "Q17481396",
        "wikipedia": "ca:Bony del Manyer"
      },
      "geometry": {
        "type": "Point",
        "coordinates": [
          1.733021,
          42.4736573
        ]
      },
      "id": "node/576798442"
    },
    {
      "type": "Feature",
      "properties": {
        "@id": "node/576835349",
        "ele": "1529",
        "name": "Milany",
        "name:ca": "Milany",
        "natural": "peak",
        "wikidata": "Q6850793",
        "wikipedia": "en:Milany"
      },
      "geometry": {
        "type": "Point",
        "coordinates": [
          2.2895343,
          42.1655225
        ]
      },
      "id": "node/576835349"
    },
    {
      "type": "Feature",
      "properties": {
        "@id": "node/576835354",
        "ele": "1503",
        "name": "Turó de la Valona",
        "name:ca": "Turó de la Valona",
        "natural": "peak"
      },
      "geometry": {
        "type": "Point",
        "coordinates": [
          2.2808231,
          42.1661653
        ]
      },
      "id": "node/576835354"
    },
    {
      "type": "Feature",
      "properties": {
        "@id": "node/576916675",
        "ele": "1947.5",
        "name": "Cim d'Estremera",
        "name:ca": "Cim d'Estremera",
        "natural": "peak",
        "wikidata": "Q11913788",
        "wikipedia": "ca:Cim d'Estremera"
      },
      "geometry": {
        "type": "Point",
        "coordinates": [
          2.1243079,
          42.3373791
        ]
      },
      "id": "node/576916675"
    },
    {
      "type": "Feature",
      "properties": {
        "@id": "node/579893333",
        "ele": "2547",
        "name": "Puig de Dòrria",
        "name:ca": "Puig de Dòrria",
        "natural": "peak",
        "source": "Instituto Geográfico Nacional",
        "source:date": "201011",
        "wikidata": "Q7259027",
        "wikipedia": "ca:Puig de Dòrria"
      },
      "geometry": {
        "type": "Point",
        "coordinates": [
          2.0846708,
          42.3617626
        ]
      },
      "id": "node/579893333"
    },
    {
      "type": "Feature",
      "properties": {
        "@id": "node/579893382",
        "alt_name": "Puigpedrós de Campcardós",
        "ele": "2915",
        "name": "Puigpedrós",
        "name:ca": "Puigpedrós",
        "natural": "peak",
        "prominence": "653",
        "reg_name": "Puig de Campcardós",
        "source:prominence": "2915-2262 (Port de Fontargente)",
        "wikidata": "Q968445",
        "wikipedia": "ca:Puigpedrós"
      },
      "geometry": {
        "type": "Point",
        "coordinates": [
          1.7619109,
          42.487576
        ]
      },
      "id": "node/579893382"
    },
    {
      "type": "Feature",
      "properties": {
        "@id": "node/579893611",
        "ele": "2661",
        "name": "Tossa del Pas dels Lladres",
        "name:ca": "Tossa del Pas dels Lladres",
        "natural": "peak",
        "source": "Instituto Geográfico Nacional",
        "source:date": "201011",
        "wikidata": "Q11952601",
        "wikipedia": "ca:Tossa del Pas dels Lladres"
      },
      "geometry": {
        "type": "Point",
        "coordinates": [
          2.0894569,
          42.3738497
        ]
      },
      "id": "node/579893611"
    },
    {
      "type": "Feature",
      "properties": {
        "@id": "node/579893621",
        "ele": "2843.2",
        "name": "Pic de Segre",
        "name:ca": "Pic de Segre",
        "natural": "peak",
        "source": "Instituto Geográfico Nacional",
        "source:date": "201011",
        "wikidata": "Q1477225",
        "wikipedia": "ca:Pic del Segre"
      },
      "geometry": {
        "type": "Point",
        "coordinates": [
          2.1213317,
          42.3970608
        ]
      },
      "id": "node/579893621"
    },
    {
      "type": "Feature",
      "properties": {
        "@id": "node/579893649",
        "ele": "2743",
        "name": "Puig del Coll de Finestrelles",
        "name:ca": "Puig del Coll de Finestrelles",
        "natural": "peak",
        "source": "Instituto Geográfico Nacional",
        "source:date": "201011",
        "wikidata": "Q17483134",
        "wikipedia": "ca:Puig del Coll de Finestrelles"
      },
      "geometry": {
        "type": "Point",
        "coordinates": [
          2.1278733,
          42.4112637
        ]
      },
      "id": "node/579893649"
    },
    {
      "type": "Feature",
      "properties": {
        "@id": "node/579950693",
        "ele": "2791.7",
        "name": "Pic dels Gorgs",
        "name:ca": "Pic dels Gorgs",
        "natural": "peak",
        "summit:cross": "no",
        "summit:register": "no",
        "wikidata": "Q56401306",
        "wikipedia": "ca:Pic dels Gorgs (Queralbs)"
      },
      "geometry": {
        "type": "Point",
        "coordinates": [
          2.2125232,
          42.4210953
        ]
      },
      "id": "node/579950693"
    },
    {
      "type": "Feature",
      "properties": {
        "@id": "node/579950698",
        "ele": "2834",
        "name": "Pic de Freser",
        "name:ca": "Pic de Freser",
        "natural": "peak",
        "summit:cross": "no",
        "summit:register": "no",
        "wikidata": "Q7190461",
        "wikipedia": "ca:Pic de Freser"
      },
      "geometry": {
        "type": "Point",
        "coordinates": [
          2.219353,
          42.4230207
        ]
      },
      "id": "node/579950698"
    },
    {
      "type": "Feature",
      "properties": {
        "@id": "node/579950706",
        "ele": "2880",
        "name": "Piolet de Bastiments",
        "name:ca": "Piolet de Bastiments",
        "natural": "peak",
        "summit:cross": "no",
        "summit:register": "no"
      },
      "geometry": {
        "type": "Point",
        "coordinates": [
          2.2308617,
          42.42688
        ]
      },
      "id": "node/579950706"
    },
    {
      "type": "Feature",
      "properties": {
        "@id": "node/579950717",
        "ele": "2702",
        "name": "Pic de la Dona",
        "name:ca": "Pic de la Dona",
        "natural": "peak",
        "prominence": "98",
        "summit:cross": "no",
        "summit:register": "no",
        "wikidata": "Q384203",
        "wikipedia": "ca:Pic de la Dona"
      },
      "geometry": {
        "type": "Point",
        "coordinates": [
          2.2610942,
          42.437496
        ]
      },
      "id": "node/579950717"
    },
    {
      "type": "Feature",
      "properties": {
        "@id": "node/579950722",
        "ele": "2437",
        "name": "Roques de la Portella",
        "name:ca": "Roques de la Portella",
        "natural": "peak"
      },
      "geometry": {
        "type": "Point",
        "coordinates": [
          2.276643,
          42.4324195
        ]
      },
      "id": "node/579950722"
    },
    {
      "type": "Feature",
      "properties": {
        "@id": "node/579950754",
        "ele": "2504.1",
        "name": "Puig de la Llosa",
        "name:ca": "Puig de la Llosa",
        "natural": "peak",
        "source": "Instituto Geográfico Nacional",
        "source:date": "201011",
        "wikidata": "Q17482394",
        "wikipedia": "ca:Puig de la Llosa"
      },
      "geometry": {
        "type": "Point",
        "coordinates": [
          2.2964886,
          42.4230008
        ]
      },
      "id": "node/579950754"
    },
    {
      "type": "Feature",
      "properties": {
        "@id": "node/579950839",
        "ele": "1640.9",
        "name": "Puig de l'Artiga del Rei",
        "name:ca": "Puig de l'Artiga del Rei",
        "natural": "peak",
        "wikidata": "Q17481269",
        "wikipedia": "ca:Puig de l'Artiga del Rei"
      },
      "geometry": {
        "type": "Point",
        "coordinates": [
          2.3998169,
          42.3949121
        ]
      },
      "id": "node/579950839"
    },
    {
      "type": "Feature",
      "properties": {
        "@id": "node/579950849",
        "ele": "1640.7",
        "name": "Puig Pedrissa",
        "name:ca": "Puig Pedrissa",
        "natural": "peak",
        "wikidata": "Q17482945",
        "wikipedia": "ca:Puig Pedrissa"
      },
      "geometry": {
        "type": "Point",
        "coordinates": [
          2.4331426,
          42.3811148
        ]
      },
      "id": "node/579950849"
    },
    {
      "type": "Feature",
      "properties": {
        "@id": "node/579950873",
        "ele": "1654.4",
        "name": "Puig de la Clapa",
        "name:ca": "Puig de la Clapa",
        "natural": "peak",
        "wikidata": "Q17481665",
        "wikipedia": "ca:Puig de la Clapa"
      },
      "geometry": {
        "type": "Point",
        "coordinates": [
          2.4247838,
          42.3937894
        ]
      },
      "id": "node/579950873"
    },
    {
      "type": "Feature",
      "properties": {
        "@id": "node/579950954",
        "ele": "1375",
        "name": "els Forquets",
        "natural": "peak"
      },
      "geometry": {
        "type": "Point",
        "coordinates": [
          2.4999773,
          42.3433061
        ]
      },
      "id": "node/579950954"
    },
    {
      "type": "Feature",
      "properties": {
        "@id": "node/582892714",
        "ele": "727.9",
        "name": "Turó de l'Amorric",
        "name:ca": "Turó de l'Amorric",
        "natural": "peak"
      },
      "geometry": {
        "type": "Point",
        "coordinates": [
          2.353762,
          41.8544498
        ]
      },
      "id": "node/582892714"
    },
    {
      "type": "Feature",
      "properties": {
        "@id": "node/582892716",
        "ele": "748",
        "name": "Turó de l'Artiga",
        "name:ca": "Turó de l'Artiga",
        "natural": "peak"
      },
      "geometry": {
        "type": "Point",
        "coordinates": [
          2.3532503,
          41.8441914
        ]
      },
      "id": "node/582892716"
    },
    {
      "type": "Feature",
      "properties": {
        "@id": "node/582892719",
        "name": "les Canals",
        "name:ca": "les Canals",
        "natural": "peak"
      },
      "geometry": {
        "type": "Point",
        "coordinates": [
          2.3535507,
          41.8260297
        ]
      },
      "id": "node/582892719"
    },
    {
      "type": "Feature",
      "properties": {
        "@id": "node/582892730",
        "ele": "863",
        "name": "Puig Cornador",
        "name:ca": "Puig Cornador",
        "natural": "peak",
        "wikidata": "Q17481777",
        "wikipedia": "ca:Puig Cornador (Viladrau)"
      },
      "geometry": {
        "type": "Point",
        "coordinates": [
          2.3643224,
          41.8461416
        ]
      },
      "id": "node/582892730"
    },
    {
      "type": "Feature",
      "properties": {
        "@id": "node/582892732",
        "ele": "822.8",
        "name": "Turó del Bosc Gran",
        "name:ca": "Turó del Bosc Gran",
        "natural": "peak",
        "wikidata": "Q17481406",
        "wikipedia": "ca:Turó del Bosc Gran"
      },
      "geometry": {
        "type": "Point",
        "coordinates": [
          2.3496842,
          41.8489392
        ]
      },
      "id": "node/582892732"
    },
    {
      "type": "Feature",
      "properties": {
        "@id": "node/640369781",
        "ele": "2827",
        "name": "Pic de Finestrelles",
        "name:ca": "Pic de Finestrelles",
        "natural": "peak",
        "wikidata": "Q7190460",
        "wikipedia": "ca:Pic de Finestrelles"
      },
      "geometry": {
        "type": "Point",
        "coordinates": [
          2.1334676,
          42.4144346
        ]
      },
      "id": "node/640369781"
    },
    {
      "type": "Feature",
      "properties": {
        "@id": "node/640369795",
        "ele": "2790",
        "name": "Pic de Núria",
        "name:ca": "Pic de Núria",
        "natural": "peak",
        "source": "Instituto Geográfico Nacional",
        "source:date": "201011",
        "summit:cross": "no",
        "summit:register": "no",
        "wikidata": "Q11941490",
        "wikipedia": "ca:Pic de Núria"
      },
      "geometry": {
        "type": "Point",
        "coordinates": [
          2.1430472,
          42.4166272
        ]
      },
      "id": "node/640369795"
    },
    {
      "type": "Feature",
      "properties": {
        "@id": "node/640369802",
        "ele": "2772.2",
        "name": "Puig del Coll d'Eina",
        "name:ca": "Puig del Coll d'Eina",
        "natural": "peak",
        "summit:cross": "no",
        "summit:register": "no",
        "wikidata": "Q17483133",
        "wikipedia": "ca:Puig del Coll d'Eina"
      },
      "geometry": {
        "type": "Point",
        "coordinates": [
          2.1465039,
          42.4184756
        ]
      },
      "id": "node/640369802"
    },
    {
      "type": "Feature",
      "properties": {
        "@id": "node/670510038",
        "description": "Borne montagne en granit gravée IGN et 1958 - Point vu en place en 1960",
        "ele": "2464.73",
        "man_made": "survey_point",
        "name": "Costabona",
        "name:ca": "Costabona",
        "name:fr": "Pic de Costabonne",
        "natural": "peak",
        "note": "Ne pas déplacer ce point, cf. - Do not move this node, see - http://wiki.openstreetmap.org/wiki/WikiProject_France/Repères_Géodésiques#Permanence_des_rep.C3.A8res",
        "ref": "6615001 - 1",
        "source": "©IGN 2010 dans le cadre de la cartographie réglementaire",
        "url": "http://geodesie.ign.fr/fiches/index.php?module=e&action=fichepdf&source=carte&sit_no=6615001",
        "wikidata": "Q3382362",
        "wikipedia": "ca:Costabona"
      },
      "geometry": {
        "type": "Point",
        "coordinates": [
          2.3439181,
          42.4168911
        ]
      },
      "id": "node/670510038"
    },
    {
      "type": "Feature",
      "properties": {
        "@id": "node/670510672",
        "description": "Borne en granit gravée IGN - Point vu en place en 1960",
        "ele": "1157.5",
        "man_made": "survey_point",
        "name": "Pic dels Quatre Termes",
        "name:ca": "Pic dels Quatre Termes",
        "name:fr": "Pic des Quatre Termes",
        "natural": "peak",
        "note": "Ne pas déplacer ce point, cf. - Do not move this node, see - http://wiki.openstreetmap.org/wiki/WikiProject_France/Repères_Géodésiques#Permanence_des_rep.C3.A8res",
        "ref": "6619602 - 1",
        "source": "©IGN 2010 dans le cadre de la cartographie réglementaire",
        "summit:cross": "no",
        "summit:register": "no",
        "url": "http://geodesie.ign.fr/fiches/index.php?module=e&action=fichepdf&source=carte&sit_no=6619602"
      },
      "geometry": {
        "type": "Point",
        "coordinates": [
          2.9981746,
          42.4731692
        ]
      },
      "id": "node/670510672"
    },
    {
      "type": "Feature",
      "properties": {
        "@id": "node/726775203",
        "ele": "401.1",
        "name": "Montclar",
        "natural": "peak",
        "wikidata": "Q11918407",
        "wikipedia": "ca:El Montclar"
      },
      "geometry": {
        "type": "Point",
        "coordinates": [
          2.9562184,
          41.7886614
        ]
      },
      "id": "node/726775203"
    },
    {
      "type": "Feature",
      "properties": {
        "@id": "node/795844361",
        "ele": "378",
        "name": "Puig Estela",
        "name:ca": "Puig Estela",
        "natural": "peak",
        "source": "Ajuntament de Girona",
        "wikidata": "Q11943370",
        "wikipedia": "ca:Puig Estela (Girona)"
      },
      "geometry": {
        "type": "Point",
        "coordinates": [
          2.8683127,
          41.9892369
        ]
      },
      "id": "node/795844361"
    },
    {
      "type": "Feature",
      "properties": {
        "@id": "node/795844367",
        "ele": "371",
        "name": "Puig de les Àligues",
        "name:ca": "Puig de les Àligues",
        "natural": "peak",
        "source": "survey",
        "wikidata": "Q11943745",
        "wikipedia": "ca:Puig de les Àguiles"
      },
      "geometry": {
        "type": "Point",
        "coordinates": [
          2.8679736,
          41.9862737
        ]
      },
      "id": "node/795844367"
    },
    {
      "type": "Feature",
      "properties": {
        "@id": "node/795849529",
        "name": "Puig de les Àguiles",
        "name:ca": "Puig de les Àguiles",
        "natural": "peak",
        "source": "Ajuntament de Girona"
      },
      "geometry": {
        "type": "Point",
        "coordinates": [
          2.8558702,
          41.9825557
        ]
      },
      "id": "node/795849529"
    },
    {
      "type": "Feature",
      "properties": {
        "@id": "node/795849532",
        "name": "Puig Ventós",
        "name:ca": "Puig Ventós",
        "natural": "peak",
        "source": "Ajuntament de Girona"
      },
      "geometry": {
        "type": "Point",
        "coordinates": [
          2.8668303,
          41.9784447
        ]
      },
      "id": "node/795849532"
    },
    {
      "type": "Feature",
      "properties": {
        "@id": "node/800597407",
        "ele": "129.7",
        "name": "Torre Gironella",
        "name:ca": "Torre Gironella",
        "natural": "peak"
      },
      "geometry": {
        "type": "Point",
        "coordinates": [
          2.8294306,
          41.9866202
        ]
      },
      "id": "node/800597407"
    },
    {
      "type": "Feature",
      "properties": {
        "@id": "node/824142962",
        "ele": "176.3",
        "name": "Ses Falugues",
        "natural": "peak",
        "wikidata": "Q121009668",
        "wikipedia": "ca:Ses Falugues"
      },
      "geometry": {
        "type": "Point",
        "coordinates": [
          3.2102701,
          41.9316218
        ]
      },
      "id": "node/824142962"
    },
    {
      "type": "Feature",
      "properties": {
        "@id": "node/847087586",
        "ele": "391",
        "name": "la Palomera",
        "name:ca": "la Palomera",
        "natural": "peak"
      },
      "geometry": {
        "type": "Point",
        "coordinates": [
          2.6036087,
          41.9733963
        ]
      },
      "id": "node/847087586"
    },
    {
      "type": "Feature",
      "properties": {
        "@id": "node/884559636",
        "ele": "839",
        "name": "Puigdefrou",
        "name:ca": "Puigdefrou",
        "natural": "peak",
        "wikidata": "Q18006017",
        "wikipedia": "ca:Puigdefrou"
      },
      "geometry": {
        "type": "Point",
        "coordinates": [
          2.593987,
          41.963187
        ]
      },
      "id": "node/884559636"
    },
    {
      "type": "Feature",
      "properties": {
        "@id": "node/946395527",
        "ele": "167",
        "name": "Puig Garriga",
        "name:ca": "Puig Garriga",
        "natural": "peak"
      },
      "geometry": {
        "type": "Point",
        "coordinates": [
          2.9468685,
          41.7403724
        ]
      },
      "id": "node/946395527"
    },
    {
      "type": "Feature",
      "properties": {
        "@id": "node/946395585",
        "ele": "518.2",
        "name": "Puig de ses Cadiretes",
        "name:ca": "Puig de ses Cadiretes",
        "natural": "peak",
        "prominence": "393",
        "source:prominence": "ICGC map. Key col: 125m, close to Llagostera",
        "wikidata": "Q11943721",
        "wikipedia": "ca:Puig de les Cadiretes"
      },
      "geometry": {
        "type": "Point",
        "coordinates": [
          2.9281978,
          41.7575174
        ]
      },
      "id": "node/946395585"
    },
    {
      "type": "Feature",
      "properties": {
        "@id": "node/946395586",
        "ele": "470",
        "name": "Montllor",
        "name:ca": "Montllor",
        "natural": "peak",
        "wikidata": "Q11937476",
        "wikipedia": "ca:Montllor"
      },
      "geometry": {
        "type": "Point",
        "coordinates": [
          2.9299197,
          41.7525102
        ]
      },
      "id": "node/946395586"
    },
    {
      "type": "Feature",
      "properties": {
        "@id": "node/946395590",
        "ele": "200",
        "name": "Puig de Can Martí",
        "name:ca": "Puig de Can Martí",
        "natural": "peak"
      },
      "geometry": {
        "type": "Point",
        "coordinates": [
          2.9317202,
          41.7326109
        ]
      },
      "id": "node/946395590"
    },
    {
      "type": "Feature",
      "properties": {
        "@id": "node/948706924",
        "ele": "1358.4",
        "name": "Puig de Llivia",
        "natural": "peak",
        "wikidata": "Q113111090"
      },
      "geometry": {
        "type": "Point",
        "coordinates": [
          1.9861433,
          42.4676943
        ]
      },
      "id": "node/948706924"
    },
    {
      "type": "Feature",
      "properties": {
        "@id": "node/948717313",
        "alt_name": "Montigalar Gros",
        "alt_name:ca": "Montigalar Gros",
        "ele": "466.60",
        "name": "Montigalar",
        "name:ca": "Montigalar",
        "natural": "peak",
        "wikidata": "Q11937468",
        "wikipedia": "ca:Montigalar"
      },
      "geometry": {
        "type": "Point",
        "coordinates": [
          2.9246505,
          41.9630027
        ]
      },
      "id": "node/948717313"
    },
    {
      "type": "Feature",
      "properties": {
        "@id": "node/948717658",
        "ele": "903.20",
        "name": "Roca d'en Pla",
        "name:ca": "Roca d'en Pla",
        "natural": "peak",
        "wikidata": "Q17483036",
        "wikipedia": "ca:Roca d'en Pla"
      },
      "geometry": {
        "type": "Point",
        "coordinates": [
          2.5265211,
          41.8703233
        ]
      },
      "id": "node/948717658"
    },
    {
      "type": "Feature",
      "properties": {
        "@id": "node/1013235033",
        "ele": "1124.8",
        "name": "el Mont",
        "name:ca": "el Mont",
        "natural": "peak",
        "source": "Institut Cartogràfic i Geològic de Catalunya",
        "wikidata": "Q6758738",
        "wikipedia": "ca:El Mont (Albanyà)"
      },
      "geometry": {
        "type": "Point",
        "coordinates": [
          2.706312,
          42.2588803
        ]
      },
      "id": "node/1013235033"
    },
    {
      "type": "Feature",
      "properties": {
        "@id": "node/1086626308",
        "ele": "183.8",
        "name": "Aiguafina",
        "natural": "peak",
        "wikidata": "Q98557565"
      },
      "geometry": {
        "type": "Point",
        "coordinates": [
          2.8963064,
          41.7540841
        ]
      },
      "id": "node/1086626308"
    },
    {
      "type": "Feature",
      "properties": {
        "@id": "node/1241582992",
        "ele": "1004.4",
        "name": "Turó de Baborers",
        "name:ca": "Turó de Baborers",
        "natural": "peak"
      },
      "geometry": {
        "type": "Point",
        "coordinates": [
          2.1578966,
          42.1617625
        ]
      },
      "id": "node/1241582992"
    },
    {
      "type": "Feature",
      "properties": {
        "@id": "node/1241583596",
        "ele": "306.4",
        "name": "Puig Caterina",
        "name:ca": "Puig Caterina",
        "natural": "peak"
      },
      "geometry": {
        "type": "Point",
        "coordinates": [
          2.6632031,
          42.1181506
        ]
      },
      "id": "node/1241583596"
    },
    {
      "type": "Feature",
      "properties": {
        "@id": "node/1241584866",
        "ele": "649.4",
        "name": "Turó de Pujou",
        "name:ca": "Turó de Pujou",
        "natural": "peak"
      },
      "geometry": {
        "type": "Point",
        "coordinates": [
          2.4946511,
          42.1599603
        ]
      },
      "id": "node/1241584866"
    },
    {
      "type": "Feature",
      "properties": {
        "@id": "node/1241585468",
        "ele": "1381.4",
        "name": "Roca Castellana",
        "name:ca": "Roca Castellana",
        "natural": "peak",
        "source": "Instituto Geográfico Nacional",
        "source:date": "201011",
        "wikidata": "Q11945902",
        "wikipedia": "ca:Roca Castellana (Alp)"
      },
      "geometry": {
        "type": "Point",
        "coordinates": [
          1.8963027,
          42.3633579
        ]
      },
      "id": "node/1241585468"
    },
    {
      "type": "Feature",
      "properties": {
        "@id": "node/1241585642",
        "ele": "571.0",
        "name": "Turó de Can Puig",
        "name:ca": "Turó de Can Puig",
        "natural": "peak"
      },
      "geometry": {
        "type": "Point",
        "coordinates": [
          2.4916945,
          41.8107628
        ]
      },
      "id": "node/1241585642"
    },
    {
      "type": "Feature",
      "properties": {
        "@id": "node/1241585681",
        "ele": "916.2",
        "name": "Turó d'en Puig",
        "name:ca": "Turó d'en Puig",
        "natural": "peak",
        "wikidata": "Q17483773",
        "wikipedia": "ca:Turó d'en Puig"
      },
      "geometry": {
        "type": "Point",
        "coordinates": [
          2.4664909,
          41.848395
        ]
      },
      "id": "node/1241585681"
    },
    {
      "type": "Feature",
      "properties": {
        "@id": "node/1241585734",
        "ele": "224.1",
        "name": "Puig de Miraviles",
        "natural": "peak",
        "source": "Instituto Geográfico Nacional",
        "source:date": "201011"
      },
      "geometry": {
        "type": "Point",
        "coordinates": [
          3.0592023,
          41.9325488
        ]
      },
      "id": "node/1241585734"
    },
    {
      "type": "Feature",
      "properties": {
        "@id": "node/1241585854",
        "ele": "244.9",
        "name": "Puig Gros",
        "name:ca": "Puig Gros",
        "natural": "peak",
        "source": "Instituto Geográfico Nacional",
        "source:date": "201011",
        "wikidata": "Q11943395",
        "wikipedia": "ca:Puig Gros d'en Torroella"
      },
      "geometry": {
        "type": "Point",
        "coordinates": [
          3.1203851,
          41.9076536
        ]
      },
      "id": "node/1241585854"
    },
    {
      "type": "Feature",
      "properties": {
        "@id": "node/1241585877",
        "ele": "214.8",
        "name": "Puig Blanquet",
        "name:ca": "Puig Blanquet",
        "natural": "peak",
        "source": "Instituto Geográfico Nacional",
        "source:date": "201011",
        "wikidata": "Q11943337",
        "wikipedia": "ca:Puig Blanquet"
      },
      "geometry": {
        "type": "Point",
        "coordinates": [
          3.0461996,
          41.8767708
        ]
      },
      "id": "node/1241585877"
    },
    {
      "type": "Feature",
      "properties": {
        "@id": "node/1241585890",
        "name": "Puig Salgueda",
        "name:ca": "Puig Salgueda",
        "natural": "peak",
        "source": "Instituto Geográfico Nacional",
        "source:date": "201011",
        "wikidata": "Q17483144",
        "wikipedia": "ca:Puig Salgueda"
      },
      "geometry": {
        "type": "Point",
        "coordinates": [
          2.8547448,
          41.9814713
        ]
      },
      "id": "node/1241585890"
    },
    {
      "type": "Feature",
      "properties": {
        "@id": "node/1241586007",
        "ele": "621",
        "name": "Puig Dui",
        "natural": "peak",
        "source": "Instituto Geográfico Nacional",
        "source:date": "201011"
      },
      "geometry": {
        "type": "Point",
        "coordinates": [
          2.5679014,
          41.8051422
        ]
      },
      "id": "node/1241586007"
    },
    {
      "type": "Feature",
      "properties": {
        "@id": "node/1241586098",
        "ele": "776.1",
        "name": "Turó de Mainou",
        "name:ca": "Turó de Mainou",
        "natural": "peak"
      },
      "geometry": {
        "type": "Point",
        "coordinates": [
          2.4212031,
          42.26556
        ]
      },
      "id": "node/1241586098"
    },
    {
      "type": "Feature",
      "properties": {
        "@id": "node/1241586147",
        "ele": "981.2",
        "name": "Turó de Bellver",
        "name:ca": "Turó de Bellver",
        "natural": "peak"
      },
      "geometry": {
        "type": "Point",
        "coordinates": [
          2.4147023,
          41.8778466
        ]
      },
      "id": "node/1241586147"
    },
    {
      "type": "Feature",
      "properties": {
        "@id": "node/1241586271",
        "ele": "1044.2",
        "name": "Turó del Puig",
        "name:ca": "Turó del Puig",
        "natural": "peak",
        "wikidata": "Q11953744",
        "wikipedia": "ca:Turó del Puig (Ripoll)"
      },
      "geometry": {
        "type": "Point",
        "coordinates": [
          2.2499662,
          42.1696628
        ]
      },
      "id": "node/1241586271"
    },
    {
      "type": "Feature",
      "properties": {
        "@id": "node/1241586664",
        "ele": "244.4",
        "name": "Puig del Monjo",
        "name:ca": "Puig del Monjo",
        "natural": "peak",
        "wikidata": "Q17482699",
        "wikipedia": "ca:Puig del Monjo"
      },
      "geometry": {
        "type": "Point",
        "coordinates": [
          3.035408,
          41.8408322
        ]
      },
      "id": "node/1241586664"
    },
    {
      "type": "Feature",
      "properties": {
        "@id": "node/1241586989",
        "ele": "849.2",
        "name": "Turó del Bac",
        "name:ca": "Turó del Bac",
        "natural": "peak"
      },
      "geometry": {
        "type": "Point",
        "coordinates": [
          2.7082982,
          42.3653279
        ]
      },
      "id": "node/1241586989"
    },
    {
      "type": "Feature",
      "properties": {
        "@id": "node/1241586991",
        "alt_name": "Puig d'en Boi",
        "alt_name:ca": "Puig d'en Boi",
        "ele": "254.4",
        "name": "Puig Boi",
        "name:ca": "Puig Boi",
        "natural": "peak",
        "source": "Instituto Geográfico Nacional",
        "source:date": "201011",
        "wikidata": "Q11943507",
        "wikipedia": "ca:Puig d'en Boi"
      },
      "geometry": {
        "type": "Point",
        "coordinates": [
          2.9406269,
          41.9486718
        ]
      },
      "id": "node/1241586991"
    },
    {
      "type": "Feature",
      "properties": {
        "@id": "node/1241587373",
        "ele": "201.7",
        "name": "Puig de les Forques",
        "name:ca": "Puig de Forques",
        "natural": "peak",
        "source": "Instituto Geográfico Nacional",
        "source:date": "201011",
        "wikidata": "Q11943581",
        "wikipedia": "ca:Puig de Forques"
      },
      "geometry": {
        "type": "Point",
        "coordinates": [
          3.0538795,
          41.9327749
        ]
      },
      "id": "node/1241587373"
    },
    {
      "type": "Feature",
      "properties": {
        "@id": "node/1241587448",
        "ele": "431.7",
        "name": "Turó de n'Esteve Roure",
        "name:ca": "Turó de n'Esteve Roure",
        "natural": "peak"
      },
      "geometry": {
        "type": "Point",
        "coordinates": [
          2.5222221,
          41.8281167
        ]
      },
      "id": "node/1241587448"
    },
    {
      "type": "Feature",
      "properties": {
        "@id": "node/1241587552",
        "ele": "811.1",
        "name": "Turó del Pla de Bancells",
        "name:ca": "Turó del Pla de Bancells",
        "natural": "peak"
      },
      "geometry": {
        "type": "Point",
        "coordinates": [
          2.4416273,
          41.843445
        ]
      },
      "id": "node/1241587552"
    },
    {
      "type": "Feature",
      "properties": {
        "@id": "node/1241587879",
        "alt_name": "Turó de Castellets",
        "alt_name:ca": "Turó de Castellets",
        "ele": "458.1",
        "name": "Turó de Can Tordera",
        "name:ca": "Turó de Can Tordera",
        "natural": "peak"
      },
      "geometry": {
        "type": "Point",
        "coordinates": [
          2.5352539,
          41.777292
        ]
      },
      "id": "node/1241587879"
    },
    {
      "type": "Feature",
      "properties": {
        "@id": "node/1241587946",
        "ele": "325.3",
        "name": "Puig d' en Ribot",
        "name:ca": "Puig d'en Ribot",
        "natural": "peak",
        "source": "Instituto Geográfico Nacional",
        "source:date": "201011",
        "wikidata": "Q17483276",
        "wikipedia": "ca:Puig d'en Ribot"
      },
      "geometry": {
        "type": "Point",
        "coordinates": [
          3.0961876,
          41.8954359
        ]
      },
      "id": "node/1241587946"
    },
    {
      "type": "Feature",
      "properties": {
        "@id": "node/1241587949",
        "ele": "517.7",
        "name": "MuntanyadeColitzà",
        "natural": "peak",
        "source": "Instituto Geográfico Nacional",
        "source:date": "201011",
        "wikidata": "Q11937910",
        "wikipedia": "ca:Muntanya de Colitzà"
      },
      "geometry": {
        "type": "Point",
        "coordinates": [
          2.6194907,
          42.1490449
        ]
      },
      "id": "node/1241587949"
    },
    {
      "type": "Feature",
      "properties": {
        "@id": "node/1241587973",
        "ele": "215",
        "name": "Puig Moliner",
        "name:ca": "Puig Moliner",
        "natural": "peak"
      },
      "geometry": {
        "type": "Point",
        "coordinates": [
          3.0072634,
          41.8609818
        ]
      },
      "id": "node/1241587973"
    },
    {
      "type": "Feature",
      "properties": {
        "@id": "node/1241587990",
        "ele": "778.4",
        "name": "Turó de la Brolla",
        "name:ca": "Turó de la Brolla",
        "natural": "peak",
        "wikidata": "Q17481411",
        "wikipedia": "ca:Turó de la Brolla"
      },
      "geometry": {
        "type": "Point",
        "coordinates": [
          2.446326,
          41.8311368
        ]
      },
      "id": "node/1241587990"
    },
    {
      "type": "Feature",
      "properties": {
        "@id": "node/1241588007",
        "ele": "677.0",
        "name": "Turó de Castellar",
        "name:ca": "Turó de Castellar",
        "natural": "peak"
      },
      "geometry": {
        "type": "Point",
        "coordinates": [
          2.5059967,
          41.7878209
        ]
      },
      "id": "node/1241588007"
    },
    {
      "type": "Feature",
      "properties": {
        "@id": "node/1241588160",
        "ele": "1059.7",
        "name": "Turó de la Cau",
        "name:ca": "Turó de la Cau",
        "natural": "peak"
      },
      "geometry": {
        "type": "Point",
        "coordinates": [
          2.4514287,
          41.8840249
        ]
      },
      "id": "node/1241588160"
    },
    {
      "type": "Feature",
      "properties": {
        "@id": "node/1241588186",
        "ele": "811",
        "name": "la Suca",
        "name:ca": "la Suca",
        "natural": "peak",
        "source": "Instituto Geográfico Nacional;ICGC",
        "source:date": "201011",
        "wikidata": "Q11930831",
        "wikipedia": "ca:La Suca"
      },
      "geometry": {
        "type": "Point",
        "coordinates": [
          2.6591737,
          42.2855791
        ]
      },
      "id": "node/1241588186"
    },
    {
      "type": "Feature",
      "properties": {
        "@id": "node/1241588188",
        "ele": "1308.3",
        "name": "Tossal de la Costa",
        "name:ca": "Tossal de la Costa",
        "natural": "peak",
        "source": "Instituto Geográfico Nacional",
        "source:date": "201011"
      },
      "geometry": {
        "type": "Point",
        "coordinates": [
          2.4191379,
          42.3446949
        ]
      },
      "id": "node/1241588188"
    },
    {
      "type": "Feature",
      "properties": {
        "@id": "node/1241588211",
        "ele": "90",
        "name": "Puig Rosell",
        "natural": "peak",
        "source": "Instituto Geográfico Nacional",
        "source:date": "201011"
      },
      "geometry": {
        "type": "Point",
        "coordinates": [
          3.0700713,
          41.8734307
        ]
      },
      "id": "node/1241588211"
    },
    {
      "type": "Feature",
      "properties": {
        "@id": "node/1241588397",
        "ele": "890.9",
        "name": "Turó de Mirambell",
        "name:ca": "Turó de Mirambell",
        "natural": "peak"
      },
      "geometry": {
        "type": "Point",
        "coordinates": [
          2.3763796,
          41.8547316
        ]
      },
      "id": "node/1241588397"
    },
    {
      "type": "Feature",
      "properties": {
        "@id": "node/1241589027",
        "ele": "506.0",
        "name": "Puig de la Vinya",
        "name:ca": "Puig de la Vinya",
        "natural": "peak"
      },
      "geometry": {
        "type": "Point",
        "coordinates": [
          2.6118948,
          42.029282
        ]
      },
      "id": "node/1241589027"
    },
    {
      "type": "Feature",
      "properties": {
        "@id": "node/1241589112",
        "ele": "1106.3",
        "name": "Puigsasucre",
        "name:ca": "Puigsasucre",
        "natural": "peak",
        "source": "Instituto Geográfico Nacional",
        "source:date": "201011"
      },
      "geometry": {
        "type": "Point",
        "coordinates": [
          2.407792,
          41.8372408
        ]
      },
      "id": "node/1241589112"
    },
    {
      "type": "Feature",
      "properties": {
        "@id": "node/1241589161",
        "ele": "181.3",
        "name": "Puig de Porreres",
        "name:ca": "Puig de Porreres",
        "natural": "peak",
        "source": "Instituto Geográfico Nacional",
        "source:date": "201011",
        "wikidata": "Q17483066",
        "wikipedia": "ca:Puig de Porreres"
      },
      "geometry": {
        "type": "Point",
        "coordinates": [
          3.0581091,
          41.8861597
        ]
      },
      "id": "node/1241589161"
    },
    {
      "type": "Feature",
      "properties": {
        "@id": "node/1241589164",
        "ele": "932.0",
        "name": "Tossa de Pujolriu",
        "name:ca": "Tossa de Pujolriu",
        "natural": "peak",
        "wikidata": "Q17483201",
        "wikipedia": "ca:Tossa de Pujolriu"
      },
      "geometry": {
        "type": "Point",
        "coordinates": [
          2.4470688,
          42.0820052
        ]
      },
      "id": "node/1241589164"
    },
    {
      "type": "Feature",
      "properties": {
        "@id": "node/1241589211",
        "ele": "363.3",
        "name": "Turó de Ca n'Alzina",
        "name:ca": "Turó de Ca n'Alzina",
        "natural": "peak"
      },
      "geometry": {
        "type": "Point",
        "coordinates": [
          2.7645928,
          42.2339886
        ]
      },
      "id": "node/1241589211"
    },
    {
      "type": "Feature",
      "properties": {
        "@id": "node/1241589266",
        "ele": "296.1",
        "name": "Turó del Verdaguer",
        "name:ca": "Turó del Verdaguer",
        "natural": "peak"
      },
      "geometry": {
        "type": "Point",
        "coordinates": [
          2.5489998,
          41.7937086
        ]
      },
      "id": "node/1241589266"
    },
    {
      "type": "Feature",
      "properties": {
        "@id": "node/1241589522",
        "ele": "189.1",
        "name": "Puig Gros",
        "name:ca": "Puig Gros",
        "natural": "peak",
        "source": "Instituto Geográfico Nacional",
        "source:date": "201011"
      },
      "geometry": {
        "type": "Point",
        "coordinates": [
          3.0720904,
          41.9342648
        ]
      },
      "id": "node/1241589522"
    },
    {
      "type": "Feature",
      "properties": {
        "@id": "node/1241589601",
        "ele": "1290.2",
        "name": "els Gronys",
        "name:ca": "els Gronys",
        "natural": "peak",
        "source": "Instituto Geográfico Nacional",
        "source:date": "201011",
        "wikidata": "Q17482124",
        "wikipedia": "ca:Els Gronys"
      },
      "geometry": {
        "type": "Point",
        "coordinates": [
          2.3727215,
          42.1497081
        ]
      },
      "id": "node/1241589601"
    },
    {
      "type": "Feature",
      "properties": {
        "@id": "node/1241589694",
        "ele": "713.9",
        "name": "Turó del Villaró",
        "name:ca": "Turó del Villaró",
        "natural": "peak",
        "wikidata": "Q11953761",
        "wikipedia": "ca:Turó del Villaró"
      },
      "geometry": {
        "type": "Point",
        "coordinates": [
          2.4416995,
          41.824987
        ]
      },
      "id": "node/1241589694"
    },
    {
      "type": "Feature",
      "properties": {
        "@id": "node/1241589746",
        "alt_name": "Turó d'Espaldats",
        "ele": "868.8",
        "name": "Boumort",
        "name:ca": "Boumort",
        "natural": "peak"
      },
      "geometry": {
        "type": "Point",
        "coordinates": [
          2.3741995,
          42.2339322
        ]
      },
      "id": "node/1241589746"
    },
    {
      "type": "Feature",
      "properties": {
        "@id": "node/1241590028",
        "ele": "915.6",
        "name": "Turó de les Bruixes",
        "name:ca": "Turó de les Bruixes",
        "natural": "peak"
      },
      "geometry": {
        "type": "Point",
        "coordinates": [
          2.425887,
          41.8747042
        ]
      },
      "id": "node/1241590028"
    },
    {
      "type": "Feature",
      "properties": {
        "@id": "node/1241590149",
        "ele": "475.5",
        "name": "el Castellet",
        "name:ca": "el Castellet",
        "natural": "peak"
      },
      "geometry": {
        "type": "Point",
        "coordinates": [
          2.7501226,
          42.0648635
        ]
      },
      "id": "node/1241590149"
    },
    {
      "type": "Feature",
      "properties": {
        "@id": "node/1241590160",
        "ele": "333",
        "name": "Puig de la Cendrosa",
        "name:ca": "Puig de la Cendrosa",
        "natural": "peak",
        "source": "Instituto Geográfico Nacional",
        "source:date": "201011",
        "wikidata": "Q17481654",
        "wikipedia": "ca:Puig de la Cendrosa"
      },
      "geometry": {
        "type": "Point",
        "coordinates": [
          3.0870365,
          41.8901497
        ]
      },
      "id": "node/1241590160"
    },
    {
      "type": "Feature",
      "properties": {
        "@id": "node/1241590228",
        "ele": "161.2",
        "name": "Turó del Marro",
        "name:ca": "Turó del Marro",
        "natural": "peak"
      },
      "geometry": {
        "type": "Point",
        "coordinates": [
          2.8135513,
          41.785849
        ]
      },
      "id": "node/1241590228"
    },
    {
      "type": "Feature",
      "properties": {
        "@id": "node/1241590405",
        "ele": "430.8",
        "name": "Puig del Roquet",
        "name:ca": "Puig del Roquet",
        "natural": "peak",
        "source": "Instituto Geográfico Nacional",
        "source:date": "201011"
      },
      "geometry": {
        "type": "Point",
        "coordinates": [
          2.9824558,
          41.8675478
        ]
      },
      "id": "node/1241590405"
    },
    {
      "type": "Feature",
      "properties": {
        "@id": "node/1241590476",
        "ele": "153.4",
        "name": "Puig de Sois",
        "natural": "peak",
        "source": "Instituto Geográfico Nacional",
        "source:date": "201011"
      },
      "geometry": {
        "type": "Point",
        "coordinates": [
          3.131155,
          41.8974955
        ]
      },
      "id": "node/1241590476"
    },
    {
      "type": "Feature",
      "properties": {
        "@id": "node/1241590509",
        "ele": "308",
        "name": "Turó de Castellvell",
        "name:ca": "Turó de Castellvell",
        "natural": "peak",
        "source": "Instituto Geográfico Nacional",
        "source:date": "201011",
        "wikidata": "Q17481637",
        "wikipedia": "ca:Turó de Castellvell"
      },
      "geometry": {
        "type": "Point",
        "coordinates": [
          2.6742959,
          41.902382
        ]
      },
      "id": "node/1241590509"
    },
    {
      "type": "Feature",
      "properties": {
        "@id": "node/1241590556",
        "ele": "361.7",
        "name": "Puig de les Conteses",
        "name:ca": "Puig de les Conteses",
        "natural": "peak",
        "source": "Instituto Geográfico Nacional",
        "source:date": "201011",
        "wikidata": "Q11943724",
        "wikipedia": "ca:Puig de les Conteses"
      },
      "geometry": {
        "type": "Point",
        "coordinates": [
          2.953584,
          41.896555
        ]
      },
      "id": "node/1241590556"
    },
    {
      "type": "Feature",
      "properties": {
        "@id": "node/1241590604",
        "ele": "405.7",
        "name": "Puig dels Llamps",
        "name:ca": "Puig dels Llamps",
        "natural": "peak",
        "source": "Instituto Geográfico Nacional",
        "source:date": "201011"
      },
      "geometry": {
        "type": "Point",
        "coordinates": [
          2.9120553,
          41.9214994
        ]
      },
      "id": "node/1241590604"
    },
    {
      "type": "Feature",
      "properties": {
        "@id": "node/1241590622",
        "ele": "283.2",
        "name": "Puig Navic",
        "name:ca": "Puig de Navic",
        "natural": "peak",
        "source": "Instituto Geográfico Nacional",
        "source:date": "201011",
        "wikidata": "Q17482858",
        "wikipedia": "ca:Puig de Navic"
      },
      "geometry": {
        "type": "Point",
        "coordinates": [
          3.1049391,
          41.9187558
        ]
      },
      "id": "node/1241590622"
    },
    {
      "type": "Feature",
      "properties": {
        "@id": "node/1241590631",
        "ele": "1311.7",
        "name": "Turó de Morou",
        "name:ca": "Turó de Morou",
        "natural": "peak",
        "wikidata": "Q7856603",
        "wikipedia": "ca:Turó de Morou"
      },
      "geometry": {
        "type": "Point",
        "coordinates": [
          2.4809527,
          41.7725538
        ]
      },
      "id": "node/1241590631"
    },
    {
      "type": "Feature",
      "properties": {
        "@id": "node/1241590640",
        "ele": "817.1",
        "name": "Turó de Migdia",
        "name:ca": "Turó de Migdia",
        "natural": "peak"
      },
      "geometry": {
        "type": "Point",
        "coordinates": [
          2.3912296,
          41.8643496
        ]
      },
      "id": "node/1241590640"
    },
    {
      "type": "Feature",
      "properties": {
        "@id": "node/1241590655",
        "ele": "108.4",
        "name": "Puig d'en Gotes",
        "name:ca": "Puig d'en Gotes",
        "natural": "peak",
        "source": "Instituto Geográfico Nacional",
        "source:date": "201011",
        "wikidata": "Q17482111",
        "wikipedia": "ca:Puig d'en Gotes"
      },
      "geometry": {
        "type": "Point",
        "coordinates": [
          3.1324941,
          41.889377
        ]
      },
      "id": "node/1241590655"
    },
    {
      "type": "Feature",
      "properties": {
        "@id": "node/1241591090",
        "ele": "212",
        "name": "Tosal de Can Bota",
        "natural": "peak",
        "source": "Instituto Geográfico Nacional",
        "source:date": "201011",
        "wikidata": "Q11952676",
        "wikipedia": "ca:Tossal de Can Bóta"
      },
      "geometry": {
        "type": "Point",
        "coordinates": [
          2.9369999,
          41.8599835
        ]
      },
      "id": "node/1241591090"
    },
    {
      "type": "Feature",
      "properties": {
        "@id": "node/1241591341",
        "ele": "258.7",
        "name": "Puig de la Batería",
        "name:ca": "Puig de la Bateria",
        "natural": "peak",
        "source": "Instituto Geográfico Nacional",
        "source:date": "201011",
        "wikidata": "Q17481328",
        "wikipedia": "ca:Puig de la Bateria"
      },
      "geometry": {
        "type": "Point",
        "coordinates": [
          3.0579866,
          41.8988193
        ]
      },
      "id": "node/1241591341"
    },
    {
      "type": "Feature",
      "properties": {
        "@id": "node/1241591368",
        "ele": "232.6",
        "name": "Turó de Puigmarí",
        "name:ca": "Turó de Puigmarí",
        "natural": "peak",
        "wikidata": "Q6092626",
        "wikipedia": "ca:Turó de Puigmarí"
      },
      "geometry": {
        "type": "Point",
        "coordinates": [
          2.7304165,
          41.7545554
        ]
      },
      "id": "node/1241591368"
    },
    {
      "type": "Feature",
      "properties": {
        "@id": "node/1241591370",
        "ele": "352.2",
        "name": "Puig d'en Figa",
        "name:ca": "Puig d'en Figa",
        "natural": "peak",
        "source": "Instituto Geográfico Nacional",
        "source:date": "201011",
        "wikidata": "Q17481999",
        "wikipedia": "ca:Puig d'en Figa"
      },
      "geometry": {
        "type": "Point",
        "coordinates": [
          2.9128597,
          41.9578976
        ]
      },
      "id": "node/1241591370"
    },
    {
      "type": "Feature",
      "properties": {
        "@id": "node/1241591373",
        "ele": "979.4",
        "name": "Turó de les Basses",
        "name:ca": "Turó de les Basses",
        "natural": "peak"
      },
      "geometry": {
        "type": "Point",
        "coordinates": [
          2.1812413,
          42.1713499
        ]
      },
      "id": "node/1241591373"
    },
    {
      "type": "Feature",
      "properties": {
        "@id": "node/1241591421",
        "ele": "436",
        "name": "Puig de la Sardina",
        "name:ca": "Puig de la Sardina",
        "natural": "peak",
        "source": "Instituto Geográfico Nacional",
        "source:date": "201011"
      },
      "geometry": {
        "type": "Point",
        "coordinates": [
          3.2092455,
          42.2801381
        ]
      },
      "id": "node/1241591421"
    },
    {
      "type": "Feature",
      "properties": {
        "@id": "node/1241591459",
        "ele": "258.9",
        "name": "Puig de les Miloques",
        "name:ca": "Puig de les Miloques",
        "natural": "peak",
        "source": "Instituto Geográfico Nacional",
        "source:date": "201011",
        "wikidata": "Q17483126",
        "wikipedia": "ca:Puig de les Miloques"
      },
      "geometry": {
        "type": "Point",
        "coordinates": [
          2.9057977,
          41.8891407
        ]
      },
      "id": "node/1241591459"
    },
    {
      "type": "Feature",
      "properties": {
        "@id": "node/1241591535",
        "ele": "720.8",
        "name": "Turó Blanc",
        "name:ca": "Turó Blanc",
        "natural": "peak"
      },
      "geometry": {
        "type": "Point",
        "coordinates": [
          2.563635,
          41.9812805
        ]
      },
      "id": "node/1241591535"
    },
    {
      "type": "Feature",
      "properties": {
        "@id": "node/1241591571",
        "alt_name": "Turó del Beier",
        "ele": "892.7",
        "name": "Penya del Gorg Negre",
        "name:ca": "Penya del Gorg Negre",
        "natural": "peak"
      },
      "geometry": {
        "type": "Point",
        "coordinates": [
          2.4881487,
          41.7847823
        ]
      },
      "id": "node/1241591571"
    },
    {
      "type": "Feature",
      "properties": {
        "@id": "node/1241591607",
        "ele": "812",
        "name": "Turó de la Rovira",
        "name:ca": "Turó de la Rovira",
        "natural": "peak",
        "source": "Instituto Geográfico Nacional",
        "source:date": "201011"
      },
      "geometry": {
        "type": "Point",
        "coordinates": [
          2.5645456,
          42.1083957
        ]
      },
      "id": "node/1241591607"
    },
    {
      "type": "Feature",
      "properties": {
        "@id": "node/1241591784",
        "ele": "725.4",
        "name": "Turó de la Rectoria",
        "name:ca": "Turó de la Rectoria",
        "natural": "peak"
      },
      "geometry": {
        "type": "Point",
        "coordinates": [
          2.534649,
          42.119694
        ]
      },
      "id": "node/1241591784"
    },
    {
      "type": "Feature",
      "properties": {
        "@id": "node/1241591798",
        "ele": "114.9",
        "name": "Puig Cabrer",
        "name:ca": "Puig Cabrer",
        "natural": "peak",
        "source": "Instituto Geográfico Nacional",
        "source:date": "201011",
        "wikidata": "Q17301201",
        "wikipedia": "ca:Puig Cabrer"
      },
      "geometry": {
        "type": "Point",
        "coordinates": [
          3.096397,
          41.8669598
        ]
      },
      "id": "node/1241591798"
    },
    {
      "type": "Feature",
      "properties": {
        "@id": "node/1241591805",
        "ele": "119.4",
        "name": "Turó de Sant Pere",
        "name:ca": "Turó de Sant Pere",
        "natural": "peak",
        "wikidata": "Q17483506",
        "wikipedia": "ca:Turó de Sant Pere (Maçanet de la Selva)"
      },
      "geometry": {
        "type": "Point",
        "coordinates": [
          2.6862103,
          41.7569402
        ]
      },
      "id": "node/1241591805"
    },
    {
      "type": "Feature",
      "properties": {
        "@id": "node/1241591815",
        "ele": "866.7",
        "name": "Turó de la Creu",
        "name:ca": "Turó de la Creu",
        "natural": "peak"
      },
      "geometry": {
        "type": "Point",
        "coordinates": [
          2.4136721,
          41.8630649
        ]
      },
      "id": "node/1241591815"
    },
    {
      "type": "Feature",
      "properties": {
        "@id": "node/1241591839",
        "ele": "181.5",
        "name": "Puig Ros",
        "name:ca": "Puig Ros",
        "natural": "peak",
        "source": "Instituto Geográfico Nacional",
        "source:date": "201011",
        "wikidata": "Q11943446",
        "wikipedia": "ca:Puig Ros (Forallac)"
      },
      "geometry": {
        "type": "Point",
        "coordinates": [
          3.0687185,
          41.9356681
        ]
      },
      "id": "node/1241591839"
    },
    {
      "type": "Feature",
      "properties": {
        "@id": "node/1241591883",
        "ele": "1078",
        "name": "Turó d'en Bora",
        "name:ca": "Turó d'en Bora",
        "natural": "peak",
        "source": "Instituto Geográfico Nacional",
        "source:date": "201011"
      },
      "geometry": {
        "type": "Point",
        "coordinates": [
          2.2650624,
          42.1862926
        ]
      },
      "id": "node/1241591883"
    },
    {
      "type": "Feature",
      "properties": {
        "@id": "node/1241592397",
        "ele": "702.0",
        "name": "Turó de Teira",
        "natural": "peak"
      },
      "geometry": {
        "type": "Point",
        "coordinates": [
          2.557078,
          41.8355114
        ]
      },
      "id": "node/1241592397"
    },
    {
      "type": "Feature",
      "properties": {
        "@id": "node/1241592424",
        "ele": "128.7",
        "name": "Puig Ventós d'Anyells",
        "name:ca": "Puig Ventós d'Anyells",
        "natural": "peak"
      },
      "geometry": {
        "type": "Point",
        "coordinates": [
          2.9958421,
          41.9922832
        ]
      },
      "id": "node/1241592424"
    },
    {
      "type": "Feature",
      "properties": {
        "@id": "node/1241592455",
        "ele": "1061.6",
        "name": "Turó de la Rovira",
        "name:ca": "Turó de la Rovira",
        "natural": "peak"
      },
      "geometry": {
        "type": "Point",
        "coordinates": [
          2.4318522,
          41.8805339
        ]
      },
      "id": "node/1241592455"
    },
    {
      "type": "Feature",
      "properties": {
        "@id": "node/1241592492",
        "ele": "137",
        "name": "Puig dels Daus",
        "name:ca": "Puig dels Daus",
        "natural": "peak",
        "source": "Instituto Geográfico Nacional",
        "source:date": "201011",
        "wikidata": "Q17481865",
        "wikipedia": "ca:Puig dels Daus"
      },
      "geometry": {
        "type": "Point",
        "coordinates": [
          3.0732643,
          41.8818345
        ]
      },
      "id": "node/1241592492"
    },
    {
      "type": "Feature",
      "properties": {
        "@id": "node/1241592497",
        "ele": "401.3",
        "name": "el Gurugú",
        "natural": "peak",
        "source": "Instituto Geográfico Nacional",
        "source:date": "201011"
      },
      "geometry": {
        "type": "Point",
        "coordinates": [
          2.6543651,
          42.1443337
        ]
      },
      "id": "node/1241592497"
    },
    {
      "type": "Feature",
      "properties": {
        "@id": "node/1241592505",
        "ele": "429.5",
        "name": "Turó de l'Església",
        "name:ca": "Turó de l'Església",
        "natural": "peak"
      },
      "geometry": {
        "type": "Point",
        "coordinates": [
          2.7122522,
          42.0800101
        ]
      },
      "id": "node/1241592505"
    },
    {
      "type": "Feature",
      "properties": {
        "@id": "node/1241592513",
        "ele": "309.7",
        "name": "Puig Parany",
        "name:ca": "Puig Parany",
        "natural": "peak"
      },
      "geometry": {
        "type": "Point",
        "coordinates": [
          3.0306354,
          41.8365972
        ]
      },
      "id": "node/1241592513"
    },
    {
      "type": "Feature",
      "properties": {
        "@id": "node/1241592525",
        "ele": "488.3",
        "name": "Turó de Can Sieres",
        "name:ca": "Turó de Can Sieres",
        "natural": "peak"
      },
      "geometry": {
        "type": "Point",
        "coordinates": [
          2.7179581,
          42.0767794
        ]
      },
      "id": "node/1241592525"
    },
    {
      "type": "Feature",
      "properties": {
        "@id": "node/1241592772",
        "ele": "497.2",
        "name": "el Tibidabo",
        "name:ca": "el Tibidabo",
        "natural": "peak"
      },
      "geometry": {
        "type": "Point",
        "coordinates": [
          2.5162242,
          41.8322882
        ]
      },
      "id": "node/1241592772"
    },
    {
      "type": "Feature",
      "properties": {
        "@id": "node/1241593089",
        "ele": "135.4",
        "name": "Puig del Duc",
        "name:ca": "Puig del Duc",
        "natural": "peak",
        "source": "Instituto Geográfico Nacional",
        "source:date": "201011"
      },
      "geometry": {
        "type": "Point",
        "coordinates": [
          2.981021,
          41.9422796
        ]
      },
      "id": "node/1241593089"
    },
    {
      "type": "Feature",
      "properties": {
        "@id": "node/1241593198",
        "ele": "1074.3",
        "name": "Turó de Vilarmau",
        "name:ca": "Turó de Vilarmau",
        "natural": "peak",
        "wikidata": "Q17483855",
        "wikipedia": "ca:Turó de Vilarmau"
      },
      "geometry": {
        "type": "Point",
        "coordinates": [
          2.4241357,
          41.8337847
        ]
      },
      "id": "node/1241593198"
    },
    {
      "type": "Feature",
      "properties": {
        "@id": "node/1241593295",
        "ele": "1263.2",
        "name": "la Cornera",
        "name:ca": "la Cornera",
        "natural": "peak",
        "source": "Instituto Geográfico Nacional",
        "source:date": "201011"
      },
      "geometry": {
        "type": "Point",
        "coordinates": [
          2.4801889,
          41.7764392
        ]
      },
      "id": "node/1241593295"
    },
    {
      "type": "Feature",
      "properties": {
        "@id": "node/1241593305",
        "ele": "397.8",
        "name": "Puig d'en Carreres",
        "name:ca": "Puig d'en Carreres",
        "natural": "peak",
        "source": "Instituto Geográfico Nacional",
        "source:date": "201011",
        "wikidata": "Q11943513",
        "wikipedia": "ca:Puig d'en Carreres"
      },
      "geometry": {
        "type": "Point",
        "coordinates": [
          2.9085078,
          41.9201757
        ]
      },
      "id": "node/1241593305"
    },
    {
      "type": "Feature",
      "properties": {
        "@id": "node/1241593340",
        "ele": "141.9",
        "name": "Turó del Pinetell",
        "name:ca": "Turó del Pinetell",
        "natural": "peak"
      },
      "geometry": {
        "type": "Point",
        "coordinates": [
          2.8198473,
          41.8246774
        ]
      },
      "id": "node/1241593340"
    },
    {
      "type": "Feature",
      "properties": {
        "@id": "node/1241593368",
        "ele": "78.3",
        "name": "Puig de ses Figueretes",
        "name:ca": "Puig de ses Figueretes",
        "natural": "peak",
        "source": "Instituto Geográfico Nacional",
        "source:date": "201011"
      },
      "geometry": {
        "type": "Point",
        "coordinates": [
          3.2975661,
          42.3140734
        ]
      },
      "id": "node/1241593368"
    },
    {
      "type": "Feature",
      "properties": {
        "@id": "node/1241593381",
        "ele": "195.7",
        "name": "Puig Agudell",
        "name:ca": "Puig Agudell",
        "natural": "peak",
        "source": "Instituto Geográfico Nacional",
        "source:date": "201011",
        "wikidata": "Q11943326",
        "wikipedia": "ca:Puig Agudell"
      },
      "geometry": {
        "type": "Point",
        "coordinates": [
          3.1272607,
          41.893922
        ]
      },
      "id": "node/1241593381"
    },
    {
      "type": "Feature",
      "properties": {
        "@id": "node/1241593828",
        "ele": "46.5",
        "name": "Puig Maruny",
        "name:ca": "Puig Maruny",
        "natural": "peak"
      },
      "geometry": {
        "type": "Point",
        "coordinates": [
          3.1323064,
          41.8820613
        ]
      },
      "id": "node/1241593828"
    },
    {
      "type": "Feature",
      "properties": {
        "@id": "node/1241594134",
        "ele": "1546",
        "name": "el Cortalet",
        "name:ca": "el Cortalet",
        "natural": "peak",
        "source": "Instituto Geográfico Nacional",
        "source:date": "201011"
      },
      "geometry": {
        "type": "Point",
        "coordinates": [
          1.8598445,
          42.3421684
        ]
      },
      "id": "node/1241594134"
    },
    {
      "type": "Feature",
      "properties": {
        "@id": "node/1241594143",
        "ele": "969.2",
        "name": "Turó de les Franqueses",
        "name:ca": "Turó de les Franqueses",
        "natural": "peak"
      },
      "geometry": {
        "type": "Point",
        "coordinates": [
          2.1597254,
          42.1775817
        ]
      },
      "id": "node/1241594143"
    },
    {
      "type": "Feature",
      "properties": {
        "@id": "node/1241594168",
        "ele": "162.9",
        "name": "Puig de la Bandera",
        "name:ca": "Puig de la Bandera",
        "natural": "peak",
        "source": "Instituto Geográfico Nacional",
        "source:date": "201011",
        "wikidata": "Q11943667",
        "wikipedia": "ca:Puig de la Bandera"
      },
      "geometry": {
        "type": "Point",
        "coordinates": [
          3.1245423,
          41.9325077
        ]
      },
      "id": "node/1241594168"
    },
    {
      "type": "Feature",
      "properties": {
        "@id": "node/1241594300",
        "ele": "192.4",
        "name": "Turó de Fressa",
        "name:ca": "Turó de Fressa",
        "natural": "peak"
      },
      "geometry": {
        "type": "Point",
        "coordinates": [
          2.8808792,
          41.7621654
        ]
      },
      "id": "node/1241594300"
    },
    {
      "type": "Feature",
      "properties": {
        "@id": "node/1241594687",
        "ele": "905.8",
        "name": "Turó de les Cabrades",
        "name:ca": "Turó de les Cabrades",
        "natural": "peak"
      },
      "geometry": {
        "type": "Point",
        "coordinates": [
          2.3640523,
          41.8588222
        ]
      },
      "id": "node/1241594687"
    },
    {
      "type": "Feature",
      "properties": {
        "@id": "node/1241595079",
        "ele": "433",
        "name": "la Roca",
        "name:ca": "la Roca",
        "natural": "peak",
        "source": "Instituto Geográfico Nacional",
        "source:date": "201011"
      },
      "geometry": {
        "type": "Point",
        "coordinates": [
          2.524018,
          41.8247251
        ]
      },
      "id": "node/1241595079"
    },
    {
      "type": "Feature",
      "properties": {
        "@id": "node/1241595099",
        "ele": "269.4",
        "name": "Puig Germà",
        "name:ca": "Puig Germà",
        "natural": "peak",
        "source": "Instituto Geográfico Nacional",
        "source:date": "201011",
        "wikidata": "Q17483137",
        "wikipedia": "ca:Puig Germà"
      },
      "geometry": {
        "type": "Point",
        "coordinates": [
          2.899297,
          41.8938982
        ]
      },
      "id": "node/1241595099"
    },
    {
      "type": "Feature",
      "properties": {
        "@id": "node/1241595549",
        "ele": "244.9",
        "name": "Puig Ferrer",
        "name:ca": "Puig Ferrer",
        "natural": "peak",
        "source": "Instituto Geográfico Nacional",
        "source:date": "201011",
        "wikidata": "Q17481996",
        "wikipedia": "ca:Puig Ferrer (Forallac)"
      },
      "geometry": {
        "type": "Point",
        "coordinates": [
          3.0760543,
          41.9267455
        ]
      },
      "id": "node/1241595549"
    },
    {
      "type": "Feature",
      "properties": {
        "@id": "node/1241595894",
        "ele": "888.4",
        "name": "Turó de la Soleia",
        "name:ca": "Turó de la Soleia",
        "natural": "peak"
      },
      "geometry": {
        "type": "Point",
        "coordinates": [
          2.396275,
          41.858916
        ]
      },
      "id": "node/1241595894"
    },
    {
      "type": "Feature",
      "properties": {
        "@id": "node/1241596126",
        "ele": "149.3",
        "name": "Puig d'en Boix",
        "name:ca": "Puig d'en Boix",
        "natural": "peak",
        "source": "Instituto Geográfico Nacional",
        "source:date": "201011",
        "wikidata": "Q11943508",
        "wikipedia": "ca:Puig d'en Boix"
      },
      "geometry": {
        "type": "Point",
        "coordinates": [
          3.1154323,
          41.8810596
        ]
      },
      "id": "node/1241596126"
    },
    {
      "type": "Feature",
      "properties": {
        "@id": "node/1241596205",
        "ele": "423.1",
        "name": "Puig de la Boïga",
        "name:ca": "Puig de la Boïga",
        "natural": "peak",
        "source": "Instituto Geográfico Nacional",
        "source:date": "201011"
      },
      "geometry": {
        "type": "Point",
        "coordinates": [
          2.955309,
          41.90796
        ]
      },
      "id": "node/1241596205"
    },
    {
      "type": "Feature",
      "properties": {
        "@id": "node/1241596895",
        "ele": "1067.3",
        "name": "Turó de la Telleda",
        "name:ca": "Turó de la Telleda",
        "natural": "peak"
      },
      "geometry": {
        "type": "Point",
        "coordinates": [
          2.4680117,
          41.8883017
        ]
      },
      "id": "node/1241596895"
    },
    {
      "type": "Feature",
      "properties": {
        "@id": "node/1241597266",
        "alt_name": "Turó de Vallsaies",
        "ele": "307.3",
        "name": "Turó de Balçaies",
        "name:ca": "Turó de Balçaies",
        "natural": "peak"
      },
      "geometry": {
        "type": "Point",
        "coordinates": [
          2.8652378,
          41.7477436
        ]
      },
      "id": "node/1241597266"
    },
    {
      "type": "Feature",
      "properties": {
        "@id": "node/1241597587",
        "ele": "442",
        "name": "Turó del Vent",
        "name:ca": "Turó del Vent",
        "natural": "peak",
        "source": "Instituto Geográfico Nacional",
        "source:date": "201011",
        "wikidata": "Q11953758",
        "wikipedia": "ca:Turó del Vent (Santa Coloma de Farners)"
      },
      "geometry": {
        "type": "Point",
        "coordinates": [
          2.6309589,
          41.8612687
        ]
      },
      "id": "node/1241597587"
    },
    {
      "type": "Feature",
      "properties": {
        "@id": "node/1241597640",
        "ele": "134",
        "name": "Puig del Veguer",
        "name:ca": "Puig del Veguer",
        "natural": "peak",
        "source": "Instituto Geográfico Nacional",
        "source:date": "201011"
      },
      "geometry": {
        "type": "Point",
        "coordinates": [
          3.0644734,
          41.8817561
        ]
      },
      "id": "node/1241597640"
    },
    {
      "type": "Feature",
      "properties": {
        "@id": "node/1241597696",
        "ele": "456",
        "name": "la Ruira",
        "natural": "peak",
        "source": "Instituto Geográfico Nacional",
        "source:date": "201011",
        "wikidata": "Q11930771",
        "wikipedia": "ca:La Ruïra (Llagostera)"
      },
      "geometry": {
        "type": "Point",
        "coordinates": [
          2.8839266,
          41.7786537
        ]
      },
      "id": "node/1241597696"
    },
    {
      "type": "Feature",
      "properties": {
        "@id": "node/1241597805",
        "ele": "199.2",
        "name": "Turó de Can Mel",
        "name:ca": "Turó de Can Mel",
        "natural": "peak"
      },
      "geometry": {
        "type": "Point",
        "coordinates": [
          2.656561,
          41.7714719
        ]
      },
      "id": "node/1241597805"
    },
    {
      "type": "Feature",
      "properties": {
        "@id": "node/1241597942",
        "ele": "415.9",
        "name": "Puig d'en Jeroni",
        "name:ca": "Puig d'en Jeroni",
        "natural": "peak",
        "source": "Instituto Geográfico Nacional",
        "source:date": "201011",
        "wikidata": "Q11943526",
        "wikipedia": "ca:Puig d'en Jeroni"
      },
      "geometry": {
        "type": "Point",
        "coordinates": [
          2.9139958,
          41.9288116
        ]
      },
      "id": "node/1241597942"
    },
    {
      "type": "Feature",
      "properties": {
        "@id": "node/1241598302",
        "ele": "1160.8",
        "name": "la Tremoleda",
        "name:ca": "la Tremoleda",
        "natural": "peak"
      },
      "geometry": {
        "type": "Point",
        "coordinates": [
          2.411757,
          41.831465
        ]
      },
      "id": "node/1241598302"
    },
    {
      "type": "Feature",
      "properties": {
        "@id": "node/1241598895",
        "alt_name": "Turó de les Balmes del Soler",
        "ele": "1005.9",
        "name": "Turó del Soler",
        "name:ca": "Turó del Soler",
        "natural": "peak"
      },
      "geometry": {
        "type": "Point",
        "coordinates": [
          2.2070214,
          42.1995828
        ]
      },
      "id": "node/1241598895"
    },
    {
      "type": "Feature",
      "properties": {
        "@id": "node/1241598906",
        "ele": "91.2",
        "name": "Puig d'en Xifre",
        "name:ca": "Puig d'en Xifre",
        "natural": "peak",
        "source": "Instituto Geográfico Nacional",
        "source:date": "201011"
      },
      "geometry": {
        "type": "Point",
        "coordinates": [
          3.1164445,
          41.8631997
        ]
      },
      "id": "node/1241598906"
    },
    {
      "type": "Feature",
      "properties": {
        "@id": "node/1241598911",
        "ele": "837",
        "name": "el Montner",
        "name:ca": "el Montner",
        "natural": "peak",
        "source": "Instituto Geográfico Nacional",
        "source:date": "201011",
        "wikidata": "Q17481905",
        "wikipedia": "ca:El Montner"
      },
      "geometry": {
        "type": "Point",
        "coordinates": [
          2.6554577,
          42.0851771
        ]
      },
      "id": "node/1241598911"
    },
    {
      "type": "Feature",
      "properties": {
        "@id": "node/1241598986",
        "ele": "886.78",
        "name": "Turó de Cal Sastre",
        "name:ca": "Turó de Cal Sastre",
        "natural": "peak"
      },
      "geometry": {
        "type": "Point",
        "coordinates": [
          2.5167153,
          41.8862142
        ]
      },
      "id": "node/1241598986"
    },
    {
      "type": "Feature",
      "properties": {
        "@id": "node/1241599037",
        "ele": "1055.7",
        "name": "Turó dels Cirers",
        "name:ca": "Turó dels Cirers",
        "natural": "peak"
      },
      "geometry": {
        "type": "Point",
        "coordinates": [
          2.2172989,
          42.2014047
        ]
      },
      "id": "node/1241599037"
    },
    {
      "type": "Feature",
      "properties": {
        "@id": "node/1241599077",
        "ele": "536.3",
        "name": "Bodamont",
        "name:ca": "Bodamont",
        "natural": "peak",
        "wikidata": "Q11909546",
        "wikipedia": "ca:Bodamont"
      },
      "geometry": {
        "type": "Point",
        "coordinates": [
          2.4477007,
          42.2303903
        ]
      },
      "id": "node/1241599077"
    },
    {
      "type": "Feature",
      "properties": {
        "@id": "node/1241599252",
        "alt_name": "Turó del Castellar",
        "ele": "213.5",
        "name": "Puig Castellar",
        "name:ca": "Puig Castellar",
        "natural": "peak"
      },
      "geometry": {
        "type": "Point",
        "coordinates": [
          2.8203318,
          41.7812931
        ]
      },
      "id": "node/1241599252"
    },
    {
      "type": "Feature",
      "properties": {
        "@id": "node/1241599498",
        "ele": "290.8",
        "name": "Puig Rodó",
        "name:ca": "Puig Rodó",
        "natural": "peak",
        "wikidata": "Q11943438",
        "wikipedia": "ca:Puig Rodó (Santa Cristina d'Aro)"
      },
      "geometry": {
        "type": "Point",
        "coordinates": [
          3.0238333,
          41.8421976
        ]
      },
      "id": "node/1241599498"
    },
    {
      "type": "Feature",
      "properties": {
        "@id": "node/1241599559",
        "ele": "1988.1",
        "name": "Tossal de la Pia",
        "name:ca": "Tossal de la Pia",
        "natural": "peak",
        "source": "Instituto Geográfico Nacional",
        "source:date": "201011",
        "wikidata": "Q17483004",
        "wikipedia": "ca:Tossal de la Pia"
      },
      "geometry": {
        "type": "Point",
        "coordinates": [
          1.9117309,
          42.3392636
        ]
      },
      "id": "node/1241599559"
    },
    {
      "type": "Feature",
      "properties": {
        "@id": "node/1241599619",
        "ele": "205.8",
        "name": "Puig de la Creu de Castellar",
        "name:ca": "Puig de la Creu de Castellar",
        "natural": "peak",
        "source": "Instituto Geográfico Nacional",
        "source:date": "201011"
      },
      "geometry": {
        "type": "Point",
        "coordinates": [
          3.0606304,
          41.865297
        ]
      },
      "id": "node/1241599619"
    },
    {
      "type": "Feature",
      "properties": {
        "@id": "node/1241599935",
        "name": "Puig de la Sesta",
        "name:ca": "Puig de la Sesta",
        "natural": "peak",
        "source": "Instituto Geográfico Nacional",
        "source:date": "201011"
      },
      "geometry": {
        "type": "Point",
        "coordinates": [
          3.0078669,
          41.9753308
        ]
      },
      "id": "node/1241599935"
    },
    {
      "type": "Feature",
      "properties": {
        "@id": "node/1241600048",
        "ele": "385.4",
        "name": "Puig dels Cristians",
        "name:ca": "Puig dels Cristians",
        "natural": "peak",
        "source": "Instituto Geográfico Nacional",
        "source:date": "201011",
        "wikidata": "Q17481845",
        "wikipedia": "ca:Puig dels Cristians"
      },
      "geometry": {
        "type": "Point",
        "coordinates": [
          2.9087647,
          41.9109768
        ]
      },
      "id": "node/1241600048"
    },