{
  "type": "FeatureCollection",
  "generator": "overpass-turbo",
  "copyright": "The data included in this document is from www.openstreetmap.org. The data is made available under ODbL.",
  "timestamp": "2025-04-22T16:39:01Z",
  "features": [
    {
      "type": "Feature",
      "properties": {
        "@id": "node/26862883",
        "name": "Formigueiros",
        "natural": "peak",
        "wikidata": "Q50382117"
      },
      "geometry": {
        "type": "Point",
        "coordinates": [
          -7.0998659,
          42.6056965
        ]
      },
      "id": "node/26862883"
    },
    {
      "type": "Feature",
      "properties": {
        "@id": "node/469990507",
        "ele": "1260",
        "name": "O Alto de San Roque",
        "natural": "peak"
      },
      "geometry": {
        "type": "Point",
        "coordinates": [
          -7.0838157,
          42.6986521
        ]
      },
      "id": "node/469990507"
    },
    {
      "type": "Feature",
      "properties": {
        "@id": "node/471703983",
        "ele": "910",
        "natural": "peak"
      },
      "geometry": {
        "type": "Point",
        "coordinates": [
          -7.2869616,
          42.7678028
        ]
      },
      "id": "node/471703983"
    },
    {
      "type": "Feature",
      "properties": {
        "@id": "node/575760173",
        "name": "Alto da Fraga da Cerva",
        "natural": "peak",
        "source": "Instituto Geográfico Nacional",
        "source:date": "201011"
      },
      "geometry": {
        "type": "Point",
        "coordinates": [
          -7.12985,
          42.4465914
        ]
      },
      "id": "node/575760173"
    },
    {
      "type": "Feature",
      "properties": {
        "@id": "node/575826574",
        "ele": "1029",
        "name": "Pradairo",
        "natural": "peak"
      },
      "geometry": {
        "type": "Point",
        "coordinates": [
          -7.291556,
          43.0734775
        ]
      },
      "id": "node/575826574"
    },
    {
      "type": "Feature",
      "properties": {
        "@id": "node/575826679",
        "ele": "431.9",
        "name": "Cornería",
        "natural": "peak",
        "source": "Instituto Geográfico Nacional",
        "source:date": "201011"
      },
      "geometry": {
        "type": "Point",
        "coordinates": [
          -7.2939567,
          43.5221051
        ]
      },
      "id": "node/575826679"
    },
    {
      "type": "Feature",
      "properties": {
        "@id": "node/575956435",
        "ele": "656",
        "name": "Marco Rubio",
        "natural": "peak"
      },
      "geometry": {
        "type": "Point",
        "coordinates": [
          -7.329046,
          43.1110862
        ]
      },
      "id": "node/575956435"
    },
    {
      "type": "Feature",
      "properties": {
        "@id": "node/575957719",
        "ele": "1517",
        "name": "A Cabeza Grande",
        "natural": "peak",
        "source": "Instituto Geográfico Nacional",
        "source:date": "201011"
      },
      "geometry": {
        "type": "Point",
        "coordinates": [
          -7.062164,
          42.6284265
        ]
      },
      "id": "node/575957719"
    },
    {
      "type": "Feature",
      "properties": {
        "@id": "node/576375222",
        "natural": "peak"
      },
      "geometry": {
        "type": "Point",
        "coordinates": [
          -7.3751462,
          43.644665
        ]
      },
      "id": "node/576375222"
    },
    {
      "type": "Feature",
      "properties": {
        "@id": "node/576828282",
        "ele": "1859",
        "name": "Corno Maldito",
        "natural": "peak",
        "source": "MTN25",
        "source:date": "201912"
      },
      "geometry": {
        "type": "Point",
        "coordinates": [
          -6.8545629,
          42.8106483
        ]
      },
      "id": "node/576828282"
    },
    {
      "type": "Feature",
      "properties": {
        "@id": "node/576908171",
        "name": "Alto do Val do Castelo",
        "natural": "peak",
        "source": "Instituto Geográfico Nacional",
        "source:date": "201011"
      },
      "geometry": {
        "type": "Point",
        "coordinates": [
          -7.0898423,
          42.4779664
        ]
      },
      "id": "node/576908171"
    },
    {
      "type": "Feature",
      "properties": {
        "@id": "node/576908175",
        "name": "A Cruz das Chas",
        "natural": "peak",
        "source": "Instituto Geográfico Nacional",
        "source:date": "201011"
      },
      "geometry": {
        "type": "Point",
        "coordinates": [
          -7.0933385,
          42.472457
        ]
      },
      "id": "node/576908175"
    },
    {
      "type": "Feature",
      "properties": {
        "@id": "node/576908185",
        "name": "Alto do Pedriño",
        "natural": "peak",
        "source": "Instituto Geográfico Nacional",
        "source:date": "201011"
      },
      "geometry": {
        "type": "Point",
        "coordinates": [
          -7.1000084,
          42.4585772
        ]
      },
      "id": "node/576908185"
    },
    {
      "type": "Feature",
      "properties": {
        "@id": "node/792343473",
        "ele": "877",
        "name": "Pico do Páramo",
        "natural": "peak"
      },
      "geometry": {
        "type": "Point",
        "coordinates": [
          -7.4983801,
          42.8072983
        ]
      },
      "id": "node/792343473"
    },
    {
      "type": "Feature",
      "properties": {
        "@id": "node/869434426",
        "ele": "454",
        "name": "Monte Segade",
        "natural": "peak"
      },
      "geometry": {
        "type": "Point",
        "coordinates": [
          -7.5897485,
          42.9992537
        ]
      },
      "id": "node/869434426"
    },
    {
      "type": "Feature",
      "properties": {
        "@id": "node/877542757",
        "ele": "469",
        "name": "A Croa",
        "natural": "peak",
        "source": "MTN25"
      },
      "geometry": {
        "type": "Point",
        "coordinates": [
          -7.5571514,
          42.9835539
        ]
      },
      "id": "node/877542757"
    },
    {
      "type": "Feature",
      "properties": {
        "@id": "node/877543192",
        "ele": "498",
        "natural": "peak",
        "source": "MTN25"
      },
      "geometry": {
        "type": "Point",
        "coordinates": [
          -7.5716917,
          42.9737824
        ]
      },
      "id": "node/877543192"
    },
    {
      "type": "Feature",
      "properties": {
        "@id": "node/948403085",
        "ele": "413.30",
        "name": "Muro Novo",
        "natural": "peak",
        "wikidata": "Q115506879"
      },
      "geometry": {
        "type": "Point",
        "coordinates": [
          -7.674871,
          43.6972402
        ]
      },
      "id": "node/948403085"
    },
    {
      "type": "Feature",
      "properties": {
        "@id": "node/948403166",
        "ele": "525.40",
        "name": "Castelo",
        "natural": "peak",
        "wikidata": "Q115501237"
      },
      "geometry": {
        "type": "Point",
        "coordinates": [
          -7.6187921,
          43.6069388
        ]
      },
      "id": "node/948403166"
    },
    {
      "type": "Feature",
      "properties": {
        "@id": "node/948404498",
        "ele": "927.50",
        "name": "Guriscado",
        "natural": "peak",
        "wikidata": "Q115504011"
      },
      "geometry": {
        "type": "Point",
        "coordinates": [
          -7.6530444,
          43.4724656
        ]
      },
      "id": "node/948404498"
    },
    {
      "type": "Feature",
      "properties": {
        "@id": "node/948404969",
        "ele": "165.00",
        "name": "Facho",
        "natural": "peak",
        "wikidata": "Q115507041"
      },
      "geometry": {
        "type": "Point",
        "coordinates": [
          -7.6174673,
          43.7132588
        ]
      },
      "id": "node/948404969"
    },
    {
      "type": "Feature",
      "properties": {
        "@id": "node/948405128",
        "ele": "172.90",
        "name": "Pena Rama",
        "natural": "peak",
        "wikidata": "Q115507589"
      },
      "geometry": {
        "type": "Point",
        "coordinates": [
          -7.3805451,
          43.6684696
        ]
      },
      "id": "node/948405128"
    },
    {
      "type": "Feature",
      "properties": {
        "@id": "node/948405768",
        "ele": "588.20",
        "name": "Pedrouzo",
        "natural": "peak",
        "wikidata": "Q115507525"
      },
      "geometry": {
        "type": "Point",
        "coordinates": [
          -7.4199361,
          43.4968641
        ]
      },
      "id": "node/948405768"
    },
    {
      "type": "Feature",
      "properties": {
        "@id": "node/948406103",
        "ele": "771.40",
        "name": "Penido Novo",
        "natural": "peak",
        "wikidata": "Q115507614"
      },
      "geometry": {
        "type": "Point",
        "coordinates": [
          -7.5086395,
          43.5402057
        ]
      },
      "id": "node/948406103"
    },
    {
      "type": "Feature",
      "properties": {
        "@id": "node/948406628",
        "ele": "729.40",
        "name": "A Carballosa",
        "natural": "peak",
        "wikidata": "Q115498687"
      },
      "geometry": {
        "type": "Point",
        "coordinates": [
          -7.6786626,
          43.5237536
        ]
      },
      "id": "node/948406628"
    },
    {
      "type": "Feature",
      "properties": {
        "@id": "node/948406716",
        "ele": "694.70",
        "name": "Vilachá",
        "natural": "peak",
        "wikidata": "Q115511434"
      },
      "geometry": {
        "type": "Point",
        "coordinates": [
          -7.6175563,
          43.5211866
        ]
      },
      "id": "node/948406716"
    },
    {
      "type": "Feature",
      "properties": {
        "@id": "node/948407006",
        "ele": "720.10",
        "name": "Pau da Vella",
        "natural": "peak",
        "wikidata": "Q115507060"
      },
      "geometry": {
        "type": "Point",
        "coordinates": [
          -7.4817613,
          43.5811724
        ]
      },
      "id": "node/948407006"
    },
    {
      "type": "Feature",
      "properties": {
        "@id": "node/948407275",
        "ele": "551.80",
        "name": "Penedo",
        "natural": "peak",
        "wikidata": "Q115507605"
      },
      "geometry": {
        "type": "Point",
        "coordinates": [
          -7.5621479,
          43.6605401
        ]
      },
      "id": "node/948407275"
    },
    {
      "type": "Feature",
      "properties": {
        "@id": "node/948407816",
        "ele": "718.4",
        "name": "Pico",
        "natural": "peak",
        "wikidata": "Q115507067"
      },
      "geometry": {
        "type": "Point",
        "coordinates": [
          -7.4084403,
          43.405404
        ]
      },
      "id": "node/948407816"
    },
    {
      "type": "Feature",
      "properties": {
        "@id": "node/948407829",
        "ele": "815.50",
        "name": "O Bidual",
        "natural": "peak",
        "wikidata": "Q115507017"
      },
      "geometry": {
        "type": "Point",
        "coordinates": [
          -7.453805,
          42.4380019
        ]
      },
      "id": "node/948407829"
    },
    {
      "type": "Feature",
      "properties": {
        "@id": "node/948408389",
        "ele": "347.30",
        "name": "A Medela",
        "natural": "peak",
        "wikidata": "Q115498712"
      },
      "geometry": {
        "type": "Point",
        "coordinates": [
          -7.4708639,
          43.6700913
        ]
      },
      "id": "node/948408389"
    },
    {
      "type": "Feature",
      "properties": {
        "@id": "node/948408497",
        "ele": "512.50",
        "name": "O Padrón",
        "natural": "peak",
        "wikidata": "Q115507058"
      },
      "geometry": {
        "type": "Point",
        "coordinates": [
          -7.6548809,
          43.6458346
        ]
      },
      "id": "node/948408497"
    },
    {
      "type": "Feature",
      "properties": {
        "@id": "node/948408662",
        "ele": "1610.40",
        "name": "Pía Paxaro",
        "natural": "peak"
      },
      "geometry": {
        "type": "Point",
        "coordinates": [
          -7.1439979,
          42.579894
        ]
      },
      "id": "node/948408662"
    },
    {
      "type": "Feature",
      "properties": {
        "@id": "node/948409555",
        "ele": "477.50",
        "name": "Pelobrinco",
        "natural": "peak",
        "wikidata": "Q115507567"
      },
      "geometry": {
        "type": "Point",
        "coordinates": [
          -7.3853881,
          43.6269054
        ]
      },
      "id": "node/948409555"
    },
    {
      "type": "Feature",
      "properties": {
        "@id": "node/948409980",
        "ele": "876.00",
        "name": "O Peñote",
        "natural": "peak",
        "wikidata": "Q115507606"
      },
      "geometry": {
        "type": "Point",
        "coordinates": [
          -7.7115329,
          43.4406745
        ]
      },
      "id": "node/948409980"
    },
    {
      "type": "Feature",
      "properties": {
        "@id": "node/1241730266",
        "name": "A Aguieira",
        "natural": "peak",
        "source": "Instituto Geográfico Nacional",
        "source:date": "201011"
      },
      "geometry": {
        "type": "Point",
        "coordinates": [
          -7.3292402,
          43.5940715
        ]
      },
      "id": "node/1241730266"
    },
    {
      "type": "Feature",
      "properties": {
        "@id": "node/1241731942",
        "ele": "747",
        "name": "Monte Castro",
        "natural": "peak",
        "source": "Instituto Geográfico Nacional",
        "source:date": "201011"
      },
      "geometry": {
        "type": "Point",
        "coordinates": [
          -7.165499,
          43.066937
        ]
      },
      "id": "node/1241731942"
    },
    {
      "type": "Feature",
      "properties": {
        "@id": "node/1241733457",
        "ele": "607",
        "name": "Pico de San Miguel",
        "natural": "peak",
        "source": "Instituto Geográfico Nacional",
        "source:date": "201011"
      },
      "geometry": {
        "type": "Point",
        "coordinates": [
          -7.3412674,
          43.0212545
        ]
      },
      "id": "node/1241733457"
    },
    {
      "type": "Feature",
      "properties": {
        "@id": "node/1241733605",
        "ele": "615",
        "name": "Monte do Castelo",
        "natural": "peak",
        "source": "Instituto Geográfico Nacional",
        "source:date": "201011"
      },
      "geometry": {
        "type": "Point",
        "coordinates": [
          -7.3274747,
          43.03363
        ]
      },
      "id": "node/1241733605"
    },
    {
      "type": "Feature",
      "properties": {
        "@id": "node/1241736479",
        "ele": "918",
        "name": "Alto das Penas",
        "natural": "peak",
        "source": "Instituto Geográfico Nacional",
        "source:date": "201011"
      },
      "geometry": {
        "type": "Point",
        "coordinates": [
          -7.2777922,
          43.0287928
        ]
      },
      "id": "node/1241736479"
    },
    {
      "type": "Feature",
      "properties": {
        "@id": "node/1241743848",
        "ele": "1041",
        "name": "Alto da Pena da Cadela",
        "natural": "peak",
        "source": "local knowledge",
        "source:date": "201011"
      },
      "geometry": {
        "type": "Point",
        "coordinates": [
          -7.5507016,
          43.4994705
        ]
      },
      "id": "node/1241743848"
    },
    {
      "type": "Feature",
      "properties": {
        "@id": "node/1241746106",
        "ele": "1007",
        "name": "Espita Vella",
        "natural": "peak",
        "source": "local knowledge",
        "source:date": "201011"
      },
      "geometry": {
        "type": "Point",
        "coordinates": [
          -7.5436119,
          43.4589012
        ]
      },
      "id": "node/1241746106"
    },
    {
      "type": "Feature",
      "properties": {
        "@id": "node/1241750979",
        "ele": "821",
        "name": "Cruz de Meira",
        "natural": "peak",
        "source": "Instituto Geográfico Nacional",
        "source:date": "201011"
      },
      "geometry": {
        "type": "Point",
        "coordinates": [
          -7.2488667,
          43.2127284
        ]
      },
      "id": "node/1241750979"
    },
    {
      "type": "Feature",
      "properties": {
        "@id": "node/1241751557",
        "ele": "503",
        "name": "Monte Porriños",
        "natural": "peak",
        "source": "Instituto Geográfico Nacional",
        "source:date": "201011"
      },
      "geometry": {
        "type": "Point",
        "coordinates": [
          -7.4988138,
          43.0116103
        ]
      },
      "id": "node/1241751557"
    },
    {
      "type": "Feature",
      "properties": {
        "@id": "node/1241752135",
        "name": "Coto Lagoa",
        "natural": "peak",
        "source": "Instituto Geográfico Nacional",
        "source:date": "201011"
      },
      "geometry": {
        "type": "Point",
        "coordinates": [
          -7.3452014,
          43.5959958
        ]
      },
      "id": "node/1241752135"
    },
    {
      "type": "Feature",
      "properties": {
        "@id": "node/1241753721",
        "ele": "624",
        "name": "Monte Revolta da Cal",
        "natural": "peak",
        "source": "Instituto Geográfico Nacional",
        "source:date": "201011"
      },
      "geometry": {
        "type": "Point",
        "coordinates": [
          -7.3370902,
          43.0199698
        ]
      },
      "id": "node/1241753721"
    },
    {
      "type": "Feature",
      "properties": {
        "@id": "node/1241759573",
        "ele": "1016",
        "name": "Monte Chao Grande",
        "natural": "peak",
        "source": "Instituto Geográfico Nacional",
        "source:date": "201011"
      },
      "geometry": {
        "type": "Point",
        "coordinates": [
          -6.9924711,
          43.1415135
        ]
      },
      "id": "node/1241759573"
    },
    {
      "type": "Feature",
      "properties": {
        "@id": "node/1241762621",
        "ele": "933",
        "name": "Alto de Paradanova",
        "natural": "peak",
        "source": "Instituto Geográfico Nacional",
        "source:date": "201011"
      },
      "geometry": {
        "type": "Point",
        "coordinates": [
          -7.0512591,
          43.1308528
        ]
      },
      "id": "node/1241762621"
    },
    {
      "type": "Feature",
      "properties": {
        "@id": "node/1241764001",
        "ele": "902",
        "name": "Cochón",
        "natural": "peak",
        "source": "local knowledge",
        "source:date": "201011"
      },
      "geometry": {
        "type": "Point",
        "coordinates": [
          -7.5679216,
          43.4849795
        ]
      },
      "id": "node/1241764001"
    },
    {
      "type": "Feature",
      "properties": {
        "@id": "node/1241765697",
        "ele": "503",
        "name": "Alto do Pereiro",
        "natural": "peak",
        "source": "Instituto Geográfico Nacional",
        "source:date": "201011"
      },
      "geometry": {
        "type": "Point",
        "coordinates": [
          -7.3742747,
          43.0118844
        ]
      },
      "id": "node/1241765697"
    },
    {
      "type": "Feature",
      "properties": {
        "@id": "node/1241772898",
        "ele": "1002",
        "name": "Sameón",
        "natural": "peak",
        "source": "local knowledge",
        "source:date": "201011"
      },
      "geometry": {
        "type": "Point",
        "coordinates": [
          -7.5709095,
          43.4765234
        ]
      },
      "id": "node/1241772898"
    },
    {
      "type": "Feature",
      "properties": {
        "@id": "node/1241777830",
        "ele": "823",
        "name": "O Coto",
        "natural": "peak",
        "source": "Instituto Geográfico Nacional",
        "source:date": "201011"
      },
      "geometry": {
        "type": "Point",
        "coordinates": [
          -7.2861127,
          43.0147614
        ]
      },
      "id": "node/1241777830"
    },
    {
      "type": "Feature",
      "properties": {
        "@id": "node/1241780346",
        "ele": "877",
        "name": "Martareña",
        "natural": "peak",
        "source": "Instituto Geográfico Nacional;local knowledge",
        "source:date": "201011"
      },
      "geometry": {
        "type": "Point",
        "coordinates": [
          -7.5805272,
          43.4785443
        ]
      },
      "id": "node/1241780346"
    },
    {
      "type": "Feature",
      "properties": {
        "@id": "node/1241781219",
        "ele": "577",
        "name": "Altos do Cazón",
        "natural": "peak",
        "source": "Instituto Geográfico Nacional",
        "source:date": "201011"
      },
      "geometry": {
        "type": "Point",
        "coordinates": [
          -7.3496971,
          43.0124747
        ]
      },
      "id": "node/1241781219"
    },
    {
      "type": "Feature",
      "properties": {
        "@id": "node/1241833472",
        "name": "Alto de Campelín",
        "natural": "peak",
        "source:date": "201011"
      },
      "geometry": {
        "type": "Point",
        "coordinates": [
          -6.9527912,
          42.878822
        ]
      },
      "id": "node/1241833472"
    },
    {
      "type": "Feature",
      "properties": {
        "@id": "node/1250016973",
        "name": "Pico Grande",
        "natural": "peak",
        "source": "Instituto Geográfico Nacional",
        "source:date": "201011"
      },
      "geometry": {
        "type": "Point",
        "coordinates": [
          -7.0380807,
          42.6361914
        ]
      },
      "id": "node/1250016973"
    },
    {
      "type": "Feature",
      "properties": {
        "@id": "node/1250018356",
        "ele": "1870",
        "name": "Pena Longa",
        "natural": "peak",
        "source": "MTN25",
        "source:date": "201912"
      },
      "geometry": {
        "type": "Point",
        "coordinates": [
          -6.8421613,
          42.8325108
        ]
      },
      "id": "node/1250018356"
    },
    {
      "type": "Feature",
      "properties": {
        "@id": "node/1250030209",
        "ele": "1867",
        "name": "Pico de Lagos",
        "natural": "peak",
        "source": "MTN25",
        "source:date": "201912"
      },
      "geometry": {
        "type": "Point",
        "coordinates": [
          -6.8522908,
          42.8184712
        ]
      },
      "id": "node/1250030209"
    },
    {
      "type": "Feature",
      "properties": {
        "@id": "node/1250031367",
        "name": "Lastredo de Mazais",
        "natural": "peak",
        "source": "Instituto Geográfico Nacional",
        "source:date": "201011"
      },
      "geometry": {
        "type": "Point",
        "coordinates": [
          -7.0627264,
          42.5533295
        ]
      },
      "id": "node/1250031367"
    },
    {
      "type": "Feature",
      "properties": {
        "@id": "node/1250039385",
        "ele": "1786",
        "name": "Os Penedos de Donís",
        "natural": "peak",
        "source": "MTN25",
        "source:date": "201912"
      },
      "geometry": {
        "type": "Point",
        "coordinates": [
          -6.8656758,
          42.8048899
        ]
      },
      "id": "node/1250039385"
    },
    {
      "type": "Feature",
      "properties": {
        "@id": "node/1250039935",
        "ele": "1796",
        "name": "Pico dos Charcos",
        "natural": "peak",
        "source": "MTN25",
        "source:date": "201912"
      },
      "geometry": {
        "type": "Point",
        "coordinates": [
          -6.8601706,
          42.8079716
        ]
      },
      "id": "node/1250039935"
    },
    {
      "type": "Feature",
      "properties": {
        "@id": "node/1260542249",
        "name": "Busbeirón",
        "natural": "peak"
      },
      "geometry": {
        "type": "Point",
        "coordinates": [
          -6.8409618,
          43.1160277
        ]
      },
      "id": "node/1260542249"
    },
    {
      "type": "Feature",
      "properties": {
        "@id": "node/1260553794",
        "ele": "476",
        "name": "Pico dos Cachaparros",
        "natural": "peak"
      },
      "geometry": {
        "type": "Point",
        "coordinates": [
          -7.1308534,
          43.3647417
        ]
      },
      "id": "node/1260553794"
    },
    {
      "type": "Feature",
      "properties": {
        "@id": "node/1304105551",
        "name": "Pico de Casoiros",
        "natural": "peak",
        "source": "Instituto Geográfico Nacional",
        "source:date": "201011"
      },
      "geometry": {
        "type": "Point",
        "coordinates": [
          -6.9609281,
          42.9328046
        ]
      },
      "id": "node/1304105551"
    },
    {
      "type": "Feature",
      "properties": {
        "@id": "node/1304105660",
        "name": "Cabeza Grande",
        "natural": "peak",
        "source": "Instituto Geográfico Nacional",
        "source:date": "201011"
      },
      "geometry": {
        "type": "Point",
        "coordinates": [
          -7.1426218,
          42.7081944
        ]
      },
      "id": "node/1304105660"
    },
    {
      "type": "Feature",
      "properties": {
        "@id": "node/1304105784",
        "name": "Pena da Edra",
        "natural": "peak",
        "source": "Instituto Geográfico Nacional",
        "source:date": "201011"
      },
      "geometry": {
        "type": "Point",
        "coordinates": [
          -7.1580221,
          42.8021771
        ]
      },
      "id": "node/1304105784"
    },
    {
      "type": "Feature",
      "properties": {
        "@id": "node/1304105905",
        "name": "Pico do Coto",
        "natural": "peak",
        "source": "Instituto Geográfico Nacional",
        "source:date": "201011"
      },
      "geometry": {
        "type": "Point",
        "coordinates": [
          -7.1793607,
          42.6008015
        ]
      },
      "id": "node/1304105905"
    },
    {
      "type": "Feature",
      "properties": {
        "@id": "node/1304106137",
        "name": "Pico da Serra",
        "natural": "peak",
        "source": "Instituto Geográfico Nacional",
        "source:date": "201011"
      },
      "geometry": {
        "type": "Point",
        "coordinates": [
          -7.2075346,
          43.3717863
        ]
      },
      "id": "node/1304106137"
    },
    {
      "type": "Feature",
      "properties": {
        "@id": "node/1304106355",
        "name": "A Coroa",
        "natural": "peak",
        "source": "Instituto Geográfico Nacional",
        "source:date": "201011"
      },
      "geometry": {
        "type": "Point",
        "coordinates": [
          -7.1346706,
          42.7648858
        ]
      },
      "id": "node/1304106355"
    },
    {
      "type": "Feature",
      "properties": {
        "@id": "node/1304106383",
        "name": "Pena do Ouroso",
        "natural": "peak",
        "source": "Instituto Geográfico Nacional",
        "source:date": "201011"
      },
      "geometry": {
        "type": "Point",
        "coordinates": [
          -7.0810983,
          42.5681108
        ]
      },
      "id": "node/1304106383"
    },
    {
      "type": "Feature",
      "properties": {
        "@id": "node/1304106474",
        "ele": "924",
        "name": "Pena Ferrolla",
        "natural": "peak",
        "source": "Instituto Geográfico Nacional",
        "source:date": "201011"
      },
      "geometry": {
        "type": "Point",
        "coordinates": [
          -7.2097935,
          43.0146775
        ]
      },
      "id": "node/1304106474"
    },
    {
      "type": "Feature",
      "properties": {
        "@id": "node/1304106596",
        "name": "Pena Lamela",
        "natural": "peak",
        "source": "Instituto Geográfico Nacional",
        "source:date": "201011"
      },
      "geometry": {
        "type": "Point",
        "coordinates": [
          -7.0383584,
          42.7337161
        ]
      },
      "id": "node/1304106596"
    },
    {
      "type": "Feature",
      "properties": {
        "@id": "node/1304106660",
        "name": "O Penouco",
        "natural": "peak",
        "source": "Instituto Geográfico Nacional",
        "source:date": "201011"
      },
      "geometry": {
        "type": "Point",
        "coordinates": [
          -7.069545,
          42.5664395
        ]
      },
      "id": "node/1304106660"
    },
    {
      "type": "Feature",
      "properties": {
        "@id": "node/1304106880",
        "name": "Pico da Lagoa",
        "natural": "peak",
        "source": "Instituto Geográfico Nacional",
        "source:date": "201011"
      },
      "geometry": {
        "type": "Point",
        "coordinates": [
          -6.9541835,
          43.1309156
        ]
      },
      "id": "node/1304106880"
    },
    {
      "type": "Feature",
      "properties": {
        "@id": "node/1304107003",
        "name": "Alto de Virín",
        "natural": "peak",
        "source": "Instituto Geográfico Nacional",
        "source:date": "201011"
      },
      "geometry": {
        "type": "Point",
        "coordinates": [
          -7.316011,
          43.5241967
        ]
      },
      "id": "node/1304107003"
    },
    {
      "type": "Feature",
      "properties": {
        "@id": "node/1304107233",
        "man_made": "survey_point",
        "name": "Pico Silloso",
        "natural": "peak",
        "source": "Instituto Geográfico Nacional",
        "source:date": "201011"
      },
      "geometry": {
        "type": "Point",
        "coordinates": [
          -7.4302923,
          43.4793206
        ]
      },
      "id": "node/1304107233"
    },
    {
      "type": "Feature",
      "properties": {
        "@id": "node/1304107549",
        "name": "Pico do Polvoreiro",
        "natural": "peak",
        "source": "Instituto Geográfico Nacional",
        "source:date": "201011"
      },
      "geometry": {
        "type": "Point",
        "coordinates": [
          -7.241963,
          42.7153814
        ]
      },
      "id": "node/1304107549"
    },
    {
      "type": "Feature",
      "properties": {
        "@id": "node/1304107765",
        "name": "A Pena Redonda",
        "natural": "peak",
        "source": "Instituto Geográfico Nacional",
        "source:date": "201011"
      },
      "geometry": {
        "type": "Point",
        "coordinates": [
          -7.0309253,
          42.6395447
        ]
      },
      "id": "node/1304107765"
    },
    {
      "type": "Feature",
      "properties": {
        "@id": "node/1304108067",
        "name": "Pico da Cadeira",
        "natural": "peak",
        "source": "Instituto Geográfico Nacional",
        "source:date": "201011"
      },
      "geometry": {
        "type": "Point",
        "coordinates": [
          -7.2453549,
          43.4573279
        ]
      },
      "id": "node/1304108067"
    },
    {
      "type": "Feature",
      "properties": {
        "@id": "node/1304108260",
        "name": "Pico das Mallas",
        "natural": "peak",
        "source": "Instituto Geográfico Nacional",
        "source:date": "201011"
      },
      "geometry": {
        "type": "Point",
        "coordinates": [
          -7.6701919,
          43.0761392
        ]
      },
      "id": "node/1304108260"
    },
    {
      "type": "Feature",
      "properties": {
        "@id": "node/1304108281",
        "name": "Pena Asureira",
        "natural": "peak",
        "source": "Instituto Geográfico Nacional",
        "source:date": "201011"
      },
      "geometry": {
        "type": "Point",
        "coordinates": [
          -7.1818065,
          42.68579
        ]
      },
      "id": "node/1304108281"
    },
    {
      "type": "Feature",
      "properties": {
        "@id": "node/1304108467",
        "name": "A Torca",
        "natural": "peak",
        "source": "Instituto Geográfico Nacional",
        "source:date": "201011"
      },
      "geometry": {
        "type": "Point",
        "coordinates": [
          -7.149753,
          42.5195932
        ]
      },
      "id": "node/1304108467"
    },
    {
      "type": "Feature",
      "properties": {
        "@id": "node/1304108617",
        "name": "Pena da Cabra",
        "natural": "peak",
        "source": "Instituto Geográfico Nacional",
        "source:date": "201011"
      },
      "geometry": {
        "type": "Point",
        "coordinates": [
          -7.71565,
          43.0863294
        ]
      },
      "id": "node/1304108617"
    },
    {
      "type": "Feature",
      "properties": {
        "@id": "node/1304108875",
        "name": "O Picón",
        "natural": "peak",
        "source": "Instituto Geográfico Nacional",
        "source:date": "201011"
      },
      "geometry": {
        "type": "Point",
        "coordinates": [
          -7.0354666,
          42.6556882
        ]
      },
      "id": "node/1304108875"
    },
    {
      "type": "Feature",
      "properties": {
        "@id": "node/1304109212",
        "ele": "1118",
        "name": "Penas da Arqueira",
        "natural": "peak",
        "source": "Instituto Geográfico Nacional",
        "source:date": "201011"
      },
      "geometry": {
        "type": "Point",
        "coordinates": [
          -7.0553611,
          42.7955932
        ]
      },
      "id": "node/1304109212"
    },
    {
      "type": "Feature",
      "properties": {
        "@id": "node/1304109537",
        "name": "Pena do Caldeiro",
        "natural": "peak",
        "source": "Instituto Geográfico Nacional",
        "source:date": "201011"
      },
      "geometry": {
        "type": "Point",
        "coordinates": [
          -7.4767839,
          43.3896815
        ]
      },
      "id": "node/1304109537"
    },
    {
      "type": "Feature",
      "properties": {
        "@id": "node/1304109807",
        "ele": "1202",
        "name": "Alto do Cotrellón",
        "natural": "peak",
        "source": "Instituto Geográfico Nacional",
        "source:date": "201011"
      },
      "geometry": {
        "type": "Point",
        "coordinates": [
          -6.964292,
          42.7662823
        ]
      },
      "id": "node/1304109807"
    },
    {
      "type": "Feature",
      "properties": {
        "@id": "node/1304109836",
        "name": "Teso dos Garbanzos",
        "natural": "peak",
        "source": "Instituto Geográfico Nacional",
        "source:date": "201011"
      },
      "geometry": {
        "type": "Point",
        "coordinates": [
          -7.1287882,
          42.7182351
        ]
      },
      "id": "node/1304109836"
    },
    {
      "type": "Feature",
      "properties": {
        "@id": "node/1304109956",
        "name": "Alto do Cabreiro",
        "natural": "peak",
        "source": "Instituto Geográfico Nacional",
        "source:date": "201011"
      },
      "geometry": {
        "type": "Point",
        "coordinates": [
          -7.112197,
          42.5030136
        ]
      },
      "id": "node/1304109956"
    },
    {
      "type": "Feature",
      "properties": {
        "@id": "node/1304110089",
        "name": "Pena de Parada",
        "natural": "peak",
        "source": "Instituto Geográfico Nacional",
        "source:date": "201011"
      },
      "geometry": {
        "type": "Point",
        "coordinates": [
          -7.2155883,
          43.0166818
        ]
      },
      "id": "node/1304110089"
    },
    {
      "type": "Feature",
      "properties": {
        "@id": "node/1304110152",
        "ele": "933",
        "name": "Pena da Raia",
        "natural": "peak",
        "source": "Instituto Geográfico Nacional",
        "source:date": "201011"
      },
      "geometry": {
        "type": "Point",
        "coordinates": [
          -7.2444346,
          43.0904367
        ]
      },
      "id": "node/1304110152"
    },
    {
      "type": "Feature",
      "properties": {
        "@id": "node/1304110302",
        "name": "Teso de Fieiró",
        "natural": "peak",
        "source": "Instituto Geográfico Nacional",
        "source:date": "201011"
      },
      "geometry": {
        "type": "Point",
        "coordinates": [
          -6.9057705,
          42.8186405
        ]
      },
      "id": "node/1304110302"
    },
    {
      "type": "Feature",
      "properties": {
        "@id": "node/1304110373",
        "name": "O Pico",
        "natural": "peak",
        "source": "Instituto Geográfico Nacional",
        "source:date": "201011"
      },
      "geometry": {
        "type": "Point",
        "coordinates": [
          -7.2000083,
          42.4087784
        ]
      },
      "id": "node/1304110373"
    },
    {
      "type": "Feature",
      "properties": {
        "@id": "node/1304110525",
        "name": "Pico do Muradal",
        "natural": "peak",
        "source": "Instituto Geográfico Nacional",
        "source:date": "201011"
      },
      "geometry": {
        "type": "Point",
        "coordinates": [
          -7.154876,
          43.1195443
        ]
      },
      "id": "node/1304110525"
    },
    {
      "type": "Feature",
      "properties": {
        "@id": "node/1304110836",
        "name": "Pena do Neboeiro",
        "natural": "peak",
        "source": "Instituto Geográfico Nacional",
        "source:date": "201011"
      },
      "geometry": {
        "type": "Point",
        "coordinates": [
          -7.5466611,
          42.662642
        ]
      },
      "id": "node/1304110836"
    },
    {
      "type": "Feature",
      "properties": {
        "@id": "node/1304110870",
        "man_made": "survey_point",
        "name": "Pico da Pena Muñeitez",
        "natural": "peak",
        "source": "Instituto Geográfico Nacional",
        "source:date": "201011"
      },
      "geometry": {
        "type": "Point",
        "coordinates": [
          -7.4508578,
          43.4646991
        ]
      },
      "id": "node/1304110870"
    },
    {
      "type": "Feature",
      "properties": {
        "@id": "node/1304111244",
        "name": "Torre de Muriscal",
        "natural": "peak",
        "source": "Instituto Geográfico Nacional",
        "source:date": "201011"
      },
      "geometry": {
        "type": "Point",
        "coordinates": [
          -7.46953,
          42.8239883
        ]
      },
      "id": "node/1304111244"
    },
    {
      "type": "Feature",
      "properties": {
        "@id": "node/1304111402",
        "name": "A Burreira",
        "natural": "peak",
        "source": "Instituto Geográfico Nacional",
        "source:date": "201011"
      },
      "geometry": {
        "type": "Point",
        "coordinates": [
          -7.1441018,
          42.5649384
        ]
      },
      "id": "node/1304111402"
    },
    {
      "type": "Feature",
      "properties": {
        "@id": "node/1304111574",
        "name": "Pico da Lebre",
        "natural": "peak",
        "source": "Instituto Geográfico Nacional",
        "source:date": "201011"
      },
      "geometry": {
        "type": "Point",
        "coordinates": [
          -7.4112299,
          43.4517656
        ]
      },
      "id": "node/1304111574"
    },
    {
      "type": "Feature",
      "properties": {
        "@id": "node/1304111708",
        "name": "Alto da Areeira",
        "natural": "peak",
        "source": "Instituto Geográfico Nacional",
        "source:date": "201011"
      },
      "geometry": {
        "type": "Point",
        "coordinates": [
          -7.3055745,
          43.5384778
        ]
      },
      "id": "node/1304111708"
    },
    {
      "type": "Feature",
      "properties": {
        "@id": "node/1304111720",
        "ele": "1383",
        "name": "Pico do Corvo",
        "natural": "peak",
        "source": "MTN25",
        "source:date": "201912"
      },
      "geometry": {
        "type": "Point",
        "coordinates": [
          -7.1483962,
          42.7308094
        ]
      },
      "id": "node/1304111720"
    },
    {
      "type": "Feature",
      "properties": {
        "@id": "node/1304111784",
        "name": "Pico do Pozo",
        "natural": "peak",
        "source": "Instituto Geográfico Nacional",
        "source:date": "201011"
      },
      "geometry": {
        "type": "Point",
        "coordinates": [
          -7.1439777,
          42.5785125
        ]
      },
      "id": "node/1304111784"
    },
    {
      "type": "Feature",
      "properties": {
        "@id": "node/1304111818",
        "name": "Pico da Cruz",
        "natural": "peak",
        "source": "Instituto Geográfico Nacional",
        "source:date": "201011"
      },
      "geometry": {
        "type": "Point",
        "coordinates": [
          -7.0759044,
          43.1903434
        ]
      },
      "id": "node/1304111818"
    },
    {
      "type": "Feature",
      "properties": {
        "@id": "node/1304111829",
        "name": "Alto das Corgas",
        "natural": "peak",
        "source": "Instituto Geográfico Nacional",
        "source:date": "201011"
      },
      "geometry": {
        "type": "Point",
        "coordinates": [
          -7.1524152,
          42.4275452
        ]
      },
      "id": "node/1304111829"
    },
    {
      "type": "Feature",
      "properties": {
        "@id": "node/1304111948",
        "name": "O Mallón",
        "natural": "peak",
        "source": "Instituto Geográfico Nacional",
        "source:date": "201011"
      },
      "geometry": {
        "type": "Point",
        "coordinates": [
          -7.1199386,
          42.5950505
        ]
      },
      "id": "node/1304111948"
    },
    {
      "type": "Feature",
      "properties": {
        "@id": "node/1304111981",
        "name": "A Picota de San Miguel",
        "natural": "peak",
        "source": "Instituto Geográfico Nacional",
        "source:date": "201011"
      },
      "geometry": {
        "type": "Point",
        "coordinates": [
          -7.7315351,
          42.4713595
        ]
      },
      "id": "node/1304111981"
    },
    {
      "type": "Feature",
      "properties": {
        "@id": "node/1304112117",
        "name": "Teso da Lama Figueiro",
        "natural": "peak",
        "source": "Instituto Geográfico Nacional",
        "source:date": "201011"
      },
      "geometry": {
        "type": "Point",
        "coordinates": [
          -7.1420712,
          42.8091634
        ]
      },
      "id": "node/1304112117"
    },
    {
      "type": "Feature",
      "properties": {
        "@id": "node/1304112286",
        "ele": "852",
        "name": "Alto da Neveira",
        "natural": "peak",
        "source": "MTN25",
        "source:date": "201912"
      },
      "geometry": {
        "type": "Point",
        "coordinates": [
          -7.6734053,
          43.4178698
        ]
      },
      "id": "node/1304112286"
    },
    {
      "type": "Feature",
      "properties": {
        "@id": "node/1304112646",
        "name": "Fieiró de Deva",
        "natural": "peak",
        "source": "Instituto Geográfico Nacional",
        "source:date": "201011"
      },
      "geometry": {
        "type": "Point",
        "coordinates": [
          -6.8898802,
          42.7942928
        ]
      },
      "id": "node/1304112646"
    },
    {
      "type": "Feature",
      "properties": {
        "@id": "node/1304112672",
        "name": "Pena Forcada",
        "natural": "peak",
        "source": "Instituto Geográfico Nacional",
        "source:date": "201011"
      },
      "geometry": {
        "type": "Point",
        "coordinates": [
          -7.2249691,
          43.1602831
        ]
      },
      "id": "node/1304112672"
    },
    {
      "type": "Feature",
      "properties": {
        "@id": "node/1304112757",
        "name": "Picoto da Cova Ladrón",
        "natural": "peak",
        "source": "Instituto Geográfico Nacional",
        "source:date": "201011"
      },
      "geometry": {
        "type": "Point",
        "coordinates": [
          -7.1017698,
          42.5109553
        ]
      },
      "id": "node/1304112757"
    },
    {
      "type": "Feature",
      "properties": {
        "@id": "node/1304112985",
        "ele": "891",
        "name": "O Carbedo",
        "natural": "peak",
        "source": "Instituto Geográfico Nacional",
        "source:date": "201011"
      },
      "geometry": {
        "type": "Point",
        "coordinates": [
          -6.9805885,
          42.7768418
        ]
      },
      "id": "node/1304112985"
    },
    {
      "type": "Feature",
      "properties": {
        "@id": "node/1304113007",
        "name": "Pena do Pegureiro",
        "natural": "peak",
        "source": "Instituto Geográfico Nacional",
        "source:date": "201011"
      },
      "geometry": {
        "type": "Point",
        "coordinates": [
          -7.2232971,
          42.4774137
        ]
      },
      "id": "node/1304113007"
    },
    {
      "type": "Feature",
      "properties": {
        "@id": "node/1304113093",
        "name": "O Pico de Brañas",
        "natural": "peak"
      },
      "geometry": {
        "type": "Point",
        "coordinates": [
          -6.9456315,
          42.868722
        ]
      },
      "id": "node/1304113093"
    },
    {
      "type": "Feature",
      "properties": {
        "@id": "node/1304113331",
        "name": "Pena Abelleira",
        "natural": "peak",
        "source": "Instituto Geográfico Nacional",
        "source:date": "201011"
      },
      "geometry": {
        "type": "Point",
        "coordinates": [
          -7.1844882,
          43.5305537
        ]
      },
      "id": "node/1304113331"
    },
    {
      "type": "Feature",
      "properties": {
        "@id": "node/1304113408",
        "ele": "717",
        "name": "Pena da Lama",
        "natural": "peak",
        "source": "Instituto Geográfico Nacional",
        "source:date": "201011"
      },
      "geometry": {
        "type": "Point",
        "coordinates": [
          -7.5369674,
          42.6540264
        ]
      },
      "id": "node/1304113408"
    },
    {
      "type": "Feature",
      "properties": {
        "@id": "node/1304113454",
        "name": "Carrizo O",
        "natural": "peak",
        "source": "Instituto Geográfico Nacional",
        "source:date": "201011"
      },
      "geometry": {
        "type": "Point",
        "coordinates": [
          -7.7331729,
          43.3431664
        ]
      },
      "id": "node/1304113454"
    },
    {
      "type": "Feature",
      "properties": {
        "@id": "node/1304113496",
        "name": "Pena do Longo",
        "natural": "peak",
        "source": "Instituto Geográfico Nacional",
        "source:date": "201011"
      },
      "geometry": {
        "type": "Point",
        "coordinates": [
          -7.1778238,
          42.3997643
        ]
      },
      "id": "node/1304113496"
    },
    {
      "type": "Feature",
      "properties": {
        "@id": "node/1304113759",
        "name": "A Pena de Belairo",
        "natural": "peak"
      },
      "geometry": {
        "type": "Point",
        "coordinates": [
          -6.9428512,
          42.8691314
        ]
      },
      "id": "node/1304113759"
    },
    {
      "type": "Feature",
      "properties": {
        "@id": "node/1304113936",
        "name": "Pico dos Corvos",
        "natural": "peak",
        "source": "Instituto Geográfico Nacional",
        "source:date": "201011"
      },
      "geometry": {
        "type": "Point",
        "coordinates": [
          -7.0859409,
          42.6031415
        ]
      },
      "id": "node/1304113936"
    },
    {
      "type": "Feature",
      "properties": {
        "@id": "node/1304114116",
        "name": "Pico Axilde",
        "natural": "peak",
        "source": "Instituto Geográfico Nacional",
        "source:date": "201011"
      },
      "geometry": {
        "type": "Point",
        "coordinates": [
          -7.1360243,
          43.4638373
        ]
      },
      "id": "node/1304114116"
    },
    {
      "type": "Feature",
      "properties": {
        "@id": "node/1304114422",
        "ele": "1641",
        "name": "Pico de Bois",
        "natural": "peak",
        "source": "MTN25",
        "source:date": "201801"
      },
      "geometry": {
        "type": "Point",
        "coordinates": [
          -6.8840083,
          42.8097968
        ]
      },
      "id": "node/1304114422"
    },
    {
      "type": "Feature",
      "properties": {
        "@id": "node/1304114560",
        "name": "A Lagúa",
        "natural": "peak",
        "source": "Instituto Geográfico Nacional",
        "source:date": "201011"
      },
      "geometry": {
        "type": "Point",
        "coordinates": [
          -7.18371,
          42.5618591
        ]
      },
      "id": "node/1304114560"
    },
    {
      "type": "Feature",
      "properties": {
        "@id": "node/1304114694",
        "alt_name": "Meira",
        "ele": "892",
        "name": "Pico do Forno de Martín",
        "natural": "peak",
        "source": "MTN25",
        "source:date": "201912"
      },
      "geometry": {
        "type": "Point",
        "coordinates": [
          -7.2499663,
          43.2195922
        ]
      },
      "id": "node/1304114694"
    },
    {
      "type": "Feature",
      "properties": {
        "@id": "node/1304114813",
        "name": "Pico de Pinzas",
        "natural": "peak",
        "source": "Instituto Geográfico Nacional",
        "source:date": "201011"
      },
      "geometry": {
        "type": "Point",
        "coordinates": [
          -7.1514928,
          42.6206622
        ]
      },
      "id": "node/1304114813"
    },
    {
      "type": "Feature",
      "properties": {
        "@id": "node/1304114851",
        "name": "Cabaluda",
        "natural": "peak",
        "source": "Instituto Geográfico Nacional",
        "source:date": "201011"
      },
      "geometry": {
        "type": "Point",
        "coordinates": [
          -7.1750677,
          42.5749867
        ]
      },
      "id": "node/1304114851"
    },
    {
      "type": "Feature",
      "properties": {
        "@id": "node/1304114993",
        "name": "Penas de Libria",
        "natural": "peak",
        "source": "Instituto Geográfico Nacional",
        "source:date": "201011"
      },
      "geometry": {
        "type": "Point",
        "coordinates": [
          -6.8434207,
          43.1512396
        ]
      },
      "id": "node/1304114993"
    },
    {
      "type": "Feature",
      "properties": {
        "@id": "node/1304115250",
        "name": "Pena da Puxeta",
        "natural": "peak",
        "source": "Instituto Geográfico Nacional",
        "source:date": "201011"
      },
      "geometry": {
        "type": "Point",
        "coordinates": [
          -7.585654,
          43.4721271
        ]
      },
      "id": "node/1304115250"
    },
    {
      "type": "Feature",
      "properties": {
        "@id": "node/1304115438",
        "name": "Pico da Legua",
        "natural": "peak",
        "source": "Instituto Geográfico Nacional",
        "source:date": "201011"
      },
      "geometry": {
        "type": "Point",
        "coordinates": [
          -6.9707308,
          42.8008218
        ]
      },
      "id": "node/1304115438"
    },
    {
      "type": "Feature",
      "properties": {
        "@id": "node/1304115637",
        "name": "Pena do Viso",
        "natural": "peak",
        "source": "Instituto Geográfico Nacional",
        "source:date": "201011"
      },
      "geometry": {
        "type": "Point",
        "coordinates": [
          -7.0801003,
          42.6468187
        ]
      },
      "id": "node/1304115637"
    },
    {
      "type": "Feature",
      "properties": {
        "@id": "node/1304115902",
        "ele": "958",
        "name": "Pico de Padornelo",
        "natural": "peak",
        "source": "Instituto Geográfico Nacional",
        "source:date": "201011"
      },
      "geometry": {
        "type": "Point",
        "coordinates": [
          -7.1942632,
          43.0897818
        ]
      },
      "id": "node/1304115902"
    },
    {
      "type": "Feature",
      "properties": {
        "@id": "node/1304116430",
        "name": "Pena da Cabra",
        "natural": "peak",
        "source": "Instituto Geográfico Nacional",
        "source:date": "201011"
      },
      "geometry": {
        "type": "Point",
        "coordinates": [
          -7.1594428,
          42.7393515
        ]
      },
      "id": "node/1304116430"
    },
    {
      "type": "Feature",
      "properties": {
        "@id": "node/1304116618",
        "name": "Alto das Arandeiras",
        "natural": "peak",
        "source": "Instituto Geográfico Nacional",
        "source:date": "201011"
      },
      "geometry": {
        "type": "Point",
        "coordinates": [
          -7.3121694,
          42.4447519
        ]
      },
      "id": "node/1304116618"
    },
    {
      "type": "Feature",
      "properties": {
        "@id": "node/1304116937",
        "name": "Pico da Labrada",
        "natural": "peak",
        "source": "Instituto Geográfico Nacional",
        "source:date": "201011"
      },
      "geometry": {
        "type": "Point",
        "coordinates": [
          -7.0463542,
          42.9166093
        ]
      },
      "id": "node/1304116937"
    },
    {
      "type": "Feature",
      "properties": {
        "@id": "node/1304117066",
        "name": "O Castelo",
        "natural": "peak",
        "source": "Instituto Geográfico Nacional",
        "source:date": "201011"
      },
      "geometry": {
        "type": "Point",
        "coordinates": [
          -7.4649112,
          42.4150457
        ]
      },
      "id": "node/1304117066"
    },
    {
      "type": "Feature",
      "properties": {
        "@id": "node/1304117311",
        "name": "Cabeza do Pico",
        "natural": "peak",
        "source": "Instituto Geográfico Nacional",
        "source:date": "201011"
      },
      "geometry": {
        "type": "Point",
        "coordinates": [
          -7.077944,
          42.6766758
        ]
      },
      "id": "node/1304117311"
    },
    {
      "type": "Feature",
      "properties": {
        "@id": "node/1304117391",
        "ele": "937",
        "name": "O Carranco",
        "natural": "peak",
        "source": "MTN25",
        "source:date": "201912"
      },
      "geometry": {
        "type": "Point",
        "coordinates": [
          -7.548655,
          43.4274435
        ]
      },
      "id": "node/1304117391"
    },
    {
      "type": "Feature",
      "properties": {
        "@id": "node/1304117738",
        "name": "Pico da Legua",
        "natural": "peak",
        "source": "Instituto Geográfico Nacional",
        "source:date": "201011"
      },
      "geometry": {
        "type": "Point",
        "coordinates": [
          -6.8697628,
          42.8948448
        ]
      },
      "id": "node/1304117738"
    },
    {
      "type": "Feature",
      "properties": {
        "@id": "node/1304118001",
        "name": "Pico de Cereixido",
        "natural": "peak",
        "source": "Instituto Geográfico Nacional",
        "source:date": "201011"
      },
      "geometry": {
        "type": "Point",
        "coordinates": [
          -7.0592088,
          42.6015478
        ]
      },
      "id": "node/1304118001"
    },
    {
      "type": "Feature",
      "properties": {
        "@id": "node/1304118240",
        "ele": "434",
        "name": "Pena do Lobo",
        "natural": "peak",
        "source": "Instituto Geográfico Nacional",
        "source:date": "201011"
      },
      "geometry": {
        "type": "Point",
        "coordinates": [
          -7.1675256,
          43.4309678
        ]
      },
      "id": "node/1304118240"
    },
    {
      "type": "Feature",
      "properties": {
        "@id": "node/1304118618",
        "name": "Pena da Laxe",
        "natural": "peak",
        "source": "Instituto Geográfico Nacional",
        "source:date": "201011"
      },
      "geometry": {
        "type": "Point",
        "coordinates": [
          -6.9745008,
          42.8286611
        ]
      },
      "id": "node/1304118618"
    },
    {
      "type": "Feature",
      "properties": {
        "@id": "node/1304118716",
        "name": "Pena dos Picos",
        "natural": "peak",
        "source": "Instituto Geográfico Nacional",
        "source:date": "201011"
      },
      "geometry": {
        "type": "Point",
        "coordinates": [
          -7.0871283,
          42.5679233
        ]
      },
      "id": "node/1304118716"
    },
    {
      "type": "Feature",
      "properties": {
        "@id": "node/1304119199",
        "ele": "395",
        "name": "Pico Chao",
        "natural": "peak",
        "source": "Instituto Geográfico Nacional",
        "source:date": "201011"
      },
      "geometry": {
        "type": "Point",
        "coordinates": [
          -7.1371067,
          43.3539755
        ]
      },
      "id": "node/1304119199"
    },
    {
      "type": "Feature",
      "properties": {
        "@id": "node/1304119214",
        "name": "Alto da Poza",
        "natural": "peak",
        "source": "Instituto Geográfico Nacional",
        "source:date": "201011"
      },
      "geometry": {
        "type": "Point",
        "coordinates": [
          -7.0881017,
          42.4837654
        ]
      },
      "id": "node/1304119214"
    },
    {
      "type": "Feature",
      "properties": {
        "@id": "node/1304119434",
        "name": "A Mallada Nova",
        "natural": "peak",
        "source": "Instituto Geográfico Nacional",
        "source:date": "201011"
      },
      "geometry": {
        "type": "Point",
        "coordinates": [
          -7.1373332,
          42.5859962
        ]
      },
      "id": "node/1304119434"
    },
    {
      "type": "Feature",
      "properties": {
        "@id": "node/1304119554",
        "name": "A Cogoluda",
        "natural": "peak",
        "source": "Instituto Geográfico Nacional",
        "source:date": "201011"
      },
      "geometry": {
        "type": "Point",
        "coordinates": [
          -7.108107,
          42.5788261
        ]
      },
      "id": "node/1304119554"
    },
    {
      "type": "Feature",
      "properties": {
        "@id": "node/1304119789",
        "name": "Pena Escrita",
        "natural": "peak",
        "source": "Instituto Geográfico Nacional",
        "source:date": "201011"
      },
      "geometry": {
        "type": "Point",
        "coordinates": [
          -7.1725475,
          43.048645
        ]
      },
      "id": "node/1304119789"
    },
    {
      "type": "Feature",
      "properties": {
        "@id": "node/1304120138",
        "name": "Pico do Castelo",
        "natural": "peak",
        "source": "Instituto Geográfico Nacional",
        "source:date": "201011"
      },
      "geometry": {
        "type": "Point",
        "coordinates": [
          -7.7275185,
          43.4271691
        ]
      },
      "id": "node/1304120138"
    },
    {
      "type": "Feature",
      "properties": {
        "@id": "node/1304120375",
        "name": "Pico Groba da Cal",
        "natural": "peak",
        "source": "Instituto Geográfico Nacional",
        "source:date": "201011"
      },
      "geometry": {
        "type": "Point",
        "coordinates": [
          -6.9135177,
          42.8007256
        ]
      },
      "id": "node/1304120375"
    },
    {
      "type": "Feature",
      "properties": {
        "@id": "node/1304120483",
        "name": "Pico da Cabra",
        "natural": "peak",
        "source": "Instituto Geográfico Nacional",
        "source:date": "201011"
      },
      "geometry": {
        "type": "Point",
        "coordinates": [
          -7.0718556,
          42.5898924
        ]
      },
      "id": "node/1304120483"
    },
    {
      "type": "Feature",
      "properties": {
        "@id": "node/1304120635",
        "name": "O Pico do Foxo",
        "natural": "peak",
        "source": "Instituto Geográfico Nacional",
        "source:date": "201011"
      },
      "geometry": {
        "type": "Point",
        "coordinates": [
          -7.3660787,
          43.3512002
        ]
      },
      "id": "node/1304120635"
    },
    {
      "type": "Feature",
      "properties": {
        "@id": "node/1304120868",
        "name": "A Pena da Verdade",
        "natural": "peak",
        "source": "Instituto Geográfico Nacional",
        "source:date": "201011"
      },
      "geometry": {
        "type": "Point",
        "coordinates": [
          -7.0633436,
          42.7021009
        ]
      },
      "id": "node/1304120868"
    },
    {
      "type": "Feature",
      "properties": {
        "@id": "node/1304121096",
        "name": "Pico da Costa",
        "natural": "peak",
        "source": "Instituto Geográfico Nacional",
        "source:date": "201011"
      },
      "geometry": {
        "type": "Point",
        "coordinates": [
          -7.483047,
          42.4577765
        ]
      },
      "id": "node/1304121096"
    },
    {
      "type": "Feature",
      "properties": {
        "@id": "node/1304121242",
        "name": "Pico do Castro",
        "natural": "peak",
        "source": "Instituto Geográfico Nacional",
        "source:date": "201011"
      },
      "geometry": {
        "type": "Point",
        "coordinates": [
          -7.1216007,
          42.8570493
        ]
      },
      "id": "node/1304121242"
    },
    {
      "type": "Feature",
      "properties": {
        "@id": "node/1304121550",
        "name": "Pena Golada",
        "natural": "peak",
        "source": "Instituto Geográfico Nacional",
        "source:date": "201011"
      },
      "geometry": {
        "type": "Point",
        "coordinates": [
          -7.0427366,
          42.7230386
        ]
      },
      "id": "node/1304121550"
    },
    {
      "type": "Feature",
      "properties": {
        "@id": "node/1304121942",
        "name": "A Pena do Corgo",
        "natural": "peak",
        "source": "Instituto Geográfico Nacional",
        "source:date": "201011"
      },
      "geometry": {
        "type": "Point",
        "coordinates": [
          -7.0737658,
          42.8201939
        ]
      },
      "id": "node/1304121942"
    },
    {
      "type": "Feature",
      "properties": {
        "@id": "node/1304122285",
        "name": "Pena das Aigas",
        "natural": "peak",
        "source": "Instituto Geográfico Nacional",
        "source:date": "201011"
      },
      "geometry": {
        "type": "Point",
        "coordinates": [
          -7.0754008,
          42.6277347
        ]
      },
      "id": "node/1304122285"
    },
    {
      "type": "Feature",
      "properties": {
        "@id": "node/1304122696",
        "name": "Pico Becerreira",
        "natural": "peak",
        "source": "Instituto Geográfico Nacional",
        "source:date": "201011"
      },
      "geometry": {
        "type": "Point",
        "coordinates": [
          -7.3117738,
          43.3641522
        ]
      },
      "id": "node/1304122696"
    },
    {
      "type": "Feature",
      "properties": {
        "@id": "node/1304123200",
        "ele": "1037",
        "name": "Alto da Coroa",
        "natural": "peak",
        "source": "Instituto Geográfico Nacional",
        "source:date": "201011"
      },
      "geometry": {
        "type": "Point",
        "coordinates": [
          -6.980172,
          42.7519575
        ]
      },
      "id": "node/1304123200"
    },
    {
      "type": "Feature",
      "properties": {
        "@id": "node/1304123421",
        "name": "Pena da Pala",
        "natural": "peak",
        "source": "Instituto Geográfico Nacional",
        "source:date": "201011"
      },
      "geometry": {
        "type": "Point",
        "coordinates": [
          -7.0712593,
          42.5807779
        ]
      },
      "id": "node/1304123421"
    },
    {
      "type": "Feature",
      "properties": {
        "@id": "node/1304123660",
        "name": "Pena do Ramallo",
        "natural": "peak",
        "source": "Instituto Geográfico Nacional",
        "source:date": "201011"
      },
      "geometry": {
        "type": "Point",
        "coordinates": [
          -7.218304,
          43.0157066
        ]
      },
      "id": "node/1304123660"
    },
    {
      "type": "Feature",
      "properties": {
        "@id": "node/1304124168",
        "name": "Pena dos Cortillíns",
        "natural": "peak",
        "source": "Instituto Geográfico Nacional",
        "source:date": "201011"
      },
      "geometry": {
        "type": "Point",
        "coordinates": [
          -7.0503797,
          42.7326058
        ]
      },
      "id": "node/1304124168"
    },
    {
      "type": "Feature",
      "properties": {
        "@id": "node/1304124342",
        "name": "O Penedo do Val",
        "natural": "peak",
        "source": "Instituto Geográfico Nacional",
        "source:date": "201011"
      },
      "geometry": {
        "type": "Point",
        "coordinates": [
          -7.0751778,
          42.5617756
        ]
      },
      "id": "node/1304124342"
    },
    {
      "type": "Feature",
      "properties": {
        "@id": "node/1304124580",
        "ele": "1047",
        "name": "Pico da Cendadella",
        "natural": "peak",
        "source": "Instituto Geográfico Nacional",
        "source:date": "201011"
      },
      "geometry": {
        "type": "Point",
        "coordinates": [
          -6.9978308,
          43.1347747
        ]
      },
      "id": "node/1304124580"
    },
    {
      "type": "Feature",
      "properties": {
        "@id": "node/1304124734",
        "name": "Pena do Buitre",
        "natural": "peak",
        "source": "Instituto Geográfico Nacional",
        "source:date": "201011"
      },
      "geometry": {
        "type": "Point",
        "coordinates": [
          -7.3297745,
          43.5204475
        ]
      },
      "id": "node/1304124734"
    },
    {
      "type": "Feature",
      "properties": {
        "@id": "node/1304125024",
        "ele": "646",
        "name": "O Pico",
        "natural": "peak",
        "source": "Instituto Geográfico Nacional",
        "source:date": "201011"
      },
      "geometry": {
        "type": "Point",
        "coordinates": [
          -7.757763,
          43.4356313
        ]
      },
      "id": "node/1304125024"
    },
    {
      "type": "Feature",
      "properties": {
        "@id": "node/1304125372",
        "name": "O Pico de Santa Irene",
        "natural": "peak",
        "source": "Instituto Geográfico Nacional",
        "source:date": "201011"
      },
      "geometry": {
        "type": "Point",
        "coordinates": [
          -7.2606952,
          42.7943027
        ]
      },
      "id": "node/1304125372"
    },
    {
      "type": "Feature",
      "properties": {
        "@id": "node/1304125604",
        "name": "Pico da Lameira",
        "natural": "peak",
        "source": "Instituto Geográfico Nacional",
        "source:date": "201011"
      },
      "geometry": {
        "type": "Point",
        "coordinates": [
          -7.0889044,
          42.5975176
        ]
      },
      "id": "node/1304125604"
    },
    {
      "type": "Feature",
      "properties": {
        "@id": "node/1304125974",
        "man_made": "survey_point",
        "name": "Pico de Castro de Flores",
        "natural": "peak",
        "source": "Instituto Geográfico Nacional",
        "source:date": "201011"
      },
      "geometry": {
        "type": "Point",
        "coordinates": [
          -7.3236161,
          43.4602035
        ]
      },
      "id": "node/1304125974"
    },
    {
      "type": "Feature",
      "properties": {
        "@id": "node/1304126425",
        "man_made": "survey_point",
        "name": "Pico Paraños",
        "natural": "peak",
        "source": "Instituto Geográfico Nacional",
        "source:date": "201011"
      },
      "geometry": {
        "type": "Point",
        "coordinates": [
          -7.4261194,
          43.4485679
        ]
      },
      "id": "node/1304126425"
    },
    {
      "type": "Feature",
      "properties": {
        "@id": "node/1304126475",
        "name": "O Teso da Cruz",
        "natural": "peak",
        "source": "Instituto Geográfico Nacional",
        "source:date": "201011"
      },
      "geometry": {
        "type": "Point",
        "coordinates": [
          -7.0478544,
          42.704608
        ]
      },
      "id": "node/1304126475"
    },
    {
      "type": "Feature",
      "properties": {
        "@id": "node/1304126759",
        "name": "Pico da Serrada",
        "natural": "peak",
        "source": "Instituto Geográfico Nacional",
        "source:date": "201011"
      },
      "geometry": {
        "type": "Point",
        "coordinates": [
          -7.0888725,
          42.5139828
        ]
      },
      "id": "node/1304126759"
    },
    {
      "type": "Feature",
      "properties": {
        "@id": "node/1304127260",
        "name": "Pico da Arqueira",
        "natural": "peak",
        "source": "Instituto Geográfico Nacional",
        "source:date": "201011"
      },
      "geometry": {
        "type": "Point",
        "coordinates": [
          -6.9082796,
          42.9809757
        ]
      },
      "id": "node/1304127260"
    },
    {
      "type": "Feature",
      "properties": {
        "@id": "node/1304127587",
        "name": "Alto de Murelos",
        "natural": "peak",
        "source": "Instituto Geográfico Nacional",
        "source:date": "201011"
      },
      "geometry": {
        "type": "Point",
        "coordinates": [
          -7.1234793,
          42.5838879
        ]
      },
      "id": "node/1304127587"
    },
    {
      "type": "Feature",
      "properties": {
        "@id": "node/1304127913",
        "ele": "1249",
        "name": "Alto de Busmaior",
        "natural": "peak",
        "source": "Instituto Geográfico Nacional",
        "source:date": "201011"
      },
      "geometry": {
        "type": "Point",
        "coordinates": [
          -7.0270589,
          42.7738338
        ]
      },
      "id": "node/1304127913"
    },
    {
      "type": "Feature",
      "properties": {
        "@id": "node/1304128393",
        "name": "Pena da Auga",
        "natural": "peak",
        "source": "Instituto Geográfico Nacional",
        "source:date": "201011"
      },
      "geometry": {
        "type": "Point",
        "coordinates": [
          -7.5171688,
          43.375562
        ]
      },
      "id": "node/1304128393"
    },
    {
      "type": "Feature",
      "properties": {
        "@id": "node/1304128890",
        "ele": "1249",
        "name": "Pena da Formigosa",
        "natural": "peak",
        "source": "Instituto Geográfico Nacional",
        "source:date": "201011"
      },
      "geometry": {
        "type": "Point",
        "coordinates": [
          -7.0254882,
          42.7641351
        ]
      },
      "id": "node/1304128890"
    },
    {
      "type": "Feature",
      "properties": {
        "@id": "node/1304129093",
        "name": "Cumio de Gorguluxeira",
        "natural": "peak",
        "source": "Instituto Geográfico Nacional",
        "source:date": "201011"
      },
      "geometry": {
        "type": "Point",
        "coordinates": [
          -7.108471,
          42.5083195
        ]
      },
      "id": "node/1304129093"
    },
    {
      "type": "Feature",
      "properties": {
        "@id": "node/1304129314",
        "ele": "908",
        "name": "Pena Petada",
        "natural": "peak",
        "source": "MTN25",
        "source:date": "201912"
      },
      "geometry": {
        "type": "Point",
        "coordinates": [
          -7.2634741,
          43.0038994
        ]
      },
      "id": "node/1304129314"
    },
    {
      "type": "Feature",
      "properties": {
        "@id": "node/1304129566",
        "name": "Pena do Tarol",
        "natural": "peak",
        "source": "Instituto Geográfico Nacional",
        "source:date": "201011"
      },
      "geometry": {
        "type": "Point",
        "coordinates": [
          -7.098274,
          42.7075217
        ]
      },
      "id": "node/1304129566"
    },
    {
      "type": "Feature",
      "properties": {
        "@id": "node/1304129643",
        "name": "Pico de Arcas",
        "natural": "peak",
        "source": "Instituto Geográfico Nacional",
        "source:date": "201011"
      },
      "geometry": {
        "type": "Point",
        "coordinates": [
          -7.3031096,
          42.4848465
        ]
      },
      "id": "node/1304129643"
    },
    {
      "type": "Feature",
      "properties": {
        "@id": "node/1304129895",
        "name": "Pico Medorra",
        "natural": "peak",
        "source": "Instituto Geográfico Nacional",
        "source:date": "201011"
      },
      "geometry": {
        "type": "Point",
        "coordinates": [
          -7.0214997,
          43.15861
        ]
      },
      "id": "node/1304129895"
    },
    {
      "type": "Feature",
      "properties": {
        "@id": "node/1304130276",
        "man_made": "survey_point",
        "name": "Pena Corveira",
        "natural": "peak",
        "source": "Instituto Geográfico Nacional",
        "source:date": "201011"
      },
      "geometry": {
        "type": "Point",
        "coordinates": [
          -7.3986483,
          43.459721
        ]
      },
      "id": "node/1304130276"
    },
    {
      "type": "Feature",
      "properties": {
        "@id": "node/1304130457",
        "name": "Teixo do Sobreporeiras",
        "natural": "peak",
        "source": "Instituto Geográfico Nacional",
        "source:date": "201011"
      },
      "geometry": {
        "type": "Point",
        "coordinates": [
          -6.8524966,
          42.9011317
        ]
      },
      "id": "node/1304130457"
    },
    {
      "type": "Feature",
      "properties": {
        "@id": "node/1304130659",
        "name": "Cabeza do Couto",
        "natural": "peak",
        "source": "Instituto Geográfico Nacional",
        "source:date": "201011"
      },
      "geometry": {
        "type": "Point",
        "coordinates": [
          -7.0910194,
          42.6220474
        ]
      },
      "id": "node/1304130659"
    },
    {
      "type": "Feature",
      "properties": {
        "@id": "node/1304131010",
        "name": "Pico de San Xoán",
        "natural": "peak",
        "source": "Instituto Geográfico Nacional",
        "source:date": "201011"
      },
      "geometry": {
        "type": "Point",
        "coordinates": [
          -7.1968339,
          43.4849903
        ]
      },
      "id": "node/1304131010"
    },
    {
      "type": "Feature",
      "properties": {
        "@id": "node/1304131310",
        "name": "Pico da Lomba",
        "natural": "peak",
        "source": "Instituto Geográfico Nacional",
        "source:date": "201011"
      },
      "geometry": {
        "type": "Point",
        "coordinates": [
          -7.2758192,
          43.5032296
        ]
      },
      "id": "node/1304131310"
    },
    {
      "type": "Feature",
      "properties": {
        "@id": "node/1304131337",
        "ele": "1344",
        "name": "Pena do Pico",
        "natural": "peak",
        "source": "MTN25",
        "source:date": "201912"
      },
      "geometry": {
        "type": "Point",
        "coordinates": [
          -7.153868,
          42.7338028
        ]
      },
      "id": "node/1304131337"
    },
    {
      "type": "Feature",
      "properties": {
        "@id": "node/1304131481",
        "name": "Cu de Galo",
        "natural": "peak",
        "source": "Instituto Geográfico Nacional",
        "source:date": "201011"
      },
      "geometry": {
        "type": "Point",
        "coordinates": [
          -7.1112056,
          42.5621632
        ]
      },
      "id": "node/1304131481"
    },
    {
      "type": "Feature",
      "properties": {
        "@id": "node/1304131733",
        "ele": "964",
        "name": "Pico da Reboleira",
        "natural": "peak",
        "source": "Instituto Geográfico Nacional",
        "source:date": "201011"
      },
      "geometry": {
        "type": "Point",
        "coordinates": [
          -7.1901889,
          43.0841975
        ]
      },
      "id": "node/1304131733"
    },
    {
      "type": "Feature",
      "properties": {
        "@id": "node/1304132156",
        "name": "Teso das Papoulas",
        "natural": "peak",
        "source": "Instituto Geográfico Nacional",
        "source:date": "201011"
      },
      "geometry": {
        "type": "Point",
        "coordinates": [
          -7.10835,
          42.6014066
        ]
      },
      "id": "node/1304132156"
    },
    {
      "type": "Feature",
      "properties": {
        "@id": "node/1304132675",
        "ele": "1054",
        "name": "Pena Crespa",
        "natural": "peak",
        "source": "Instituto Geográfico Nacional",
        "source:date": "201011"
      },
      "geometry": {
        "type": "Point",
        "coordinates": [
          -7.0745496,
          42.8045157
        ]
      },
      "id": "node/1304132675"
    },
    {
      "type": "Feature",
      "properties": {
        "@id": "node/1304132995",
        "ele": "925",
        "name": "Pico Pequeno",
        "natural": "peak",
        "source": "local knowledge",
        "source:date": "201011"
      },
      "geometry": {
        "type": "Point",
        "coordinates": [
          -7.5651612,
          43.489115
        ]
      },
      "id": "node/1304132995"
    },
    {
      "type": "Feature",
      "properties": {
        "@id": "node/1304133193",
        "name": "Pena Branca",
        "natural": "peak",
        "source": "Instituto Geográfico Nacional",
        "source:date": "201011"
      },
      "geometry": {
        "type": "Point",
        "coordinates": [
          -6.9241628,
          42.7500912
        ]
      },
      "id": "node/1304133193"
    },
    {
      "type": "Feature",
      "properties": {
        "@id": "node/1304133256",
        "name": "Rinán",
        "natural": "peak",
        "source": "Instituto Geográfico Nacional",
        "source:date": "201011"
      },
      "geometry": {
        "type": "Point",
        "coordinates": [
          -7.0872138,
          42.5116947
        ]
      },
      "id": "node/1304133256"
    },
    {
      "type": "Feature",
      "properties": {
        "@id": "node/1304133340",
        "ele": "905",
        "name": "Pena Cerrada",
        "natural": "peak",
        "source": "Instituto Geográfico Nacional",
        "source:date": "201011"
      },
      "geometry": {
        "type": "Point",
        "coordinates": [
          -7.2381506,
          43.0816324
        ]
      },
      "id": "node/1304133340"
    },
    {
      "type": "Feature",
      "properties": {
        "@id": "node/1304133492",
        "ele": "1221",
        "name": "Pena do Carromato",
        "natural": "peak",
        "source": "Instituto Geográfico Nacional",
        "source:date": "201011"
      },
      "geometry": {
        "type": "Point",
        "coordinates": [
          -7.0328406,
          42.748891
        ]
      },
      "id": "node/1304133492"
    },
    {
      "type": "Feature",
      "properties": {
        "@id": "node/1304133519",
        "name": "Cabeza do Pau",
        "natural": "peak",
        "source": "Instituto Geográfico Nacional",
        "source:date": "201011"
      },
      "geometry": {
        "type": "Point",
        "coordinates": [
          -7.1910207,
          42.4242347
        ]
      },
      "id": "node/1304133519"
    },
    {
      "type": "Feature",
      "properties": {
        "@id": "node/1304133549",
        "name": "Pico do Terredo",
        "natural": "peak",
        "source": "Instituto Geográfico Nacional",
        "source:date": "201011"
      },
      "geometry": {
        "type": "Point",
        "coordinates": [
          -6.8599134,
          42.8991725
        ]
      },
      "id": "node/1304133549"
    },
    {
      "type": "Feature",
      "properties": {
        "@id": "node/1304133668",
        "name": "Pena da Choia",
        "natural": "peak",
        "source": "Instituto Geográfico Nacional",
        "source:date": "201011"
      },
      "geometry": {
        "type": "Point",
        "coordinates": [
          -7.532766,
          42.6376186
        ]
      },
      "id": "node/1304133668"
    },
    {
      "type": "Feature",
      "properties": {
        "@id": "node/1304133681",
        "name": "Alto da Lagúa",
        "natural": "peak",
        "source": "Instituto Geográfico Nacional",
        "source:date": "201011"
      },
      "geometry": {
        "type": "Point",
        "coordinates": [
          -7.1433895,
          42.4812438
        ]
      },
      "id": "node/1304133681"
    },
    {
      "type": "Feature",
      "properties": {
        "@id": "node/1304133718",
        "name": "Pico do Agulleiro",
        "natural": "peak",
        "source": "Instituto Geográfico Nacional",
        "source:date": "201011"
      },
      "geometry": {
        "type": "Point",
        "coordinates": [
          -6.8696686,
          42.8356627
        ]
      },
      "id": "node/1304133718"
    },
    {
      "type": "Feature",
      "properties": {
        "@id": "node/1304133813",
        "name": "Fonte de Cais",
        "natural": "peak",
        "source": "Instituto Geográfico Nacional",
        "source:date": "201011"
      },
      "geometry": {
        "type": "Point",
        "coordinates": [
          -7.0743075,
          42.5521371
        ]
      },
      "id": "node/1304133813"
    },
    {
      "type": "Feature",
      "properties": {
        "@id": "node/1304133866",
        "name": "Alto de Liñeiras",
        "natural": "peak",
        "source": "Instituto Geográfico Nacional",
        "source:date": "201011"
      },
      "geometry": {
        "type": "Point",
        "coordinates": [
          -7.2374251,
          43.4298872
        ]
      },
      "id": "node/1304133866"
    },
    {
      "type": "Feature",
      "properties": {
        "@id": "node/1304133914",
        "name": "Pico da Arqueira",
        "natural": "peak",
        "source": "Instituto Geográfico Nacional",
        "source:date": "201011"
      },
      "geometry": {
        "type": "Point",
        "coordinates": [
          -6.9377147,
          42.7967577
        ]
      },
      "id": "node/1304133914"
    },
    {
      "type": "Feature",
      "properties": {
        "@id": "node/1304133938",
        "name": "Alto do Val",
        "natural": "peak",
        "source": "Instituto Geográfico Nacional",
        "source:date": "201011"
      },
      "geometry": {
        "type": "Point",
        "coordinates": [
          -7.142302,
          42.5692908
        ]
      },
      "id": "node/1304133938"
    },
    {
      "type": "Feature",
      "properties": {
        "@id": "node/1304133955",
        "name": "Pena de Lodairo",
        "natural": "peak",
        "source": "Instituto Geográfico Nacional",
        "source:date": "201011"
      },
      "geometry": {
        "type": "Point",
        "coordinates": [
          -7.7346653,
          43.095438
        ]
      },
      "id": "node/1304133955"
    },
    {
      "type": "Feature",
      "properties": {
        "@id": "node/1304134098",
        "name": "A Buzaqueria",
        "natural": "peak",
        "source": "Instituto Geográfico Nacional",
        "source:date": "201011"
      },
      "geometry": {
        "type": "Point",
        "coordinates": [
          -7.1314367,
          42.5932756
        ]
      },
      "id": "node/1304134098"
    },
    {
      "type": "Feature",
      "properties": {
        "@id": "node/1304134123",
        "name": "Alto da Bastida",
        "natural": "peak",
        "source": "Instituto Geográfico Nacional",
        "source:date": "201011"
      },
      "geometry": {
        "type": "Point",
        "coordinates": [
          -7.5545943,
          42.4974889
        ]
      },
      "id": "node/1304134123"
    },
    {
      "type": "Feature",
      "properties": {
        "@id": "node/1304134207",
        "ele": "1043",
        "name": "Alto da Bidueira",
        "natural": "peak",
        "source": "MTN25",
        "source:date": "201912"
      },
      "geometry": {
        "type": "Point",
        "coordinates": [
          -7.1729511,
          42.7744868
        ]
      },
      "id": "node/1304134207"
    },
    {
      "type": "Feature",
      "properties": {
        "@id": "node/1304134380",
        "ele": "793",
        "name": "Outeiro Grande",
        "natural": "peak",
        "source": "Instituto Geográfico Nacional",
        "source:date": "201011"
      },
      "geometry": {
        "type": "Point",
        "coordinates": [
          -7.6969797,
          43.4827188
        ]
      },
      "id": "node/1304134380"
    },
    {
      "type": "Feature",
      "properties": {
        "@id": "node/1304134505",
        "name": "Alto das Becerreiras",
        "natural": "peak",
        "source": "Instituto Geográfico Nacional",
        "source:date": "201011"
      },
      "geometry": {
        "type": "Point",
        "coordinates": [
          -6.8758032,
          42.7824808
        ]
      },
      "id": "node/1304134505"
    },
    {
      "type": "Feature",
      "properties": {
        "@id": "node/1304134514",
        "ele": "872",
        "name": "Pena das Vacas",
        "natural": "peak",
        "source": "Instituto Geográfico Nacional",
        "source:date": "201011"
      },
      "geometry": {
        "type": "Point",
        "coordinates": [
          -7.2564111,
          43.1043971
        ]
      },
      "id": "node/1304134514"
    },
    {
      "type": "Feature",
      "properties": {
        "@id": "node/1304134620",
        "name": "O Seixo Branco",
        "natural": "peak",
        "source": "Instituto Geográfico Nacional",
        "source:date": "201011"
      },
      "geometry": {
        "type": "Point",
        "coordinates": [
          -7.0781247,
          42.6361052
        ]
      },
      "id": "node/1304134620"
    },
    {
      "type": "Feature",
      "properties": {
        "@id": "node/1304134676",
        "ele": "939",
        "name": "Pico do Formigueiro",
        "natural": "peak",
        "source": "Instituto Geográfico Nacional",
        "source:date": "201011"
      },
      "geometry": {
        "type": "Point",
        "coordinates": [
          -7.1895757,
          43.0895816
        ]
      },
      "id": "node/1304134676"
    },
    {
      "type": "Feature",
      "properties": {
        "@id": "node/1304134773",
        "name": "Penas de Rebolín",
        "natural": "peak",
        "source": "Instituto Geográfico Nacional",
        "source:date": "201011"
      },
      "geometry": {
        "type": "Point",
        "coordinates": [
          -6.9061972,
          42.7762165
        ]
      },
      "id": "node/1304134773"
    },
    {
      "type": "Feature",
      "properties": {
        "@id": "node/1304134798",
        "ele": "641",
        "name": "Alto do Marroxo",
        "natural": "peak",
        "source": "Instituto Geográfico Nacional",
        "source:date": "201011"
      },
      "geometry": {
        "type": "Point",
        "coordinates": [
          -7.5015535,
          42.4732397
        ]
      },
      "id": "node/1304134798"
    },
    {
      "type": "Feature",
      "properties": {
        "@id": "node/1304134890",
        "name": "Pico do Coto",
        "natural": "peak",
        "source": "Instituto Geográfico Nacional",
        "source:date": "201011"
      },
      "geometry": {
        "type": "Point",
        "coordinates": [
          -7.0769352,
          42.8559202
        ]
      },
      "id": "node/1304134890"
    },
    {
      "type": "Feature",
      "properties": {
        "@id": "node/1304134972",
        "name": "O Piqueiro",
        "natural": "peak",
        "source": "Instituto Geográfico Nacional",
        "source:date": "201011"
      },
      "geometry": {
        "type": "Point",
        "coordinates": [
          -7.234755,
          42.4684051
        ]
      },
      "id": "node/1304134972"
    },
    {
      "type": "Feature",
      "properties": {
        "@id": "node/1304135097",
        "name": "Pena Longa",
        "natural": "peak",
        "source": "Instituto Geográfico Nacional",
        "source:date": "201011"
      },
      "geometry": {
        "type": "Point",
        "coordinates": [
          -7.1744509,
          43.5236049
        ]
      },
      "id": "node/1304135097"
    },
    {
      "type": "Feature",
      "properties": {
        "@id": "node/1304135344",
        "name": "O Castelo do Pico",
        "natural": "peak",
        "source": "Instituto Geográfico Nacional",
        "source:date": "201011"
      },
      "geometry": {
        "type": "Point",
        "coordinates": [
          -7.8977244,
          42.5332731
        ]
      },
      "id": "node/1304135344"
    },
    {
      "type": "Feature",
      "properties": {
        "@id": "node/1304135409",
        "man_made": "survey_point",
        "name": "Celeiro Vello",
        "natural": "peak",
        "source": "Instituto Geográfico Nacional",
        "source:date": "201011"
      },
      "geometry": {
        "type": "Point",
        "coordinates": [
          -7.4774719,
          43.4908625
        ]
      },
      "id": "node/1304135409"
    },
    {
      "type": "Feature",
      "properties": {
        "@id": "node/1304135685",
        "name": "Pico da Campa",
        "natural": "peak",
        "source": "Instituto Geográfico Nacional",
        "source:date": "201011"
      },
      "geometry": {
        "type": "Point",
        "coordinates": [
          -6.9324333,
          42.896985
        ]
      },
      "id": "node/1304135685"
    },
    {
      "type": "Feature",
      "properties": {
        "@id": "node/1304135797",
        "natural": "peak",
        "source": "Instituto Geográfico Nacional",
        "source:date": "201011"
      },
      "geometry": {
        "type": "Point",
        "coordinates": [
          -6.8572785,
          42.9352598
        ]
      },
      "id": "node/1304135797"
    },
    {
      "type": "Feature",
      "properties": {
        "@id": "node/1304135858",
        "name": "Teso de Valporca",
        "natural": "peak",
        "source": "Instituto Geográfico Nacional",
        "source:date": "201011"
      },
      "geometry": {
        "type": "Point",
        "coordinates": [
          -7.0802074,
          42.592167
        ]
      },
      "id": "node/1304135858"
    },
    {
      "type": "Feature",
      "properties": {
        "@id": "node/1304136038",
        "name": "Pico Serredo",
        "natural": "peak",
        "source": "Instituto Geográfico Nacional",
        "source:date": "201011"
      },
      "geometry": {
        "type": "Point",
        "coordinates": [
          -7.1838159,
          43.348451
        ]
      },
      "id": "node/1304136038"
    },
    {
      "type": "Feature",
      "properties": {
        "@id": "node/1304136365",
        "ele": "1849",
        "natural": "peak",
        "source": "MTN25",
        "source:date": "201912"
      },
      "geometry": {
        "type": "Point",
        "coordinates": [
          -6.8577357,
          42.8100747
        ]
      },
      "id": "node/1304136365"
    },
    {
      "type": "Feature",
      "properties": {
        "@id": "node/1304136462",
        "name": "O Terreiro",
        "natural": "peak",
        "source": "Instituto Geográfico Nacional",
        "source:date": "201011"
      },
      "geometry": {
        "type": "Point",
        "coordinates": [
          -7.1806822,
          42.546997
        ]
      },
      "id": "node/1304136462"
    },
    {
      "type": "Feature",
      "properties": {
        "@id": "node/1304136621",
        "ele": "865",
        "name": "O Coldón",
        "natural": "peak",
        "source": "MTN25",
        "source:date": "201912"
      },
      "geometry": {
        "type": "Point",
        "coordinates": [
          -7.2405935,
          43.1918502
        ]
      },
      "id": "node/1304136621"
    },
    {
      "type": "Feature",
      "properties": {
        "@id": "node/1304136787",
        "name": "A Forcadura",
        "natural": "peak",
        "source": "Instituto Geográfico Nacional",
        "source:date": "201011"
      },
      "geometry": {
        "type": "Point",
        "coordinates": [
          -7.139582,
          42.5849611
        ]
      },
      "id": "node/1304136787"
    },
    {
      "type": "Feature",
      "properties": {
        "@id": "node/1304136832",
        "name": "O Pico Longo",
        "natural": "peak",
        "source": "Instituto Geográfico Nacional",
        "source:date": "201011"
      },
      "geometry": {
        "type": "Point",
        "coordinates": [
          -7.1773545,
          42.4652864
        ]
      },
      "id": "node/1304136832"
    },
    {
      "type": "Feature",
      "properties": {
        "@id": "node/1304136936",
        "name": "A Pena Moura",
        "natural": "peak",
        "source": "Instituto Geográfico Nacional",
        "source:date": "201011"
      },
      "geometry": {
        "type": "Point",
        "coordinates": [
          -7.177425,
          42.9846709
        ]
      },
      "id": "node/1304136936"
    },
    {
      "type": "Feature",
      "properties": {
        "@id": "node/1304137154",
        "name": "A Pena da Meda",
        "natural": "peak",
        "source": "Instituto Geográfico Nacional",
        "source:date": "201011"
      },
      "geometry": {
        "type": "Point",
        "coordinates": [
          -7.7485557,
          43.4907696
        ]
      },
      "id": "node/1304137154"
    },
    {
      "type": "Feature",
      "properties": {
        "@id": "node/1304137230",
        "name": "Pena de Murias",
        "natural": "peak",
        "source": "Instituto Geográfico Nacional",
        "source:date": "201011"
      },
      "geometry": {
        "type": "Point",
        "coordinates": [
          -6.961672,
          42.8149277
        ]
      },
      "id": "node/1304137230"
    },
    {
      "type": "Feature",
      "properties": {
        "@id": "node/1304137320",
        "name": "Pena da Aiga",
        "natural": "peak",
        "source": "Instituto Geográfico Nacional",
        "source:date": "201011"
      },
      "geometry": {
        "type": "Point",
        "coordinates": [
          -7.0902615,
          42.6009713
        ]
      },
      "id": "node/1304137320"
    },
    {
      "type": "Feature",
      "properties": {
        "@id": "node/1304137414",
        "ele": "751",
        "name": "Alto de Pradovello",
        "natural": "peak",
        "source": "MTN25",
        "source:date": "201912"
      },
      "geometry": {
        "type": "Point",
        "coordinates": [
          -7.3620874,
          43.3752747
        ]
      },
      "id": "node/1304137414"
    },
    {
      "type": "Feature",
      "properties": {
        "@id": "node/1304137594",
        "name": "Pena de Brañelas",
        "natural": "peak",
        "source": "Instituto Geográfico Nacional",
        "source:date": "201011"
      },
      "geometry": {
        "type": "Point",
        "coordinates": [
          -7.1285832,
          42.7390394
        ]
      },
      "id": "node/1304137594"
    },
    {
      "type": "Feature",
      "properties": {
        "@id": "node/1304137616",
        "name": "Penedo Redondo",
        "natural": "peak",
        "source": "Instituto Geográfico Nacional",
        "source:date": "201011"
      },
      "geometry": {
        "type": "Point",
        "coordinates": [
          -7.4604084,
          42.4847801
        ]
      },
      "id": "node/1304137616"
    },
    {
      "type": "Feature",
      "properties": {
        "@id": "node/1304137701",
        "name": "Pico das Arquelas",
        "natural": "peak",
        "source": "Instituto Geográfico Nacional",
        "source:date": "201011"
      },
      "geometry": {
        "type": "Point",
        "coordinates": [
          -6.9029685,
          42.9622385
        ]
      },
      "id": "node/1304137701"
    },
    {
      "type": "Feature",
      "properties": {
        "@id": "node/1304137820",
        "name": "Pico da Escrita",
        "natural": "peak",
        "source": "Instituto Geográfico Nacional",
        "source:date": "201011"
      },
      "geometry": {
        "type": "Point",
        "coordinates": [
          -7.1042229,
          42.6753293
        ]
      },
      "id": "node/1304137820"
    },
    {
      "type": "Feature",
      "properties": {
        "@id": "node/1304138013",
        "ele": "1163",
        "name": "O Chao do Pedregal",
        "natural": "peak",
        "source": "MTN25",
        "source:date": "201912"
      },
      "geometry": {
        "type": "Point",
        "coordinates": [
          -7.1710028,
          42.7580064
        ]
      },
      "id": "node/1304138013"
    },
    {
      "type": "Feature",
      "properties": {
        "@id": "node/1304138141",
        "name": "Penaboa",
        "natural": "peak",
        "source": "Instituto Geográfico Nacional",
        "source:date": "201011"
      },
      "geometry": {
        "type": "Point",
        "coordinates": [
          -7.1489222,
          42.590957
        ]
      },
      "id": "node/1304138141"
    },
    {
      "type": "Feature",
      "properties": {
        "@id": "node/1304138210",
        "ele": "424",
        "name": "Pena Vella",
        "natural": "peak",
        "source": "Instituto Geográfico Nacional",
        "source:date": "201011"
      },
      "geometry": {
        "type": "Point",
        "coordinates": [
          -7.1723714,
          43.4308832
        ]
      },
      "id": "node/1304138210"
    },
    {
      "type": "Feature",
      "properties": {
        "@id": "node/1304138332",
        "name": "Pico da Fiosa",
        "natural": "peak",
        "source": "Instituto Geográfico Nacional",
        "source:date": "201011"
      },
      "geometry": {
        "type": "Point",
        "coordinates": [
          -6.9502853,
          42.8329197
        ]
      },
      "id": "node/1304138332"
    },
    {
      "type": "Feature",
      "properties": {
        "@id": "node/1304138385",
        "name": "As Lastras",
        "natural": "peak",
        "source": "Instituto Geográfico Nacional",
        "source:date": "201011"
      },
      "geometry": {
        "type": "Point",
        "coordinates": [
          -7.0857309,
          42.5586423
        ]
      },
      "id": "node/1304138385"
    },
    {
      "type": "Feature",
      "properties": {
        "@id": "node/1304138718",
        "name": "Pico Escourido",
        "natural": "peak",
        "source": "Instituto Geográfico Nacional",
        "source:date": "201011"
      },