{
  "type": "FeatureCollection",
  "generator": "overpass-turbo",
  "copyright": "The data included in this document is from www.openstreetmap.org. The data is made available under ODbL.",
  "timestamp": "2025-04-22T17:01:29Z",
  "features": [
    {
      "type": "Feature",
      "properties": {
        "@id": "node/26864615",
        "ele": "1265",
        "name": "Sierra de la Pila",
        "natural": "peak",
        "wikidata": "Q23982749"
      },
      "geometry": {
        "type": "Point",
        "coordinates": [
          -1.1896461,
          38.2643786
        ]
      },
      "id": "node/26864615"
    },
    {
      "type": "Feature",
      "properties": {
        "@id": "node/386844464",
        "natural": "peak"
      },
      "geometry": {
        "type": "Point",
        "coordinates": [
          -0.832665,
          37.6341296
        ]
      },
      "id": "node/386844464"
    },
    {
      "type": "Feature",
      "properties": {
        "@id": "node/469364961",
        "name": "Mt Altahona",
        "natural": "peak"
      },
      "geometry": {
        "type": "Point",
        "coordinates": [
          -0.9998416,
          37.925852
        ]
      },
      "id": "node/469364961"
    },
    {
      "type": "Feature",
      "properties": {
        "@id": "node/469364962",
        "ele": "647",
        "name": "Columbares",
        "natural": "peak",
        "source": "Instituto Geográfico Nacional"
      },
      "geometry": {
        "type": "Point",
        "coordinates": [
          -1.0223293,
          37.9250396
        ]
      },
      "id": "node/469364962"
    },
    {
      "type": "Feature",
      "properties": {
        "@id": "node/576844524",
        "ele": "622",
        "name": "<<<alto del Viajero",
        "natural": "peak"
      },
      "geometry": {
        "type": "Point",
        "coordinates": [
          -1.0843103,
          38.3461851
        ]
      },
      "id": "node/576844524"
    },
    {
      "type": "Feature",
      "properties": {
        "@id": "node/633166723",
        "ele": "423",
        "name": "Tossal Redó",
        "name:ca": "Tossal Redó",
        "natural": "peak",
        "source": "Acadèmia Valenciana de la Llengua"
      },
      "geometry": {
        "type": "Point",
        "coordinates": [
          -0.5363999,
          38.4525439
        ]
      },
      "id": "node/633166723"
    },
    {
      "type": "Feature",
      "properties": {
        "@id": "node/648196751",
        "ele": "36",
        "name": "Cerro del Molinete",
        "natural": "peak"
      },
      "geometry": {
        "type": "Point",
        "coordinates": [
          -0.985974,
          37.6030531
        ]
      },
      "id": "node/648196751"
    },
    {
      "type": "Feature",
      "properties": {
        "@id": "node/648196759",
        "ele": "54",
        "name": "Cerro de Despeñaperros",
        "natural": "peak"
      },
      "geometry": {
        "type": "Point",
        "coordinates": [
          -0.9784614,
          37.6026034
        ]
      },
      "id": "node/648196759"
    },
    {
      "type": "Feature",
      "properties": {
        "@id": "node/648196775",
        "ele": "47",
        "name": "Monte Sacro",
        "natural": "peak"
      },
      "geometry": {
        "type": "Point",
        "coordinates": [
          -0.9818918,
          37.6048178
        ]
      },
      "id": "node/648196775"
    },
    {
      "type": "Feature",
      "properties": {
        "@id": "node/717296045",
        "ele": "158",
        "name": "Cabezo Beaza",
        "natural": "peak",
        "wikidata": "Q5738128",
        "wikimedia_commons": "Category:Cabezo Beaza",
        "wikipedia": "es:Cabezo Beaza"
      },
      "geometry": {
        "type": "Point",
        "coordinates": [
          -0.9560381,
          37.6284412
        ]
      },
      "id": "node/717296045"
    },
    {
      "type": "Feature",
      "properties": {
        "@id": "node/747347157",
        "climbing:boulder": "no",
        "climbing:sport": "yes",
        "climbing:toprope": "yes",
        "ele": "523",
        "name": "La Panocha",
        "natural": "peak",
        "sport": "climbing"
      },
      "geometry": {
        "type": "Point",
        "coordinates": [
          -1.0876729,
          37.9428585
        ]
      },
      "id": "node/747347157"
    },
    {
      "type": "Feature",
      "properties": {
        "@id": "node/792452474",
        "ele": "637",
        "name": "Pico del Aguila",
        "natural": "peak"
      },
      "geometry": {
        "type": "Point",
        "coordinates": [
          -1.2037811,
          37.8726448
        ]
      },
      "id": "node/792452474"
    },
    {
      "type": "Feature",
      "properties": {
        "@id": "node/924118820",
        "ele": "254",
        "name": "Monte Calvario",
        "natural": "peak",
        "wikidata": "Q23990760"
      },
      "geometry": {
        "type": "Point",
        "coordinates": [
          -0.9525127,
          37.5847761
        ]
      },
      "id": "node/924118820"
    },
    {
      "type": "Feature",
      "properties": {
        "@id": "node/926827316",
        "ele": "336",
        "name": "Cabezo de la Fuente",
        "natural": "peak",
        "wikidata": "Q11910446",
        "wikimedia_commons": "Category:Cabezo de la Fuente",
        "wikipedia": "ca:Cabeçó de la Font"
      },
      "geometry": {
        "type": "Point",
        "coordinates": [
          -0.771276,
          37.6034896
        ]
      },
      "id": "node/926827316"
    },
    {
      "type": "Feature",
      "properties": {
        "@id": "node/948501163",
        "ele": "427.10",
        "name": "Miravete",
        "natural": "peak",
        "wikidata": "Q115506185"
      },
      "geometry": {
        "type": "Point",
        "coordinates": [
          -1.046974,
          37.9732171
        ]
      },
      "id": "node/948501163"
    },
    {
      "type": "Feature",
      "properties": {
        "@id": "node/976657415",
        "ele": "667",
        "natural": "peak",
        "source": "Instituto Geográfico Nacional"
      },
      "geometry": {
        "type": "Point",
        "coordinates": [
          -1.2266848,
          37.8559191
        ]
      },
      "id": "node/976657415"
    },
    {
      "type": "Feature",
      "properties": {
        "@id": "node/1086767498",
        "ele": "45",
        "name": "Cerro de San José",
        "natural": "peak"
      },
      "geometry": {
        "type": "Point",
        "coordinates": [
          -0.978914,
          37.6047912
        ]
      },
      "id": "node/1086767498"
    },
    {
      "type": "Feature",
      "properties": {
        "@id": "node/1098346593",
        "ele": "307",
        "name": "Monte de las Cenizas",
        "natural": "peak"
      },
      "geometry": {
        "type": "Point",
        "coordinates": [
          -0.8223419,
          37.5805162
        ]
      },
      "id": "node/1098346593"
    },
    {
      "type": "Feature",
      "properties": {
        "@id": "node/1098348522",
        "ele": "389",
        "name": "Peña del Águila",
        "natural": "peak"
      },
      "geometry": {
        "type": "Point",
        "coordinates": [
          -0.8405837,
          37.6019243
        ]
      },
      "id": "node/1098348522"
    },
    {
      "type": "Feature",
      "properties": {
        "@id": "node/1242132549",
        "ele": "323",
        "name": "Lloma Alta",
        "name:ca": "Lloma Alta",
        "natural": "peak"
      },
      "geometry": {
        "type": "Point",
        "coordinates": [
          -0.547871,
          38.4450416
        ]
      },
      "id": "node/1242132549"
    },
    {
      "type": "Feature",
      "properties": {
        "@id": "node/1242133457",
        "ele": "232",
        "name": "Llometa Redona",
        "name:ca": "Llometa Redona",
        "natural": "peak"
      },
      "geometry": {
        "type": "Point",
        "coordinates": [
          -0.5363698,
          38.434351
        ]
      },
      "id": "node/1242133457"
    },
    {
      "type": "Feature",
      "properties": {
        "@id": "node/1242134658",
        "ele": "571",
        "name": "Alt de la Coveta Fumada",
        "name:ca": "Alt de la Coveta Fumada",
        "natural": "peak"
      },
      "geometry": {
        "type": "Point",
        "coordinates": [
          -0.5374182,
          38.4772987
        ]
      },
      "id": "node/1242134658"
    },
    {
      "type": "Feature",
      "properties": {
        "@id": "node/1242134759",
        "ele": "361",
        "loc_name": "Tossal de Cocons",
        "name": "Tossal de les Coques",
        "natural": "peak",
        "source": "IGN"
      },
      "geometry": {
        "type": "Point",
        "coordinates": [
          -0.5427545,
          38.4513391
        ]
      },
      "id": "node/1242134759"
    },
    {
      "type": "Feature",
      "properties": {
        "@id": "node/1242135735",
        "alt_name": "les Talaies",
        "alt_name:ca": "les Talaies",
        "name": "Penyes del Pla de Magarra",
        "name:ca": "Penyes del Pla de Magarra",
        "natural": "peak"
      },
      "geometry": {
        "type": "Point",
        "coordinates": [
          -0.5552195,
          38.3429327
        ]
      },
      "id": "node/1242135735"
    },
    {
      "type": "Feature",
      "properties": {
        "@id": "node/1242139879",
        "ele": "704",
        "name": "el Campanar",
        "name:ca": "el Campanar",
        "natural": "peak"
      },
      "geometry": {
        "type": "Point",
        "coordinates": [
          -0.8530455,
          38.2718122
        ]
      },
      "id": "node/1242139879"
    },
    {
      "type": "Feature",
      "properties": {
        "@id": "node/1242142267",
        "ele": "472",
        "name": "Lloma Güendo",
        "natural": "peak"
      },
      "geometry": {
        "type": "Point",
        "coordinates": [
          -0.5350479,
          38.4736419
        ]
      },
      "id": "node/1242142267"
    },
    {
      "type": "Feature",
      "properties": {
        "@id": "node/1242144231",
        "description": "El Alto de La Escobella es un caos a nivel de toponimia tras el paso de los años. El nombre más correcto es el Alto de La Escobella o Alt de l'Escobella, si bien aparece referenciado como Altet de la Mosca, Alt de la Mosca, Escobelleta, La Escobella...",
        "ele": "693",
        "name": "Alt de l'Escobella",
        "name:ca": "Alt de l'Escobella",
        "name:es": "Alto de la Escobella",
        "natural": "peak",
        "source": "local knowledge;Ayuntamiento de San Vicente del Raspeig;Mapa de 1914 del Ayuntamiento de San Vicente del Raspeig"
      },
      "geometry": {
        "type": "Point",
        "coordinates": [
          -0.562096,
          38.4808653
        ]
      },
      "id": "node/1242144231"
    },
    {
      "type": "Feature",
      "properties": {
        "@id": "node/1242156805",
        "ele": "1048",
        "name": "Revolcador",
        "natural": "peak",
        "source": "PNOA"
      },
      "geometry": {
        "type": "Point",
        "coordinates": [
          -0.6428721,
          38.4952374
        ]
      },
      "id": "node/1242156805"
    },
    {
      "type": "Feature",
      "properties": {
        "@id": "node/1243028436",
        "name": "Cabezo Alto",
        "natural": "peak",
        "source": "Instituto Geográfico Nacional",
        "source:date": "201011"
      },
      "geometry": {
        "type": "Point",
        "coordinates": [
          -1.0928023,
          38.0628845
        ]
      },
      "id": "node/1243028436"
    },
    {
      "type": "Feature",
      "properties": {
        "@id": "node/1243029499",
        "name": "El Quijón de la Vieja",
        "natural": "peak",
        "source": "Instituto Geográfico Nacional",
        "source:date": "201011"
      },
      "geometry": {
        "type": "Point",
        "coordinates": [
          -1.0284502,
          38.0878913
        ]
      },
      "id": "node/1243029499"
    },
    {
      "type": "Feature",
      "properties": {
        "@id": "node/1243032716",
        "ele": "287",
        "name": "Cabezo de los Molares",
        "natural": "peak",
        "source": "Instituto Geográfico Nacional"
      },
      "geometry": {
        "type": "Point",
        "coordinates": [
          -1.2202276,
          37.6029655
        ]
      },
      "id": "node/1243032716"
    },
    {
      "type": "Feature",
      "properties": {
        "@id": "node/1243035532",
        "ele": "442",
        "name": "Morra de la Pernera",
        "natural": "peak"
      },
      "geometry": {
        "type": "Point",
        "coordinates": [
          -1.2153062,
          37.6322503
        ]
      },
      "id": "node/1243035532"
    },
    {
      "type": "Feature",
      "properties": {
        "@id": "node/1243036782",
        "name": "Monte Pinar",
        "natural": "peak",
        "source": "Instituto Geográfico Nacional",
        "source:date": "201011"
      },
      "geometry": {
        "type": "Point",
        "coordinates": [
          -1.0969144,
          38.0345616
        ]
      },
      "id": "node/1243036782"
    },
    {
      "type": "Feature",
      "properties": {
        "@id": "node/1243037770",
        "ele": "33",
        "name": "Peña Blanca",
        "natural": "peak",
        "source": "Instituto Geográfico Nacional"
      },
      "geometry": {
        "type": "Point",
        "coordinates": [
          -0.8024784,
          37.7021826
        ]
      },
      "id": "node/1243037770"
    },
    {
      "type": "Feature",
      "properties": {
        "@id": "node/1243055670",
        "ele": "178",
        "name": "Cabezo Pelado",
        "natural": "peak",
        "source": "Instituto Geográfico Nacional"
      },
      "geometry": {
        "type": "Point",
        "coordinates": [
          -1.2410508,
          37.59782
        ]
      },
      "id": "node/1243055670"
    },
    {
      "type": "Feature",
      "properties": {
        "@id": "node/1243056875",
        "name": "Monte de las Brujas",
        "natural": "peak"
      },
      "geometry": {
        "type": "Point",
        "coordinates": [
          -1.0615912,
          38.0547086
        ]
      },
      "id": "node/1243056875"
    },
    {
      "type": "Feature",
      "properties": {
        "@id": "node/1243063353",
        "ele": "333",
        "name": "Cabezo del Tío",
        "natural": "peak"
      },
      "geometry": {
        "type": "Point",
        "coordinates": [
          -1.2233514,
          37.6101608
        ]
      },
      "id": "node/1243063353"
    },
    {
      "type": "Feature",
      "properties": {
        "@id": "node/1243064546",
        "ele": "277",
        "name": "Cabezo de Pinico",
        "natural": "peak",
        "source": "Instituto Geográfico Nacional"
      },
      "geometry": {
        "type": "Point",
        "coordinates": [
          -1.2416481,
          37.6072213
        ]
      },
      "id": "node/1243064546"
    },
    {
      "type": "Feature",
      "properties": {
        "@id": "node/1243081231",
        "ele": "174",
        "name": "Cabezo la Mina",
        "natural": "peak"
      },
      "geometry": {
        "type": "Point",
        "coordinates": [
          -1.0984595,
          38.0497206
        ]
      },
      "id": "node/1243081231"
    },
    {
      "type": "Feature",
      "properties": {
        "@id": "node/1243083049",
        "name": "Pico Los Cenajos",
        "natural": "peak",
        "source": "Instituto Geográfico Nacional",
        "source:date": "201011"
      },
      "geometry": {
        "type": "Point",
        "coordinates": [
          -1.2006318,
          38.2691652
        ]
      },
      "id": "node/1243083049"
    },
    {
      "type": "Feature",
      "properties": {
        "@id": "node/1249810762",
        "ele": "818",
        "name": "Pic de Sant Gaità",
        "name:es": "Pico de San Cayetano",
        "natural": "peak",
        "wikidata": "Q23980242"
      },
      "geometry": {
        "type": "Point",
        "coordinates": [
          -0.8952829,
          38.2638471
        ]
      },
      "id": "node/1249810762"
    },
    {
      "type": "Feature",
      "properties": {
        "@id": "node/1249810958",
        "ele": "731",
        "name": "Cerro del Agudo",
        "natural": "peak"
      },
      "geometry": {
        "type": "Point",
        "coordinates": [
          -0.9777423,
          38.2383281
        ]
      },
      "id": "node/1249810958"
    },
    {
      "type": "Feature",
      "properties": {
        "@id": "node/1249811529",
        "ele": "706",
        "name": "Peña del Marín",
        "natural": "peak"
      },
      "geometry": {
        "type": "Point",
        "coordinates": [
          -0.8278739,
          38.4959712
        ]
      },
      "id": "node/1249811529"
    },
    {
      "type": "Feature",
      "properties": {
        "@id": "node/1249811676",
        "name": "Pico del Escalón",
        "natural": "peak"
      },
      "geometry": {
        "type": "Point",
        "coordinates": [
          -0.8988448,
          38.1177017
        ]
      },
      "id": "node/1249811676"
    },
    {
      "type": "Feature",
      "properties": {
        "@id": "node/1249812027",
        "ele": "1053",
        "name": "Penya de la Mina",
        "name:ca": "Penya de la Mina",
        "natural": "peak"
      },
      "geometry": {
        "type": "Point",
        "coordinates": [
          -0.9385218,
          38.3295574
        ]
      },
      "id": "node/1249812027"
    },
    {
      "type": "Feature",
      "properties": {
        "@id": "node/1249812646",
        "ele": "1055",
        "name": "Penya del Salt de la Mort",
        "name:ca": "Penya del Salt de la Mort",
        "name:es": "Peña del Salto de la Muerte",
        "natural": "peak"
      },
      "geometry": {
        "type": "Point",
        "coordinates": [
          -0.9675523,
          38.3624093
        ]
      },
      "id": "node/1249812646"
    },
    {
      "type": "Feature",
      "properties": {
        "@id": "node/1249812744",
        "ele": "93",
        "name": "Cabezo Soler",
        "natural": "peak",
        "website": "https://www.geocaching.com/geocache/GC5PDW7_cabezo-soler",
        "wikidata": "Q24021942"
      },
      "geometry": {
        "type": "Point",
        "coordinates": [
          -0.6984709,
          38.0895348
        ]
      },
      "id": "node/1249812744"
    },
    {
      "type": "Feature",
      "properties": {
        "@id": "node/1249813020",
        "name": "Cabezo Redondo",
        "natural": "peak"
      },
      "geometry": {
        "type": "Point",
        "coordinates": [
          -0.991336,
          38.0925247
        ]
      },
      "id": "node/1249813020"
    },
    {
      "type": "Feature",
      "properties": {
        "@id": "node/1249813537",
        "ele": "474",
        "name": "Bec de l'Àguila",
        "name:ca": "Bec de l'Àguila",
        "name:es": "Vuelo del Aguila",
        "natural": "peak",
        "wikidata": "Q6013424",
        "wikipedia": "ca:Bec de l'Àguila"
      },
      "geometry": {
        "type": "Point",
        "coordinates": [
          -0.527639,
          38.4636456
        ]
      },
      "id": "node/1249813537"
    },
    {
      "type": "Feature",
      "properties": {
        "@id": "node/1249813585",
        "name": "Cabezo las Bancas",
        "natural": "peak"
      },
      "geometry": {
        "type": "Point",
        "coordinates": [
          -0.9866331,
          38.0866876
        ]
      },
      "id": "node/1249813585"
    },
    {
      "type": "Feature",
      "properties": {
        "@id": "node/1249814050",
        "ele": "1147",
        "loc_name": "El Cid",
        "man_made": "cairn",
        "name": "la Cilla del Sit",
        "name:ca": "la Cilla del Sit",
        "name:es": "La Silla del Cid",
        "natural": "peak",
        "summit:register": "yes",
        "wikidata": "Q24021613"
      },
      "geometry": {
        "type": "Point",
        "coordinates": [
          -0.7261061,
          38.4782571
        ]
      },
      "id": "node/1249814050"
    },
    {
      "type": "Feature",
      "properties": {
        "@id": "node/1249814405",
        "name": "Cabezo Pardo",
        "natural": "peak"
      },
      "geometry": {
        "type": "Point",
        "coordinates": [
          -0.8460982,
          38.1645575
        ]
      },
      "id": "node/1249814405"
    },
    {
      "type": "Feature",
      "properties": {
        "@id": "node/1249814599",
        "ele": "848",
        "name": "Alt de la Bola",
        "name:ca": "Alt de la Bola",
        "natural": "peak"
      },
      "geometry": {
        "type": "Point",
        "coordinates": [
          -0.8770175,
          38.4723446
        ]
      },
      "id": "node/1249814599"
    },
    {
      "type": "Feature",
      "properties": {
        "@id": "node/1249814742",
        "name": "Cabezo de los Buitragos",
        "natural": "peak"
      },
      "geometry": {
        "type": "Point",
        "coordinates": [
          -1.0305576,
          38.1157257
        ]
      },
      "id": "node/1249814742"
    },
    {
      "type": "Feature",
      "properties": {
        "@id": "node/1249815448",
        "name": "Pico del Chinar",
        "natural": "peak"
      },
      "geometry": {
        "type": "Point",
        "coordinates": [
          -0.9080275,
          38.1249706
        ]
      },
      "id": "node/1249815448"
    },
    {
      "type": "Feature",
      "properties": {
        "@id": "node/1249815828",
        "ele": "812",
        "name": "Alt de Sant Juri",
        "natural": "peak"
      },
      "geometry": {
        "type": "Point",
        "coordinates": [
          -0.8851946,
          38.2699912
        ]
      },
      "id": "node/1249815828"
    },
    {
      "type": "Feature",
      "properties": {
        "@id": "node/1249816843",
        "name": "Pico Cortado",
        "natural": "peak"
      },
      "geometry": {
        "type": "Point",
        "coordinates": [
          -0.8897342,
          38.127881
        ]
      },
      "id": "node/1249816843"
    },
    {
      "type": "Feature",
      "properties": {
        "@id": "node/1249817377",
        "ele": "867",
        "name": "Alto de Don Pedro",
        "name:ca": "Alt de Don Pedro",
        "natural": "peak"
      },
      "geometry": {
        "type": "Point",
        "coordinates": [
          -0.9321649,
          38.4818621
        ]
      },
      "id": "node/1249817377"
    },
    {
      "type": "Feature",
      "properties": {
        "@id": "node/1249817436",
        "name": "Monte de Clementino",
        "natural": "peak"
      },
      "geometry": {
        "type": "Point",
        "coordinates": [
          -0.8473565,
          38.1616699
        ]
      },
      "id": "node/1249817436"
    },
    {
      "type": "Feature",
      "properties": {
        "@id": "node/1249817681",
        "ele": "616",
        "name": "Cabezo Lodroño",
        "natural": "peak"
      },
      "geometry": {
        "type": "Point",
        "coordinates": [
          -0.9927799,
          38.0979386
        ]
      },
      "id": "node/1249817681"
    },
    {
      "type": "Feature",
      "properties": {
        "@id": "node/1249818132",
        "ele": "900",
        "name": "Cabeçó Ventós",
        "name:ca": "Cabeçó Ventós",
        "natural": "peak"
      },
      "geometry": {
        "type": "Point",
        "coordinates": [
          -0.6146318,
          38.4763396
        ]
      },
      "id": "node/1249818132"
    },
    {
      "type": "Feature",
      "properties": {
        "@id": "node/1249819348",
        "name": "Cabezo Pisana",
        "natural": "peak"
      },
      "geometry": {
        "type": "Point",
        "coordinates": [
          -0.9516789,
          38.01527
        ]
      },
      "id": "node/1249819348"
    },
    {
      "type": "Feature",
      "properties": {
        "@id": "node/1304105532",
        "ele": "373",
        "name": "Cabezo de la Panadera",
        "natural": "peak",
        "source": "Instituto Geográfico Nacional"
      },
      "geometry": {
        "type": "Point",
        "coordinates": [
          -1.1769921,
          37.5922378
        ]
      },
      "id": "node/1304105532"
    },
    {
      "type": "Feature",
      "properties": {
        "@id": "node/1304105768",
        "ele": "150",
        "name": "Cabezo Ventura",
        "natural": "peak",
        "source": "Instituto Geográfico Nacional",
        "source:date": "201011"
      },
      "geometry": {
        "type": "Point",
        "coordinates": [
          -0.93061,
          37.6420763
        ]
      },
      "id": "node/1304105768"
    },
    {
      "type": "Feature",
      "properties": {
        "@id": "node/1304106062",
        "ele": "361",
        "name": "Cabezo de los Vivancos",
        "natural": "peak",
        "source": "Instituto Geográfico Nacional"
      },
      "geometry": {
        "type": "Point",
        "coordinates": [
          -1.2406146,
          37.655543
        ]
      },
      "id": "node/1304106062"
    },
    {
      "type": "Feature",
      "properties": {
        "@id": "node/1304106324",
        "ele": "120",
        "name": "Pico de la Galerica",
        "natural": "peak",
        "source": "Instituto Geográfico Nacional"
      },
      "geometry": {
        "type": "Point",
        "coordinates": [
          -1.1800163,
          37.5735731
        ]
      },
      "id": "node/1304106324"
    },
    {
      "type": "Feature",
      "properties": {
        "@id": "node/1304106452",
        "ele": "318",
        "name": "Cabezo del Moro",
        "natural": "peak",
        "source": "Instituto Geográfico Nacional"
      },
      "geometry": {
        "type": "Point",
        "coordinates": [
          -1.1207054,
          37.6314087
        ]
      },
      "id": "node/1304106452"
    },
    {
      "type": "Feature",
      "properties": {
        "@id": "node/1304106539",
        "ele": "279",
        "name": "Cabezo Blanco",
        "natural": "peak",
        "source": "Instituto Geográfico Nacional",
        "source:date": "201011"
      },
      "geometry": {
        "type": "Point",
        "coordinates": [
          -1.1351683,
          37.6731985
        ]
      },
      "id": "node/1304106539"
    },
    {
      "type": "Feature",
      "properties": {
        "@id": "node/1304106821",
        "ele": "93",
        "name": "Cabezo de la Fraila",
        "natural": "peak",
        "wikidata": "Q23985886"
      },
      "geometry": {
        "type": "Point",
        "coordinates": [
          -0.9686573,
          37.6234821
        ]
      },
      "id": "node/1304106821"
    },
    {
      "type": "Feature",
      "properties": {
        "@id": "node/1304107438",
        "ele": "192",
        "name": "Pico de la Miguelota",
        "natural": "peak",
        "source": "Instituto Geográfico Nacional",
        "source:date": "201011"
      },
      "geometry": {
        "type": "Point",
        "coordinates": [
          -0.9122,
          37.5889571
        ]
      },
      "id": "node/1304107438"
    },
    {
      "type": "Feature",
      "properties": {
        "@id": "node/1304107923",
        "name": "Cabezo las Balsas",
        "natural": "peak",
        "source": "Instituto Geográfico Nacional",
        "source:date": "201011"
      },
      "geometry": {
        "type": "Point",
        "coordinates": [
          -1.2074025,
          38.0188639
        ]
      },
      "id": "node/1304107923"
    },
    {
      "type": "Feature",
      "properties": {
        "@id": "node/1304108031",
        "ele": "454",
        "name": "Morra de la Yesera",
        "natural": "peak",
        "source": "Instituto Geográfico Nacional"
      },
      "geometry": {
        "type": "Point",
        "coordinates": [
          -1.1520576,
          37.6117104
        ]
      },
      "id": "node/1304108031"
    },
    {
      "type": "Feature",
      "properties": {
        "@id": "node/1304108167",
        "ele": "971",
        "name": "Piñón de Quibas",
        "natural": "peak"
      },
      "geometry": {
        "type": "Point",
        "coordinates": [
          -1.1189804,
          38.3042651
        ]
      },
      "id": "node/1304108167"
    },
    {
      "type": "Feature",
      "properties": {
        "@id": "node/1304108215",
        "ele": "166",
        "name": "Puntal de la Azohía",
        "natural": "peak",
        "source": "Instituto Geográfico Nacional"
      },
      "geometry": {
        "type": "Point",
        "coordinates": [
          -1.1669975,
          37.5639536
        ]
      },
      "id": "node/1304108215"
    },
    {
      "type": "Feature",
      "properties": {
        "@id": "node/1304108602",
        "ele": "499",
        "name": "Morra de las Casas",
        "natural": "peak",
        "source": "Instituto Geográfico Nacional"
      },
      "geometry": {
        "type": "Point",
        "coordinates": [
          -1.1403591,
          37.5927693
        ]
      },
      "id": "node/1304108602"
    },
    {
      "type": "Feature",
      "properties": {
        "@id": "node/1304109189",
        "ele": "231",
        "name": "Alto de los Albaladejos",
        "natural": "peak",
        "source": "Instituto Geográfico Nacional"
      },
      "geometry": {
        "type": "Point",
        "coordinates": [
          -1.0983262,
          37.6154036
        ]
      },
      "id": "node/1304109189"
    },
    {
      "type": "Feature",
      "properties": {
        "@id": "node/1304109489",
        "ele": "285",
        "name": "Cabezo del Horno",
        "natural": "peak",
        "source": "Instituto Geográfico Nacional"
      },
      "geometry": {
        "type": "Point",
        "coordinates": [
          -1.2024663,
          37.5843793
        ]
      },
      "id": "node/1304109489"
    },
    {
      "type": "Feature",
      "properties": {
        "@id": "node/1304109701",
        "ele": "282",
        "name": "Cabezo de la Aguja",
        "natural": "peak",
        "source": "Instituto Geográfico Nacional",
        "wikidata": "Q23990993"
      },
      "geometry": {
        "type": "Point",
        "coordinates": [
          -1.0964158,
          37.5723618
        ]
      },
      "id": "node/1304109701"
    },
    {
      "type": "Feature",
      "properties": {
        "@id": "node/1304110075",
        "ele": "291",
        "name": "Cabezo de los Sevillas",
        "natural": "peak",
        "ngbe:codigo": "80206",
        "ngbe:grupo": "Relieve",
        "ngbe:hojabcn25": "0977-1",
        "ngbe:huso": "30",
        "ngbe:id": "261021",
        "ngbe:lat_ed50": "-1.1457097040",
        "ngbe:lon_ed50": "37.6495680450",
        "ngbe:subgrupo": "Montañas y picos restantes. cerros. etc.",
        "ngbe:tema": "Toponimia",
        "ngbe:tipotexto": "T",
        "ngbe:version": "provisional",
        "ngbe:xutm_ed50": "663588",
        "ngbe:yutm_ed50": "4168621",
        "note": "If you change this node, please, report in http://wiki.openstreetmap.org/wiki/ES:NGBE/Correcciones or to nomenclatorign at gmail dot com. Thank you.",
        "note:es": "Si realizas algún cambio en este nodo, por favor, comunícalo en http://wiki.openstreetmap.org/wiki/ES:NGBE/Correcciones o a nomenclatorign at gmail dot com. Gracias.",
        "source": "Instituto Geográfico Nacional",
        "source:date": "201011",
        "source:name": "Nomenclator Geográfico Básico de España"
      },
      "geometry": {
        "type": "Point",
        "coordinates": [
          -1.1435703,
          37.6475203
        ]
      },
      "id": "node/1304110075"
    },
    {
      "type": "Feature",
      "properties": {
        "@id": "node/1304110485",
        "name": "Monte Agudo",
        "natural": "peak",
        "source": "Instituto Geográfico Nacional",
        "source:date": "201011"
      },
      "geometry": {
        "type": "Point",
        "coordinates": [
          -0.8999939,
          37.6207884
        ]
      },
      "id": "node/1304110485"
    },
    {
      "type": "Feature",
      "properties": {
        "@id": "node/1304111168",
        "ele": "128",
        "name": "Cabezo del Gallufo",
        "natural": "peak",
        "source": "Instituto Geográfico Nacional",
        "source:date": "201011"
      },
      "geometry": {
        "type": "Point",
        "coordinates": [
          -0.9615875,
          37.5896122
        ]
      },
      "id": "node/1304111168"
    },
    {
      "type": "Feature",
      "properties": {
        "@id": "node/1304111551",
        "ele": "451",
        "name": "Morra Tallante",
        "natural": "peak",
        "source": "Instituto Geográfico Nacional"
      },
      "geometry": {
        "type": "Point",
        "coordinates": [
          -1.1490752,
          37.6358339
        ]
      },
      "id": "node/1304111551"
    },
    {
      "type": "Feature",
      "properties": {
        "@id": "node/1304111671",
        "name": "Cabezo Lorenzo",
        "natural": "peak",
        "source": "Instituto Geográfico Nacional",
        "source:date": "201011"
      },
      "geometry": {
        "type": "Point",
        "coordinates": [
          -1.134223,
          37.6954342
        ]
      },
      "id": "node/1304111671"
    },
    {
      "type": "Feature",
      "properties": {
        "@id": "node/1304111682",
        "ele": "486",
        "name": "Cabezo Colorado",
        "natural": "peak",
        "source": "Instituto Geográfico Nacional",
        "wikidata": "Q23986999"
      },
      "geometry": {
        "type": "Point",
        "coordinates": [
          -1.0974916,
          37.5780042
        ]
      },
      "id": "node/1304111682"
    },
    {
      "type": "Feature",
      "properties": {
        "@id": "node/1304111809",
        "ele": "475",
        "name": "Morra del Quemado",
        "natural": "peak",
        "source": "Instituto Geográfico Nacional"
      },
      "geometry": {
        "type": "Point",
        "coordinates": [
          -1.1213029,
          37.59113
        ]
      },
      "id": "node/1304111809"
    },
    {
      "type": "Feature",
      "properties": {
        "@id": "node/1304111900",
        "ele": "32",
        "name": "La Esparteña",
        "natural": "peak",
        "source": "Instituto Geográfico Nacional"
      },
      "geometry": {
        "type": "Point",
        "coordinates": [
          -0.797468,
          37.6972421
        ]
      },
      "id": "node/1304111900"
    },
    {
      "type": "Feature",
      "properties": {
        "@id": "node/1304111916",
        "ele": "185",
        "name": "Cabezo de la Escucha",
        "natural": "peak",
        "source": "Instituto Geográfico Nacional"
      },
      "geometry": {
        "type": "Point",
        "coordinates": [
          -0.722192,
          37.6138858
        ]
      },
      "id": "node/1304111916"
    },
    {
      "type": "Feature",
      "properties": {
        "@id": "node/1304112100",
        "ele": "471",
        "name": "Morro el Carreón",
        "natural": "peak",
        "source": "Instituto Geográfico Nacional"
      },
      "geometry": {
        "type": "Point",
        "coordinates": [
          -1.1800052,
          37.6085276
        ]
      },
      "id": "node/1304112100"
    },
    {
      "type": "Feature",
      "properties": {
        "@id": "node/1304112831",
        "ele": "363",
        "name": "Cabezo Negro",
        "natural": "peak"
      },
      "geometry": {
        "type": "Point",
        "coordinates": [
          -1.1307914,
          37.6662103
        ]
      },
      "id": "node/1304112831"
    },
    {
      "type": "Feature",
      "properties": {
        "@id": "node/1304113054",
        "name": "Cabezo de Trujillo",
        "natural": "peak",
        "source": "Instituto Geográfico Nacional",
        "source:date": "201011"
      },
      "geometry": {
        "type": "Point",
        "coordinates": [
          -0.8599412,
          37.6258367
        ]
      },
      "id": "node/1304113054"
    },
    {
      "type": "Feature",
      "properties": {
        "@id": "node/1304113629",
        "ele": "272",
        "name": "Pico del Horcado",
        "natural": "peak",
        "source": "Instituto Geográfico Nacional",
        "source:date": "201011"
      },
      "geometry": {
        "type": "Point",
        "coordinates": [
          -0.9044863,
          37.5898817
        ]
      },
      "id": "node/1304113629"
    },
    {
      "type": "Feature",
      "properties": {
        "@id": "node/1304114055",
        "ele": "284",
        "name": "Cabezo de los Rodados",
        "natural": "peak",
        "source": "Instituto Geográfico Nacional"
      },
      "geometry": {
        "type": "Point",
        "coordinates": [
          -1.1147395,
          37.6349506
        ]
      },
      "id": "node/1304114055"
    },
    {
      "type": "Feature",
      "properties": {
        "@id": "node/1304114353",
        "name": "Cabecico del Rey",
        "natural": "peak",
        "source": "Instituto Geográfico Nacional",
        "source:date": "201011"
      },
      "geometry": {
        "type": "Point",
        "coordinates": [
          -1.1500394,
          37.7669847
        ]
      },
      "id": "node/1304114353"
    },
    {
      "type": "Feature",
      "properties": {
        "@id": "node/1304114368",
        "ele": "489",
        "name": "Garabitos",
        "natural": "peak",
        "source": "Instituto Geográfico Nacional",
        "wikidata": "Q23986077"
      },
      "geometry": {
        "type": "Point",
        "coordinates": [
          -1.1268504,
          37.5741896
        ]
      },
      "id": "node/1304114368"
    },
    {
      "type": "Feature",
      "properties": {
        "@id": "node/1304114666",
        "ele": "271",
        "name": "Cabezo del Lobo",
        "natural": "peak",
        "source": "Instituto Geográfico Nacional"
      },
      "geometry": {
        "type": "Point",
        "coordinates": [
          -1.1108921,
          37.6198013
        ]
      },
      "id": "node/1304114666"
    },
    {
      "type": "Feature",
      "properties": {
        "@id": "node/1304114777",
        "ele": "327",
        "name": "Cabezo del Margallo",
        "natural": "peak",
        "source": "Instituto Geográfico Nacional",
        "source:date": "201011"
      },
      "geometry": {
        "type": "Point",
        "coordinates": [
          -1.1306613,
          37.6934291
        ]
      },
      "id": "node/1304114777"
    },
    {
      "type": "Feature",
      "properties": {
        "@id": "node/1304114787",
        "ele": "127",
        "name": "Cerro de los Cuatro Tiros",
        "natural": "peak",
        "source": "Instituto Geográfico Nacional"
      },
      "geometry": {
        "type": "Point",
        "coordinates": [
          -0.741827,
          37.6128116
        ]
      },
      "id": "node/1304114787"
    },
    {
      "type": "Feature",
      "properties": {
        "@id": "node/1304114973",
        "ele": "196",
        "name": "Morra del Pino",
        "natural": "peak",
        "source": "Instituto Geográfico Nacional",
        "wikidata": "Q23982794"
      },
      "geometry": {
        "type": "Point",
        "coordinates": [
          -1.0585115,
          37.6005818
        ]
      },
      "id": "node/1304114973"
    },
    {
      "type": "Feature",
      "properties": {
        "@id": "node/1304115359",
        "ele": "234",
        "name": "Cabezo de San Juan",
        "natural": "peak",
        "source": "Instituto Geográfico Nacional",
        "source:date": "201011"
      },
      "geometry": {
        "type": "Point",
        "coordinates": [
          -0.9458784,
          37.5929782
        ]
      },
      "id": "node/1304115359"
    },
    {
      "type": "Feature",
      "properties": {
        "@id": "node/1304115784",
        "name": "Cabezo de Trigo",
        "natural": "peak",
        "source": "Instituto Geográfico Nacional",
        "source:date": "201011"
      },
      "geometry": {
        "type": "Point",
        "coordinates": [
          -1.073414,
          38.0841598
        ]
      },
      "id": "node/1304115784"
    },
    {
      "type": "Feature",
      "properties": {
        "@id": "node/1304116285",
        "name": "Cerro del Calnegre",
        "natural": "peak",
        "source": "Instituto Geográfico Nacional",
        "source:date": "201011"
      },
      "geometry": {
        "type": "Point",
        "coordinates": [
          -0.7323723,
          37.6645233
        ]
      },
      "id": "node/1304116285"
    },
    {
      "type": "Feature",
      "properties": {
        "@id": "node/1304116828",
        "ele": "265",
        "name": "Pico de la Peladilla",
        "natural": "peak",
        "source": "Instituto Geográfico Nacional",
        "wikidata": "Q23982492"
      },
      "geometry": {
        "type": "Point",
        "coordinates": [
          -1.091711,
          37.5950359
        ]
      },
      "id": "node/1304116828"
    },
    {
      "type": "Feature",
      "properties": {
        "@id": "node/1304117666",
        "ele": "51",
        "name": "Cabezo de la Viuda",
        "natural": "peak",
        "source": "Instituto Geográfico Nacional",
        "source:date": "201011",
        "wikidata": "Q23977204"
      },
      "geometry": {
        "type": "Point",
        "coordinates": [
          -0.9575494,
          37.6120091
        ]
      },
      "id": "node/1304117666"
    },
    {
      "type": "Feature",
      "properties": {
        "@id": "node/1304118476",
        "name": "Cabezo de las Lagueneras",
        "natural": "peak",
        "source": "Instituto Geográfico Nacional",
        "source:date": "201011"
      },
      "geometry": {
        "type": "Point",
        "coordinates": [
          -1.2156523,
          37.789563
        ]
      },
      "id": "node/1304118476"
    },
    {
      "type": "Feature",
      "properties": {
        "@id": "node/1304118522",
        "ele": "172",
        "name": "Cabezo Negro",
        "natural": "peak",
        "source": "Instituto Geográfico Nacional"
      },
      "geometry": {
        "type": "Point",
        "coordinates": [
          -0.761242,
          37.6171883
        ]
      },
      "id": "node/1304118522"
    },
    {
      "type": "Feature",
      "properties": {
        "@id": "node/1304119154",
        "ele": "455",
        "name": "Morro del Fraile",
        "natural": "peak",
        "source": "Instituto Geográfico Nacional"
      },
      "geometry": {
        "type": "Point",
        "coordinates": [
          -1.1829207,
          37.6243528
        ]
      },
      "id": "node/1304119154"
    },
    {
      "type": "Feature",
      "properties": {
        "@id": "node/1304119381",
        "name": "Alto Mediano",
        "natural": "peak",
        "source": "Instituto Geográfico Nacional",
        "source:date": "201011"
      },
      "geometry": {
        "type": "Point",
        "coordinates": [
          -0.8518183,
          37.6211798
        ]
      },
      "id": "node/1304119381"
    },
    {
      "type": "Feature",
      "properties": {
        "@id": "node/1304119728",
        "name": "Cabezo de Marcelino",
        "natural": "peak",
        "source": "Instituto Geográfico Nacional",
        "source:date": "201011",
        "wikidata": "Q23984020"
      },
      "geometry": {
        "type": "Point",
        "coordinates": [
          -0.9568159,
          37.6048984
        ]
      },
      "id": "node/1304119728"
    },
    {
      "type": "Feature",
      "properties": {
        "@id": "node/1304120333",
        "ele": "306",
        "name": "Cabezo de la Porpuz",
        "natural": "peak",
        "source": "Instituto Geográfico Nacional",
        "source:date": "201011"
      },
      "geometry": {
        "type": "Point",
        "coordinates": [
          -0.9285512,
          37.5872595
        ]
      },
      "id": "node/1304120333"
    },
    {
      "type": "Feature",
      "properties": {
        "@id": "node/1304120555",
        "name": "Cabezo Mal Nombre",
        "natural": "peak",
        "source": "Instituto Geográfico Nacional",
        "source:date": "201011"
      },
      "geometry": {
        "type": "Point",
        "coordinates": [
          -1.0383992,
          38.0842283
        ]
      },
      "id": "node/1304120555"
    },
    {
      "type": "Feature",
      "properties": {
        "@id": "node/1304120766",
        "ele": "1009",
        "name": "Cabezo de Turra",
        "natural": "peak",
        "source": "Instituto Geográfico Nacional"
      },
      "geometry": {
        "type": "Point",
        "coordinates": [
          -1.1820628,
          38.2788778
        ]
      },
      "id": "node/1304120766"
    },
    {
      "type": "Feature",
      "properties": {
        "@id": "node/1304120799",
        "name": "Cabezo de la Pala",
        "natural": "peak",
        "source": "Instituto Geográfico Nacional",
        "source:date": "201011"
      },
      "geometry": {
        "type": "Point",
        "coordinates": [
          -1.2438469,
          37.8066349
        ]
      },
      "id": "node/1304120799"
    },
    {
      "type": "Feature",
      "properties": {
        "@id": "node/1304121158",
        "ele": "384",
        "name": "Alto de la Cárcel",
        "natural": "peak",
        "source": "Instituto Geográfico Nacional"
      },
      "geometry": {
        "type": "Point",
        "coordinates": [
          -1.1238287,
          37.6091581
        ]
      },
      "id": "node/1304121158"
    },
    {
      "type": "Feature",
      "properties": {
        "@id": "node/1304121863",
        "ele": "238",
        "name": "Cabezo de las Colmenas",
        "natural": "peak",
        "source": "Instituto Geográfico Nacional",
        "source:date": "201011"
      },
      "geometry": {
        "type": "Point",
        "coordinates": [
          -0.8854578,
          37.5916777
        ]
      },
      "id": "node/1304121863"
    },
    {
      "type": "Feature",
      "properties": {
        "@id": "node/1304123055",
        "name": "Cerro de la Campana",
        "natural": "peak",
        "source": "Instituto Geográfico Nacional",
        "source:date": "201011",
        "wikidata": "Q23988174"
      },
      "geometry": {
        "type": "Point",
        "coordinates": [
          -0.946814,
          37.5766331
        ]
      },
      "id": "node/1304123055"
    },
    {
      "type": "Feature",
      "properties": {
        "@id": "node/1304123128",
        "name": "Cabezo de los Bolos",
        "natural": "peak",
        "source": "Instituto Geográfico Nacional",
        "source:date": "201011"
      },
      "geometry": {
        "type": "Point",
        "coordinates": [
          -1.221586,
          37.8300178
        ]
      },
      "id": "node/1304123128"
    },
    {
      "type": "Feature",
      "properties": {
        "@id": "node/1304123615",
        "ele": "218",
        "name": "Morra Alta",
        "natural": "peak",
        "source": "Instituto Geográfico Nacional",
        "wikidata": "Q23988896"
      },
      "geometry": {
        "type": "Point",
        "coordinates": [
          -1.0871549,
          37.5988327
        ]
      },
      "id": "node/1304123615"
    },
    {
      "type": "Feature",
      "properties": {
        "@id": "node/1304124097",
        "ele": "280",
        "name": "Cabezo de Don Juan",
        "natural": "peak",
        "source": "Instituto Geográfico Nacional"
      },
      "geometry": {
        "type": "Point",
        "coordinates": [
          -0.8412961,
          37.6124052
        ]
      },
      "id": "node/1304124097"
    },
    {
      "type": "Feature",
      "properties": {
        "@id": "node/1304124519",
        "name": "Cabezo Roche",
        "natural": "peak",
        "source": "Instituto Geográfico Nacional",
        "source:date": "201011"
      },
      "geometry": {
        "type": "Point",
        "coordinates": [
          -0.9097168,
          37.629792
        ]
      },
      "id": "node/1304124519"
    },
    {
      "type": "Feature",
      "properties": {
        "@id": "node/1304125172",
        "ele": "311",
        "name": "El Machón",
        "natural": "peak",
        "source": "Instituto Geográfico Nacional",
        "source:date": "201011"
      },
      "geometry": {
        "type": "Point",
        "coordinates": [
          -0.8976092,
          37.596434
        ]
      },
      "id": "node/1304125172"
    },
    {
      "type": "Feature",
      "properties": {
        "@id": "node/1304125836",
        "name": "Cabezo de la Gineta",
        "natural": "peak",
        "source": "Instituto Geográfico Nacional",
        "source:date": "201011"
      },
      "geometry": {
        "type": "Point",
        "coordinates": [
          -1.0546765,
          38.1235417
        ]
      },
      "id": "node/1304125836"
    },
    {
      "type": "Feature",
      "properties": {
        "@id": "node/1304125902",
        "ele": "484",
        "name": "Morra de los Monteses",
        "natural": "peak",
        "source": "Instituto Geográfico Nacional"
      },
      "geometry": {
        "type": "Point",
        "coordinates": [
          -1.1400407,
          37.5875385
        ]
      },
      "id": "node/1304125902"
    },
    {
      "type": "Feature",
      "properties": {
        "@id": "node/1304126289",
        "ele": "546",
        "name": "Morra de los Garabitos",
        "natural": "peak",
        "source": "Instituto Geográfico Nacional",
        "wikidata": "Q23986078"
      },
      "geometry": {
        "type": "Point",
        "coordinates": [
          -1.1243398,
          37.5800008
        ]
      },
      "id": "node/1304126289"
    },
    {
      "type": "Feature",
      "properties": {
        "@id": "node/1304126997",
        "ele": "418",
        "name": "Cabezo de la Estrella",
        "natural": "peak",
        "source": "Instituto Geográfico Nacional",
        "wikidata": "Q23985814"
      },
      "geometry": {
        "type": "Point",
        "coordinates": [
          -1.0552873,
          37.5892679
        ]
      },
      "id": "node/1304126997"
    },
    {
      "type": "Feature",
      "properties": {
        "@id": "node/1304127866",
        "name": "Cabezo Otahonero",
        "natural": "peak",
        "source": "Instituto Geográfico Nacional",
        "source:date": "201011"
      },
      "geometry": {
        "type": "Point",
        "coordinates": [
          -0.9117974,
          37.6384201
        ]
      },
      "id": "node/1304127866"
    },
    {
      "type": "Feature",
      "properties": {
        "@id": "node/1304128737",
        "ele": "348",
        "name": "Cabezo del Atalayón",
        "natural": "peak",
        "source": "Instituto Geográfico Nacional",
        "wikidata": "Q23987630"
      },
      "geometry": {
        "type": "Point",
        "coordinates": [
          -1.1301644,
          37.5413742
        ]
      },
      "id": "node/1304128737"
    },
    {
      "type": "Feature",
      "properties": {
        "@id": "node/1304129260",
        "ele": "279",
        "name": "Cabezo Negro de Tallante",
        "natural": "peak",
        "ngbe:codigo": "80206",
        "ngbe:grupo": "Relieve",
        "ngbe:hojabcn25": "0977-1",
        "ngbe:huso": "30",
        "ngbe:id": "261020",
        "ngbe:lat_ed50": "-1.1545410596",
        "ngbe:lon_ed50": "37.6595566851",
        "ngbe:subgrupo": "Montañas y picos restantes. cerros. etc.",
        "ngbe:tema": "Toponimia",
        "ngbe:tipotexto": "T",
        "ngbe:version": "provisional",
        "ngbe:xutm_ed50": "662787",
        "ngbe:yutm_ed50": "4169714",
        "note": "If you change this node, please, report in http://wiki.openstreetmap.org/wiki/ES:NGBE/Correcciones or to nomenclatorign at gmail dot com. Thank you.",
        "note:es": "Si realizas algún cambio en este nodo, por favor, comunícalo en http://wiki.openstreetmap.org/wiki/ES:NGBE/Correcciones o a nomenclatorign at gmail dot com. Gracias.",
        "source": "Instituto Geográfico Nacional",
        "source:date": "201011",
        "source:name": "Nomenclator Geográfico Básico de España",
        "wikidata": "Q5738147",
        "wikipedia": "es:Cabezo Negro de Tallante"
      },
      "geometry": {
        "type": "Point",
        "coordinates": [
          -1.1505138,
          37.6573733
        ]
      },
      "id": "node/1304129260"
    },
    {
      "type": "Feature",
      "properties": {
        "@id": "node/1304129419",
        "ele": "177",
        "name": "Cabezo de la Galera",
        "natural": "peak",
        "source": "Instituto Geográfico Nacional",
        "source:date": "201011"
      },
      "geometry": {
        "type": "Point",
        "coordinates": [
          -0.8605481,
          37.5833232
        ]
      },
      "id": "node/1304129419"
    },
    {
      "type": "Feature",
      "properties": {
        "@id": "node/1304129879",
        "name": "Cabezo de la Cruz",
        "natural": "peak",
        "source": "Instituto Geográfico Nacional",
        "source:date": "201011"
      },
      "geometry": {
        "type": "Point",
        "coordinates": [
          -0.8775107,
          37.6313734
        ]
      },
      "id": "node/1304129879"
    },
    {
      "type": "Feature",
      "properties": {
        "@id": "node/1304130388",
        "ele": "41",
        "name": "Cabezo del Caño",
        "natural": "peak",
        "source": "Instituto Geográfico Nacional",
        "source:date": "201011",
        "wikidata": "Q23988271"
      },
      "geometry": {
        "type": "Point",
        "coordinates": [
          -1.0108378,
          37.5882489
        ]
      },
      "id": "node/1304130388"
    },
    {
      "type": "Feature",
      "properties": {
        "@id": "node/1304130800",
        "name": "Cabezo la Hormiga",
        "natural": "peak",
        "source": "Instituto Geográfico Nacional",
        "source:date": "201011"
      },
      "geometry": {
        "type": "Point",
        "coordinates": [
          -1.2125496,
          38.0437698
        ]
      },
      "id": "node/1304130800"
    },
    {
      "type": "Feature",
      "properties": {
        "@id": "node/1304130838",
        "ele": "297",
        "name": "Morra la Arjona",
        "natural": "peak",
        "source": "Instituto Geográfico Nacional"
      },
      "geometry": {
        "type": "Point",
        "coordinates": [
          -1.1064766,
          37.6064032
        ]
      },
      "id": "node/1304130838"
    },
    {
      "type": "Feature",
      "properties": {
        "@id": "node/1304131202",
        "ele": "213",
        "name": "Cabezo de la Cruz",
        "natural": "peak",
        "source": "Instituto Geográfico Nacional",
        "source:date": "201011"
      },
      "geometry": {
        "type": "Point",
        "coordinates": [
          -1.1228061,
          37.734169
        ]
      },
      "id": "node/1304131202"
    },
    {
      "type": "Feature",
      "properties": {
        "@id": "node/1304131224",
        "ele": "468",
        "name": "Cabezo de las Estancias",
        "natural": "peak",
        "source": "Instituto Geográfico Nacional",
        "wikidata": "Q23985796"
      },
      "geometry": {
        "type": "Point",
        "coordinates": [
          -1.1144173,
          37.5806929
        ]
      },
      "id": "node/1304131224"
    },
    {
      "type": "Feature",
      "properties": {
        "@id": "node/1304131672",
        "ele": "475",
        "name": "Cabezo Negro",
        "natural": "peak",
        "source": "Instituto Geográfico Nacional",
        "wikidata": "Q23982163"
      },
      "geometry": {
        "type": "Point",
        "coordinates": [
          -1.1214616,
          37.5951592
        ]
      },
      "id": "node/1304131672"
    },
    {
      "type": "Feature",
      "properties": {
        "@id": "node/1304132032",
        "name": "Cerro del Ángel",
        "natural": "peak",
        "source": "Instituto Geográfico Nacional",
        "source:date": "201011"
      },
      "geometry": {
        "type": "Point",
        "coordinates": [
          -1.1581423,
          37.6882118
        ]
      },
      "id": "node/1304132032"
    },
    {
      "type": "Feature",
      "properties": {
        "@id": "node/1304132100",
        "ele": "229",
        "name": "Cerro de San Ginés",
        "natural": "peak",
        "source": "Instituto Geográfico Nacional",
        "source:date": "201011"
      },
      "geometry": {
        "type": "Point",
        "coordinates": [
          -0.8271569,
          37.6354175
        ]
      },
      "id": "node/1304132100"
    },
    {
      "type": "Feature",
      "properties": {
        "@id": "node/1304132619",
        "ele": "470",
        "name": "Morro del Palmeral",
        "natural": "peak",
        "source": "Instituto Geográfico Nacional"
      },
      "geometry": {
        "type": "Point",
        "coordinates": [
          -1.1466407,
          37.6257779
        ]
      },
      "id": "node/1304132619"
    },
    {
      "type": "Feature",
      "properties": {
        "@id": "node/1304133158",
        "ele": "379",
        "name": "Cerro de los Siete Cucones",
        "natural": "peak",
        "source": "Instituto Geográfico Nacional"
      },
      "geometry": {
        "type": "Point",
        "coordinates": [
          -1.1511035,
          37.551751
        ]
      },
      "id": "node/1304133158"
    },
    {
      "type": "Feature",
      "properties": {
        "@id": "node/1304133541",
        "name": "Cabezo de Álvarez",
        "natural": "peak",
        "source": "Instituto Geográfico Nacional",
        "source:date": "201011"
      },
      "geometry": {
        "type": "Point",
        "coordinates": [
          -0.8667359,
          37.6358716
        ]
      },
      "id": "node/1304133541"
    },
    {
      "type": "Feature",
      "properties": {
        "@id": "node/1304133710",
        "ele": "110",
        "name": "Cabecico del Molino",
        "natural": "peak",
        "source": "Instituto Geográfico Nacional",
        "source:date": "201011"
      },
      "geometry": {
        "type": "Point",
        "coordinates": [
          -0.9058255,
          37.6074041
        ]
      },
      "id": "node/1304133710"
    },
    {
      "type": "Feature",
      "properties": {
        "@id": "node/1304133855",
        "ele": "476",
        "name": "Cabezo de Majasarte",
        "natural": "peak",
        "source": "Instituto Geográfico Nacional"
      },
      "geometry": {
        "type": "Point",
        "coordinates": [
          -1.1781716,
          37.6171287
        ]
      },
      "id": "node/1304133855"
    },
    {
      "type": "Feature",
      "properties": {
        "@id": "node/1304133908",
        "ele": "239",
        "name": "Cabezo de la Yegua",
        "natural": "peak",
        "source": "Instituto Geográfico Nacional"
      },
      "geometry": {
        "type": "Point",
        "coordinates": [
          -1.1714914,
          37.574366
        ]
      },
      "id": "node/1304133908"
    },
    {
      "type": "Feature",
      "properties": {
        "@id": "node/1304133954",
        "ele": "449",
        "name": "Cabezo el Cambrón",
        "natural": "peak",
        "source": "Instituto Geográfico Nacional"
      },
      "geometry": {
        "type": "Point",
        "coordinates": [
          -1.1537916,
          37.5840008
        ]
      },
      "id": "node/1304133954"
    },
    {
      "type": "Feature",
      "properties": {
        "@id": "node/1304134059",
        "ele": "88",
        "name": "Cerro de los Cuervos",
        "natural": "peak",
        "source": "Instituto Geográfico Nacional"
      },
      "geometry": {
        "type": "Point",
        "coordinates": [
          -0.721188,
          37.6221093
        ]
      },
      "id": "node/1304134059"
    },
    {
      "type": "Feature",
      "properties": {
        "@id": "node/1304134066",
        "ele": "369",
        "name": "El Pericón",
        "natural": "peak",
        "source": "Instituto Geográfico Nacional",
        "source:date": "201011"
      },
      "geometry": {
        "type": "Point",
        "coordinates": [
          -1.1186076,
          37.6778216
        ]
      },
      "id": "node/1304134066"
    },
    {
      "type": "Feature",
      "properties": {
        "@id": "node/1304134181",
        "ele": "266",
        "name": "Morro el Torreón",
        "natural": "peak",
        "source": "Instituto Geográfico Nacional"
      },
      "geometry": {
        "type": "Point",
        "coordinates": [
          -1.1702445,
          37.6062664
        ]
      },
      "id": "node/1304134181"
    },
    {
      "type": "Feature",
      "properties": {
        "@id": "node/1304134457",
        "name": "Cabezo Las Lajas",
        "natural": "peak",
        "source": "Instituto Geográfico Nacional",
        "source:date": "201011"
      },
      "geometry": {
        "type": "Point",
        "coordinates": [
          -0.865284,
          37.6073418
        ]
      },
      "id": "node/1304134457"
    },
    {
      "type": "Feature",
      "properties": {
        "@id": "node/1304134648",
        "name": "Cabezo Morales",
        "natural": "peak",
        "source": "Instituto Geográfico Nacional",
        "source:date": "201011"
      },
      "geometry": {
        "type": "Point",
        "coordinates": [
          -1.0615395,
          38.0895603
        ]
      },
      "id": "node/1304134648"
    },
    {
      "type": "Feature",
      "properties": {
        "@id": "node/1304134864",
        "name": "Pico Cebolla",
        "natural": "peak",
        "ngbe:codigo": "80206",
        "ngbe:grupo": "Relieve",
        "ngbe:hojabcn25": "0977-1",
        "ngbe:huso": "30",
        "ngbe:id": "261045",
        "ngbe:lat_ed50": "-1.1693971385",
        "ngbe:lon_ed50": "37.6625279014",
        "ngbe:subgrupo": "Montañas y picos restantes. cerros. etc.",
        "ngbe:tema": "Toponimia",
        "ngbe:tipotexto": "T",
        "ngbe:version": "provisional",
        "ngbe:xutm_ed50": "661470",
        "ngbe:yutm_ed50": "4170018",
        "note": "If you change this node, please, report in http://wiki.openstreetmap.org/wiki/ES:NGBE/Correcciones or to nomenclatorign at gmail dot com. Thank you.",
        "note:es": "Si realizas algún cambio en este nodo, por favor, comunícalo en http://wiki.openstreetmap.org/wiki/ES:NGBE/Correcciones o a nomenclatorign at gmail dot com. Gracias.",
        "source": "Instituto Geográfico Nacional",
        "source:date": "201011",
        "source:name": "Nomenclator Geográfico Básico de España"
      },
      "geometry": {
        "type": "Point",
        "coordinates": [
          -1.1706061,
          37.6612958
        ]
      },
      "id": "node/1304134864"
    },
    {
      "type": "Feature",
      "properties": {
        "@id": "node/1304135593",
        "name": "Cabezo de La Atalaya",
        "natural": "peak",
        "source": "Instituto Geográfico Nacional",
        "source:date": "201011"
      },
      "geometry": {
        "type": "Point",
        "coordinates": [
          -0.8964888,
          37.6407383
        ]
      },
      "id": "node/1304135593"
    },
    {
      "type": "Feature",
      "properties": {
        "@id": "node/1304136002",
        "ele": "375",
        "name": "Cabezo de los Calzones",
        "natural": "peak",
        "source": "Instituto Geográfico Nacional"
      },
      "geometry": {
        "type": "Point",
        "coordinates": [
          -1.1387755,
          37.6287662
        ]
      },
      "id": "node/1304136002"
    },
    {
      "type": "Feature",
      "properties": {
        "@id": "node/1304136183",
        "name": "Cabezo de Santa María",
        "natural": "peak",
        "source": "Instituto Geográfico Nacional",
        "source:date": "201011"
      },
      "geometry": {
        "type": "Point",
        "coordinates": [
          -1.2235212,
          37.8038129
        ]
      },
      "id": "node/1304136183"
    },
    {
      "type": "Feature",
      "properties": {
        "@id": "node/1304136212",
        "ele": "172",
        "name": "Cerro de la Albolaga",
        "natural": "peak",
        "source": "Instituto Geográfico Nacional",
        "source:date": "201011"
      },
      "geometry": {
        "type": "Point",
        "coordinates": [
          -0.909111,
          37.5808681
        ]
      },
      "id": "node/1304136212"
    },
    {
      "type": "Feature",
      "properties": {
        "@id": "node/1304136579",
        "ele": "495",
        "name": "Morra del Toscal",
        "natural": "peak",
        "source": "Instituto Geográfico Nacional",
        "wikidata": "Q23978966"
      },
      "geometry": {
        "type": "Point",
        "coordinates": [
          -1.1055606,
          37.5841611
        ]
      },
      "id": "node/1304136579"
    },
    {
      "type": "Feature",
      "properties": {
        "@id": "node/1304136763",
        "ele": "147",
        "name": "Cabezo de los Martínez",
        "natural": "peak",
        "source": "Instituto Geográfico Nacional"
      },
      "geometry": {
        "type": "Point",
        "coordinates": [
          -0.7418421,
          37.6151413
        ]
      },
      "id": "node/1304136763"
    },
    {
      "type": "Feature",
      "properties": {
        "@id": "node/1304136901",
        "ele": "389",
        "name": "Puntal del Moco",
        "natural": "peak",
        "source": "Instituto Geográfico Nacional",
        "wikidata": "Q23984217"
      },
      "geometry": {
        "type": "Point",
        "coordinates": [
          -1.0591475,
          37.5871545
        ]
      },
      "id": "node/1304136901"
    },
    {
      "type": "Feature",
      "properties": {
        "@id": "node/1304137196",
        "name": "Cabezo de San Pedro",
        "natural": "peak",
        "source": "Instituto Geográfico Nacional",
        "source:date": "201011",
        "wikidata": "Q23980402"
      },
      "geometry": {
        "type": "Point",
        "coordinates": [
          -0.9716161,
          37.5867756
        ]
      },
      "id": "node/1304137196"
    },
    {
      "type": "Feature",
      "properties": {
        "@id": "node/1304137329",
        "ele": "331",
        "name": "Cabezo Alto",
        "natural": "peak",
        "source": "Instituto Geográfico Nacional"
      },
      "geometry": {
        "type": "Point",
        "coordinates": [
          -1.1241992,
          37.6141759
        ]
      },
      "id": "node/1304137329"
    },
    {
      "type": "Feature",
      "properties": {
        "@id": "node/1304137368",
        "name": "Cabezo del Colmenar",
        "natural": "peak",
        "source": "Instituto Geográfico Nacional",
        "source:date": "201011"
      },
      "geometry": {
        "type": "Point",
        "coordinates": [
          -1.1611982,
          38.0921724
        ]
      },
      "id": "node/1304137368"
    },
    {
      "type": "Feature",
      "properties": {
        "@id": "node/1304137501",
        "ele": "138",
        "name": "Cerro del Atalayón",
        "natural": "peak",
        "source": "Instituto Geográfico Nacional"
      },
      "geometry": {
        "type": "Point",
        "coordinates": [
          -0.7218384,
          37.6166156
        ]
      },
      "id": "node/1304137501"
    },
    {
      "type": "Feature",
      "properties": {
        "@id": "node/1304137676",
        "ele": "305",
        "name": "Alto de las Cutandas",
        "natural": "peak",
        "ngbe:codigo": "80206",
        "ngbe:grupo": "Relieve",
        "ngbe:hojabcn25": "0977-1",
        "ngbe:huso": "30",
        "ngbe:id": "261042",
        "ngbe:lat_ed50": "-1.1433689522",
        "ngbe:lon_ed50": "37.6539020268",
        "ngbe:subgrupo": "Montañas y picos restantes. cerros. etc.",
        "ngbe:tema": "Toponimia",
        "ngbe:tipotexto": "T",
        "ngbe:version": "provisional",
        "ngbe:xutm_ed50": "663785",
        "ngbe:yutm_ed50": "4169106",
        "note": "If you change this node, please, report in http://wiki.openstreetmap.org/wiki/ES:NGBE/Correcciones or to nomenclatorign at gmail dot com. Thank you.",
        "note:es": "Si realizas algún cambio en este nodo, por favor, comunícalo en http://wiki.openstreetmap.org/wiki/ES:NGBE/Correcciones o a nomenclatorign at gmail dot com. Gracias.",
        "source": "Instituto Geográfico Nacional",
        "source:date": "201011",
        "source:name": "Nomenclator Geográfico Básico de España"
      },
      "geometry": {
        "type": "Point",
        "coordinates": [
          -1.1417016,
          37.6541309
        ]
      },
      "id": "node/1304137676"
    },
    {
      "type": "Feature",
      "properties": {
        "@id": "node/1304137992",
        "ele": "249",
        "name": "Cabezo de las Cuneras",
        "natural": "peak",
        "source": "Instituto Geográfico Nacional",
        "source:date": "201011"
      },
      "geometry": {
        "type": "Point",
        "coordinates": [
          -0.9073829,
          37.593348
        ]
      },
      "id": "node/1304137992"
    },
    {
      "type": "Feature",
      "properties": {
        "@id": "node/1304138301",
        "ele": "169",
        "name": "Cabezo de Aljibe",
        "natural": "peak",
        "source": "Instituto Geográfico Nacional"
      },
      "geometry": {
        "type": "Point",
        "coordinates": [
          -0.8838038,
          37.5757475
        ]
      },
      "id": "node/1304138301"
    },
    {
      "type": "Feature",
      "properties": {
        "@id": "node/1304138468",
        "name": "Cabezo de la Cruz",
        "natural": "peak",
        "source": "Instituto Geográfico Nacional",
        "source:date": "201011"
      },
      "geometry": {
        "type": "Point",
        "coordinates": [
          -1.2057123,
          38.0204423
        ]
      },
      "id": "node/1304138468"
    },
    {
      "type": "Feature",
      "properties": {
        "@id": "node/1304138542",
        "ele": "389",
        "name": "Cabezo del Calderón",
        "natural": "peak",
        "source": "Instituto Geográfico Nacional"
      },
      "geometry": {
        "type": "Point",
        "coordinates": [
          -1.1338925,
          37.6125438
        ]
      },
      "id": "node/1304138542"
    },
    {
      "type": "Feature",
      "properties": {
        "@id": "node/1304138846",
        "ele": "92",
        "name": "Cabezo Mingote",
        "natural": "peak",
        "source": "Instituto Geográfico Nacional",
        "source:date": "201011"
      },
      "geometry": {
        "type": "Point",
        "coordinates": [
          -0.7955714,
          37.6386905
        ]
      },
      "id": "node/1304138846"
    },
    {
      "type": "Feature",
      "properties": {
        "@id": "node/1304139131",
        "ele": "196",
        "name": "Cabezo Rajado",
        "natural": "peak",
        "source": "Instituto Geográfico Nacional",
        "source:date": "201011"
      },
      "geometry": {
        "type": "Point",
        "coordinates": [
          -0.9003017,
          37.6162527
        ]
      },
      "id": "node/1304139131"
    },
    {
      "type": "Feature",
      "properties": {
        "@id": "node/1304139349",
        "ele": "171",
        "name": "Cabezo de los Cuernos",
        "natural": "peak",
        "source": "Instituto Geográfico Nacional",
        "source:date": "201011",
        "wikidata": "Q23987166"
      },
      "geometry": {
        "type": "Point",
        "coordinates": [
          -0.9471638,
          37.6015606
        ]
      },
      "id": "node/1304139349"
    },
    {
      "type": "Feature",
      "properties": {
        "@id": "node/1304151978",
        "ele": "332",
        "name": "Cabezo de la Panadera",
        "natural": "peak",
        "source": "Instituto Geográfico Nacional"
      },
      "geometry": {
        "type": "Point",
        "coordinates": [
          -1.1594847,
          37.5480396
        ]
      },
      "id": "node/1304151978"
    },
    {
      "type": "Feature",
      "properties": {
        "@id": "node/1304175278",
        "ele": "329",
        "name": "Morra de los Madriles",
        "natural": "peak",
        "source": "Instituto Geográfico Nacional",
        "wikidata": "Q23984439"
      },
      "geometry": {
        "type": "Point",
        "coordinates": [
          -1.1053574,
          37.5967475
        ]
      },
      "id": "node/1304175278"
    },
    {
      "type": "Feature",
      "properties": {
        "@id": "node/1304175313",
        "name": "Cabezo de las Piedras",
        "natural": "peak",
        "source": "Instituto Geográfico Nacional",
        "source:date": "201011"
      },
      "geometry": {
        "type": "Point",
        "coordinates": [
          -1.1754383,
          38.1581879
        ]
      },
      "id": "node/1304175313"
    },
    {
      "type": "Feature",
      "properties": {
        "@id": "node/1323432542",
        "name": "La Naveta",
        "natural": "peak",
        "place": "locality"
      },
      "geometry": {
        "type": "Point",
        "coordinates": [
          -0.9789471,
          38.1056479
        ]
      },
      "id": "node/1323432542"
    },
    {
      "type": "Feature",
      "properties": {
        "@id": "node/1453660006",
        "ele": "345",
        "name": "Picacho",
        "natural": "peak",
        "summit:cross": "yes"
      },
      "geometry": {
        "type": "Point",
        "coordinates": [
          -1.0596415,
          37.9562713
        ]
      },
      "id": "node/1453660006"
    },
    {
      "type": "Feature",
      "properties": {
        "@id": "node/1453962204",
        "ele": "428",
        "name": "Los Mamellones",
        "natural": "peak"
      },
      "geometry": {
        "type": "Point",
        "coordinates": [
          -1.0252339,
          37.9546871
        ]
      },
      "id": "node/1453962204"
    },
    {
      "type": "Feature",
      "properties": {
        "@id": "node/1453962206",
        "ele": "449",
        "name": "Pico del Águila",
        "natural": "peak"
      },
      "geometry": {
        "type": "Point",
        "coordinates": [
          -1.0271324,
          37.947201
        ]
      },
      "id": "node/1453962206"
    },
    {
      "type": "Feature",
      "properties": {
        "@id": "node/1822383993",
        "alt_name": "Los Chaparrales",
        "ele": "1104",
        "loc_name": "Els Xaparrals",
        "name": "Cid",
        "name:ca": "Sit",
        "name:es": "Cid",
        "natural": "peak",
        "summit:register": "yes"
      },
      "geometry": {
        "type": "Point",
        "coordinates": [
          -0.7191452,
          38.4538041
        ]
      },
      "id": "node/1822383993"
    },
    {
      "type": "Feature",
      "properties": {
        "@id": "node/1822383996",
        "ele": "901",
        "man_made": "cairn",
        "name": "els Castellarets",
        "name:ca": "els Castellarets",
        "name:es": "Los Castellarets",
        "natural": "peak",
        "summit:register": "yes"
      },
      "geometry": {
        "type": "Point",
        "coordinates": [
          -0.7143793,
          38.4958685
        ]
      },
      "id": "node/1822383996"
    },
    {
      "type": "Feature",
      "properties": {
        "@id": "node/1822384002",
        "alt_name": "El Calafat",
        "ele": "999",
        "man_made": "cairn",
        "name": "Rasos de Catí",
        "name:ca": "Rasos de Catí",
        "name:es": "Rasos de Catí",
        "natural": "peak",
        "summit:register": "yes"
      },
      "geometry": {
        "type": "Point",
        "coordinates": [
          -0.6852318,
          38.4901418
        ]
      },
      "id": "node/1822384002"
    },
    {
      "type": "Feature",
      "properties": {
        "@id": "node/2628430655",
        "ele": "332",
        "name": "Peña Roja",
        "natural": "peak"
      },
      "geometry": {
        "type": "Point",
        "coordinates": [
          -1.0063566,
          38.2048418
        ]
      },
      "id": "node/2628430655"
    },
    {
      "type": "Feature",
      "properties": {
        "@id": "node/2628438861",
        "ele": "530",
        "natural": "peak"
      },
      "geometry": {
        "type": "Point",
        "coordinates": [
          -0.9873125,
          38.2327534
        ]
      },
      "id": "node/2628438861"
    },
    {
      "type": "Feature",
      "properties": {
        "@id": "node/2734387072",
        "name": "Pico del Águila",
        "natural": "peak"
      },
      "geometry": {
        "type": "Point",
        "coordinates": [
          -1.0172842,
          38.0940797
        ]
      },
      "id": "node/2734387072"
    },
    {
      "type": "Feature",
      "properties": {
        "@id": "node/2735403337",
        "alt_name": "La Mama del Cid",
        "ele": "841",
        "name": "la Mama del Sit",
        "name:ca": "la Mama del Sit",
        "natural": "peak",
        "source": "Instituto Geográfico Nacional"
      },
      "geometry": {
        "type": "Point",
        "coordinates": [
          -0.7058774,
          38.4523583
        ]
      },
      "id": "node/2735403337"
    },
    {
      "type": "Feature",
      "properties": {
        "@id": "node/3432314841",
        "ele": "885",
        "name": "El Jaquetó",
        "name:ca": "El Jaquetó",
        "natural": "peak"
      },
      "geometry": {
        "type": "Point",
        "coordinates": [
          -0.6712243,
          38.4876448
        ]
      },
      "id": "node/3432314841"
    },
    {
      "type": "Feature",
      "properties": {
        "@id": "node/3618528881",
        "ele": "559",
        "name": "Montagut",
        "name:ca": "Montagut",
        "natural": "peak"
      },
      "geometry": {
        "type": "Point",
        "coordinates": [
          -0.7674137,
          38.4186578
        ]
      },
      "id": "node/3618528881"
    },
    {
      "type": "Feature",
      "properties": {
        "@id": "node/3844612712",
        "name": "Cerro de los Moros",
        "natural": "peak"
      },
      "geometry": {
        "type": "Point",
        "coordinates": [
          -0.973419,
          37.6010968
        ]
      },
      "id": "node/3844612712"
    },
    {
      "type": "Feature",
      "properties": {
        "@id": "node/3860985324",
        "ele": "1371",
        "name": "La Madama",
        "natural": "peak"
      },
      "geometry": {
        "type": "Point",
        "coordinates": [
          -1.1640175,
          38.4277013
        ]
      },
      "id": "node/3860985324"
    },
    {
      "type": "Feature",
      "properties": {
        "@id": "node/3947914927",
        "ele": "312",
        "name": "Pico Bermejo",
        "natural": "peak"
      },
      "geometry": {
        "type": "Point",
        "coordinates": [
          -1.0675409,
          38.0632438
        ]
      },
      "id": "node/3947914927"
    },
    {
      "type": "Feature",
      "properties": {
        "@id": "node/3947916680",
        "name": "Diente de la Vieja",
        "natural": "peak"
      },
      "geometry": {
        "type": "Point",
        "coordinates": [
          -1.0716094,
          38.063403
        ]
      },
      "id": "node/3947916680"
    },
    {
      "type": "Feature",
      "properties": {
        "@id": "node/3982456195",
        "ele": "312",
        "name": "Cabezo Gordo",
        "natural": "peak",
        "wikidata": "Q5738133",
        "wikimedia_commons": "Category:Cabezo Gordo",
        "wikipedia": "es:Cabezo Gordo"
      },
      "geometry": {
        "type": "Point",
        "coordinates": [
          -0.9080726,
          37.8015996
        ]
      },
      "id": "node/3982456195"
    },
    {
      "type": "Feature",
      "properties": {
        "@id": "node/4210477559",
        "natural": "peak"
      },
      "geometry": {
        "type": "Point",
        "coordinates": [
          -1.0877752,
          38.0235469
        ]
      },
      "id": "node/4210477559"
    },
    {
      "type": "Feature",
      "properties": {
        "@id": "node/4210477560",
        "natural": "peak"
      },
      "geometry": {
        "type": "Point",
        "coordinates": [
          -1.0885531,
          38.0234793
        ]
      },
      "id": "node/4210477560"
    },
    {
      "type": "Feature",
      "properties": {
        "@id": "node/4210477561",
        "natural": "peak"
      },
      "geometry": {
        "type": "Point",
        "coordinates": [
          -1.0874104,
          38.0242399
        ]
      },
      "id": "node/4210477561"
    },
    {
      "type": "Feature",
      "properties": {
        "@id": "node/4210477562",
        "natural": "peak"
      },
      "geometry": {
        "type": "Point",
        "coordinates": [
          -1.0884404,
          38.0249287
        ]
      },
      "id": "node/4210477562"
    },
    {
      "type": "Feature",
      "properties": {
        "@id": "node/4210540572",
        "name": "Monteagudo",
        "natural": "peak"
      },
      "geometry": {
        "type": "Point",
        "coordinates": [
          -1.0974785,
          38.0204146
        ]
      },
      "id": "node/4210540572"
    },
    {
      "type": "Feature",
      "properties": {
        "@id": "node/4210541904",
        "natural": "peak"
      },
      "geometry": {
        "type": "Point",
        "coordinates": [
          -1.0975593,
          38.0322902
        ]
      },
      "id": "node/4210541904"
    },
    {
      "type": "Feature",
      "properties": {
        "@id": "node/4210541905",
        "natural": "peak"
      },
      "geometry": {
        "type": "Point",
        "coordinates": [
          -1.080824,
          38.035231
        ]
      },
      "id": "node/4210541905"
    },
    {
      "type": "Feature",
      "properties": {
        "@id": "node/4210541906",
        "natural": "peak"
      },
      "geometry": {
        "type": "Point",
        "coordinates": [
          -1.1057342,
          38.0401641
        ]
      },
      "id": "node/4210541906"
    },
    {
      "type": "Feature",
      "properties": {
        "@id": "node/4210563328",
        "natural": "peak"
      },
      "geometry": {
        "type": "Point",
        "coordinates": [
          -1.0798845,
          38.0583428
        ]
      },
      "id": "node/4210563328"
    },
    {
      "type": "Feature",
      "properties": {
        "@id": "node/4210563362",
        "natural": "peak"
      },
      "geometry": {
        "type": "Point",
        "coordinates": [
          -1.0737634,
          38.0609362
        ]
      },
      "id": "node/4210563362"
    },
    {
      "type": "Feature",
      "properties": {
        "@id": "node/4210569348",
        "natural": "peak"
      },
      "geometry": {
        "type": "Point",
        "coordinates": [
          -1.0834759,
          38.0632945
        ]
      },
      "id": "node/4210569348"
    },
    {
      "type": "Feature",
      "properties": {
        "@id": "node/4210569350",
        "natural": "peak"
      },
      "geometry": {
        "type": "Point",
        "coordinates": [
          -1.0813923,
          38.062419
        ]
      },
      "id": "node/4210569350"
    },
    {
      "type": "Feature",
      "properties": {
        "@id": "node/4210569353",
        "natural": "peak"
      },
      "geometry": {
        "type": "Point",
        "coordinates": [
          -1.071768,
          38.070435
        ]
      },
      "id": "node/4210569353"
    },
    {
      "type": "Feature",
      "properties": {
        "@id": "node/4210569357",
        "natural": "peak"
      },
      "geometry": {
        "type": "Point",
        "coordinates": [
          -1.0680129,
          38.0669968
        ]
      },
      "id": "node/4210569357"
    },
    {
      "type": "Feature",
      "properties": {
        "@id": "node/4210569359",
        "natural": "peak"
      },
      "geometry": {
        "type": "Point",
        "coordinates": [
          -1.0783663,
          38.0624021
        ]
      },
      "id": "node/4210569359"
    },
    {
      "type": "Feature",
      "properties": {
        "@id": "node/4210569361",
        "natural": "peak"
      },
      "geometry": {
        "type": "Point",
        "coordinates": [
          -1.0744931,
          38.0643027
        ]
      },
      "id": "node/4210569361"
    },
    {
      "type": "Feature",
      "properties": {
        "@id": "node/4210572305",
        "natural": "peak"
      },
      "geometry": {
        "type": "Point",
        "coordinates": [
          -1.0229211,
          38.0957853
        ]
      },
      "id": "node/4210572305"
    },
    {
      "type": "Feature",
      "properties": {
        "@id": "node/4210572306",
        "natural": "peak"
      },
      "geometry": {
        "type": "Point",
        "coordinates": [
          -1.0050029,
          38.0960901
        ]
      },
      "id": "node/4210572306"
    },
    {
      "type": "Feature",
      "properties": {
        "@id": "node/4210572308",
        "ele": "313",
        "name": "Cabezo del Burro",
        "natural": "peak"
      },
      "geometry": {
        "type": "Point",
        "coordinates": [
          -0.9939254,
          38.0906186
        ]
      },
      "id": "node/4210572308"
    },
    {
      "type": "Feature",
      "properties": {
        "@id": "node/4283419911",
        "ele": "655",
        "name": "Bolón",
        "natural": "peak"
      },
      "geometry": {
        "type": "Point",
        "coordinates": [
          -0.8167917,
          38.4738058
        ]
      },
      "id": "node/4283419911"
    },
    {
      "type": "Feature",
      "properties": {
        "@id": "node/4359973578",
        "name": "La Mola",
        "name:ca": "La Mola",
        "natural": "peak"
      },
      "geometry": {
        "type": "Point",
        "coordinates": [
          -0.7988832,
          38.4064396
        ]
      },
      "id": "node/4359973578"
    },
    {
      "type": "Feature",
      "properties": {
        "@id": "node/4441049894",
        "alt_name": "Cap de Montnegre",
        "ele": "515",
        "name": "Cabeç de Montnegre",
        "name:ca": "Cabeç de Montnegre",
        "natural": "peak",
        "note": "La denominació oficial segons l'Acadèmia Valenciana de la Llengua és Cabeç de Montnegre."
      },
      "geometry": {
        "type": "Point",
        "coordinates": [
          -0.5098266,
          38.4782967
        ]
      },
      "id": "node/4441049894"
    },
    {
      "type": "Feature",
      "properties": {
        "@id": "node/4475377804",
        "ele": "285",
        "name": "Puntal Gros",
        "natural": "peak"
      },
      "geometry": {
        "type": "Point",
        "coordinates": [
          -0.6793212,
          38.3201367
        ]
      },
      "id": "node/4475377804"
    },
    {
      "type": "Feature",
      "properties": {
        "@id": "node/4475527374",
        "alt_name": "Alt de Sant Antoni;Lloma dels Mollons de Bru;Lloma de Sant Antoni",
        "alt_name:ca": "Alt de Sant Antoni;Lloma dels Mollons de Bru;Lloma de Sant Antoni",
        "ele": "312",
        "name": "Tossal de Sant Antoni",
        "name:ca": "Tossal de Sant Antoni",
        "natural": "peak"
      },
      "geometry": {
        "type": "Point",
        "coordinates": [
          -0.6922883,
          38.3172338
        ]
      },
      "id": "node/4475527374"
    },
    {
      "type": "Feature",
      "properties": {
        "@id": "node/4648503594",
        "ele": "162",
        "natural": "peak"
      },
      "geometry": {
        "type": "Point",
        "coordinates": [
          -1.1049291,
          37.5718988
        ]
      },
      "id": "node/4648503594"
    },
    {
      "type": "Feature",
      "properties": {
        "@id": "node/4734060586",
        "ele": "721",
        "natural": "peak"
      },
      "geometry": {
        "type": "Point",
        "coordinates": [
          -1.2305414,
          38.2737242
        ]
      },
      "id": "node/4734060586"
    },
    {
      "type": "Feature",
      "properties": {
        "@id": "node/4734061092",
        "ele": "725",
        "natural": "peak"
      },
      "geometry": {
        "type": "Point",
        "coordinates": [
          -1.2209804,
          38.2781358
        ]
      },
      "id": "node/4734061092"
    },
    {
      "type": "Feature",
      "properties": {
        "@id": "node/4734061093",
        "ele": "704",
        "name": "Pico del Boticario",
        "natural": "peak",
        "source": "Instituto Geográfico Nacional"
      },
      "geometry": {
        "type": "Point",
        "coordinates": [
          -1.2292072,
          38.2799768
        ]
      },
      "id": "node/4734061093"
    },
    {
      "type": "Feature",
      "properties": {
        "@id": "node/4734061094",
        "ele": "822",
        "natural": "peak"
      },
      "geometry": {
        "type": "Point",
        "coordinates": [
          -1.2100052,
          38.2780399
        ]
      },
      "id": "node/4734061094"
    },
    {
      "type": "Feature",
      "properties": {
        "@id": "node/4734061096",
        "ele": "1071",
        "natural": "peak"
      },
      "geometry": {
        "type": "Point",
        "coordinates": [
          -1.2033291,
          38.2707452
        ]
      },
      "id": "node/4734061096"
    },
    {
      "type": "Feature",
      "properties": {
        "@id": "node/4734061120",
        "ele": "726",
        "name": "Picos de los Pozos",
        "natural": "peak"
      },
      "geometry": {
        "type": "Point",
        "coordinates": [
          -1.2190135,
          38.2768404
        ]
      },
      "id": "node/4734061120"
    },
    {
      "type": "Feature",
      "properties": {
        "@id": "node/4734062238",
        "ele": "1153",
        "natural": "peak"
      },
      "geometry": {
        "type": "Point",
        "coordinates": [
          -1.1960252,
          38.2696032
        ]
      },
      "id": "node/4734062238"
    },
    {
      "type": "Feature",
      "properties": {
        "@id": "node/4734062948",
        "ele": "947",
        "natural": "peak"
      },
      "geometry": {
        "type": "Point",
        "coordinates": [
          -1.1851697,
          38.2818132
        ]
      },
      "id": "node/4734062948"
    },
    {
      "type": "Feature",
      "properties": {
        "@id": "node/4734136029",
        "ele": "984",
        "natural": "peak",
        "source": "Instituto Geográfico Nacional"
      },
      "geometry": {
        "type": "Point",
        "coordinates": [
          -1.2063049,
          38.2638008
        ]
      },
      "id": "node/4734136029"
    },
    {
      "type": "Feature",
      "properties": {
        "@id": "node/4734136030",
        "ele": "654",
        "name": "El Almorchón",
        "natural": "peak"
      },
      "geometry": {
        "type": "Point",
        "coordinates": [
          -1.2226234,
          38.2386558
        ]
      },
      "id": "node/4734136030"
    },
    {
      "type": "Feature",
      "properties": {
        "@id": "node/4734136037",
        "ele": "841",
        "natural": "peak"
      },
      "geometry": {
        "type": "Point",
        "coordinates": [
          -1.2100103,
          38.2481171
        ]
      },
      "id": "node/4734136037"
    },
    {
      "type": "Feature",
      "properties": {
        "@id": "node/4734136038",
        "ele": "924",
        "natural": "peak",
        "source": "Instituto Geográfico Nacional"
      },
      "geometry": {
        "type": "Point",
        "coordinates": [
          -1.2073527,
          38.2600792
        ]
      },
      "id": "node/4734136038"
    },
    {
      "type": "Feature",
      "properties": {
        "@id": "node/4734136039",
        "ele": "887",
        "natural": "peak"
      },
      "geometry": {
        "type": "Point",
        "coordinates": [
          -1.2092416,
          38.2574811
        ]
      },
      "id": "node/4734136039"
    },
    {
      "type": "Feature",
      "properties": {
        "@id": "node/4734136044",
        "ele": "802",
        "name": "Alto del Rincón de los Poyatos",
        "natural": "peak",
        "source": "Instituto Geográfico Nacional"
      },
      "geometry": {
        "type": "Point",
        "coordinates": [
          -1.2152315,
          38.280954
        ]
      },
      "id": "node/4734136044"
    },
    {
      "type": "Feature",
      "properties": {
        "@id": "node/4734198275",
        "ele": "908",
        "natural": "peak"
      },
      "geometry": {
        "type": "Point",
        "coordinates": [
          -1.1618385,
          38.2803134
        ]
      },
      "id": "node/4734198275"
    },
    {
      "type": "Feature",
      "properties": {
        "@id": "node/4734198276",
        "ele": "925",
        "natural": "peak",
        "source": "Instituto Geográfico Nacional"
      },
      "geometry": {
        "type": "Point",
        "coordinates": [
          -1.1668684,
          38.27747
        ]
      },
      "id": "node/4734198276"
    },
    {
      "type": "Feature",
      "properties": {
        "@id": "node/4734198278",
        "ele": "1027",
        "natural": "peak"
      },
      "geometry": {
        "type": "Point",
        "coordinates": [
          -1.1725231,
          38.2739125
        ]
      },
      "id": "node/4734198278"
    },
    {
      "type": "Feature",
      "properties": {
        "@id": "node/4734198635",
        "ele": "1062",
        "natural": "peak"
      },
      "geometry": {
        "type": "Point",
        "coordinates": [
          -1.177249,
          38.2710447
        ]
      },
      "id": "node/4734198635"
    },
    {
      "type": "Feature",
      "properties": {
        "@id": "node/4734198643",
        "ele": "961",
        "natural": "peak"
      },
      "geometry": {
        "type": "Point",
        "coordinates": [
          -1.1745032,
          38.2697952
        ]
      },
      "id": "node/4734198643"
    },
    {
      "type": "Feature",
      "properties": {
        "@id": "node/4734198847",
        "ele": "826",
        "natural": "peak"
      },
      "geometry": {
        "type": "Point",
        "coordinates": [
          -1.1886584,
          38.2928337
        ]
      },
      "id": "node/4734198847"
    },
    {
      "type": "Feature",
      "properties": {
        "@id": "node/4734204057",
        "ele": "845",
        "natural": "peak"
      },
      "geometry": {
        "type": "Point",
        "coordinates": [
          -1.1608111,
          38.2839882
        ]
      },
      "id": "node/4734204057"
    },
    {
      "type": "Feature",
      "properties": {
        "@id": "node/4734204058",
        "ele": "683",
        "natural": "peak"
      },
      "geometry": {
        "type": "Point",
        "coordinates": [
          -1.1450876,
          38.2806546
        ]
      },
      "id": "node/4734204058"
    },
    {
      "type": "Feature",
      "properties": {
        "@id": "node/4734220270",
        "ele": "809",
        "name": "Cerro de la Cabra",
        "natural": "peak"
      },
      "geometry": {
        "type": "Point",
        "coordinates": [
          -1.1652272,
          38.2679529
        ]
      },
      "id": "node/4734220270"
    },
    {
      "type": "Feature",
      "properties": {
        "@id": "node/4734220271",
        "ele": "662",
        "name": "Cabezo Blanco",
        "natural": "peak"
      },
      "geometry": {
        "type": "Point",
        "coordinates": [
          -1.1657613,
          38.2595657
        ]
      },
      "id": "node/4734220271"
    },
    {
      "type": "Feature",
      "properties": {
        "@id": "node/4734309837",
        "ele": "641",
        "natural": "peak"
      },
      "geometry": {
        "type": "Point",
        "coordinates": [
          -1.1867413,
          38.2088159
        ]
      },
      "id": "node/4734309837"
    },
    {
      "type": "Feature",
      "properties": {
        "@id": "node/4734309838",
        "ele": "699",
        "natural": "peak"
      },
      "geometry": {
        "type": "Point",
        "coordinates": [
          -1.1908166,
          38.2091053
        ]
      },
      "id": "node/4734309838"
    },
    {
      "type": "Feature",
      "properties": {
        "@id": "node/4734309839",
        "ele": "705",
        "name": "Lugar",
        "natural": "peak"
      },
      "geometry": {
        "type": "Point",
        "coordinates": [
          -1.1923899,
          38.2062186
        ]
      },
      "id": "node/4734309839"
    },
    {
      "type": "Feature",
      "properties": {
        "@id": "node/4734309840",
        "ele": "625",
        "natural": "peak"
      },
      "geometry": {
        "type": "Point",
        "coordinates": [
          -1.1883145,
          38.2046536
        ]
      },
      "id": "node/4734309840"
    },
    {
      "type": "Feature",
      "properties": {
        "@id": "node/4734314560",
        "ele": "613",
        "natural": "peak"
      },
      "geometry": {
        "type": "Point",
        "coordinates": [
          -1.1860156,
          38.2150357
        ]
      },
      "id": "node/4734314560"
    },
    {
      "type": "Feature",
      "properties": {
        "@id": "node/4734412342",
        "ele": "525",
        "natural": "peak"
      },
      "geometry": {
        "type": "Point",
        "coordinates": [
          -1.1486777,
          38.2165861
        ]
      },
      "id": "node/4734412342"
    },
    {
      "type": "Feature",
      "properties": {
        "@id": "node/4735750079",
        "ele": "419",
        "natural": "peak"
      },
      "geometry": {
        "type": "Point",
        "coordinates": [
          -1.1545518,
          38.2174406
        ]
      },
      "id": "node/4735750079"
    },
    {
      "type": "Feature",
      "properties": {
        "@id": "node/4735750139",
        "ele": "593",
        "name": "Cabezo del Sastre",
        "natural": "peak"
      },
      "geometry": {
        "type": "Point",
        "coordinates": [
          -1.160969,
          38.2227731
        ]
      },
      "id": "node/4735750139"
    },
    {
      "type": "Feature",
      "properties": {
        "@id": "node/4735750140",
        "ele": "608",
        "natural": "peak"
      },
      "geometry": {
        "type": "Point",
        "coordinates": [
          -1.1567281,
          38.2298622
        ]
      },
      "id": "node/4735750140"
    },
    {
      "type": "Feature",
      "properties": {
        "@id": "node/4735768180",
        "ele": "519",
        "natural": "peak"
      },
      "geometry": {
        "type": "Point",
        "coordinates": [
          -1.1540481,
          38.2252801
        ]
      },
      "id": "node/4735768180"
    },