{
  "type": "FeatureCollection",
  "generator": "overpass-turbo",
  "copyright": "The data included in this document is from www.openstreetmap.org. The data is made available under ODbL.",
  "timestamp": "2025-04-22T16:43:01Z",
  "features": [
    {
      "type": "Feature",
      "properties": {
        "@id": "node/29011809",
        "ele": "2426",
        "name": "Roque de los Muchachos",
        "natural": "peak",
        "prominence": "2426",
        "source:prominence": "Highest peak of La Palma Island",
        "wikidata": "Q956785",
        "wikipedia": "en:Roque de los Muchachos"
      },
      "geometry": {
        "type": "Point",
        "coordinates": [
          -17.884885,
          28.754229
        ]
      },
      "id": "node/29011809"
    },
    {
      "type": "Feature",
      "properties": {
        "@id": "node/32316581",
        "ele": "173",
        "name": "Montaña Roja",
        "name:de": "Roter Berg",
        "natural": "peak",
        "prominence": "155",
        "source": "yahoo;survey",
        "tourism": "viewpoint",
        "wheelchair": "no",
        "wikidata": "Q23979792"
      },
      "geometry": {
        "type": "Point",
        "coordinates": [
          -16.5490737,
          28.027022
        ]
      },
      "id": "node/32316581"
    },
    {
      "type": "Feature",
      "properties": {
        "@id": "node/32969645",
        "ele": "629.8",
        "name": "Don Pancho",
        "natural": "peak"
      },
      "geometry": {
        "type": "Point",
        "coordinates": [
          -17.9927044,
          28.76029
        ]
      },
      "id": "node/32969645"
    },
    {
      "type": "Feature",
      "properties": {
        "@id": "node/32969730",
        "ele": "910",
        "name": "Roque Chinobre",
        "natural": "peak",
        "wikidata": "Q6112062",
        "wikipedia": "es:Piedra Chinobre"
      },
      "geometry": {
        "type": "Point",
        "coordinates": [
          -16.1754602,
          28.5586846
        ]
      },
      "id": "node/32969730"
    },
    {
      "type": "Feature",
      "properties": {
        "@id": "node/32969759",
        "alt_name": "Tinganar",
        "ele": "1501",
        "name": "Malpaso",
        "natural": "peak",
        "prominence": "1501",
        "source:prominence": "Highest point of El Hierro island",
        "wikidata": "Q6075080",
        "wikipedia": "es:Pico de Malpaso"
      },
      "geometry": {
        "type": "Point",
        "coordinates": [
          -18.0404702,
          27.7293048
        ]
      },
      "id": "node/32969759"
    },
    {
      "type": "Feature",
      "properties": {
        "@id": "node/285619741",
        "ele": "1854",
        "name": "Pico Ovejas",
        "natural": "peak",
        "source": "survey"
      },
      "geometry": {
        "type": "Point",
        "coordinates": [
          -17.8324847,
          28.6848424
        ]
      },
      "id": "node/285619741"
    },
    {
      "type": "Feature",
      "properties": {
        "@id": "node/295988562",
        "ele": "857",
        "name": "Roque Anambro",
        "natural": "peak",
        "wikidata": "Q6112049",
        "wikimedia_commons": "Category:Roque Anambro",
        "wikipedia": "es:Roque Anambro"
      },
      "geometry": {
        "type": "Point",
        "coordinates": [
          -16.1694824,
          28.5662998
        ]
      },
      "id": "node/295988562"
    },
    {
      "type": "Feature",
      "properties": {
        "@id": "node/296391176",
        "ele": "2718",
        "name": "Guajara",
        "natural": "peak",
        "wikidata": "Q5494685",
        "wikimedia_commons": "Category:Alto de Guajara",
        "wikipedia": "es:Alto de Guajara"
      },
      "geometry": {
        "type": "Point",
        "coordinates": [
          -16.6122932,
          28.2169934
        ]
      },
      "id": "node/296391176"
    },
    {
      "type": "Feature",
      "properties": {
        "@id": "node/296391439",
        "ele": "2407",
        "name": "El Sombrero",
        "natural": "peak",
        "wikidata": "Q125456911"
      },
      "geometry": {
        "type": "Point",
        "coordinates": [
          -16.6454585,
          28.1950325
        ]
      },
      "id": "node/296391439"
    },
    {
      "type": "Feature",
      "properties": {
        "@id": "node/297557402",
        "ele": "1065",
        "name": "Roque Arguayo",
        "natural": "peak"
      },
      "geometry": {
        "type": "Point",
        "coordinates": [
          -16.8088664,
          28.2726536
        ]
      },
      "id": "node/297557402"
    },
    {
      "type": "Feature",
      "properties": {
        "@id": "node/299358015",
        "ele": "1348",
        "name": "Cruz de Gala",
        "natural": "peak"
      },
      "geometry": {
        "type": "Point",
        "coordinates": [
          -16.8238508,
          28.3109564
        ]
      },
      "id": "node/299358015"
    },
    {
      "type": "Feature",
      "properties": {
        "@id": "node/300979693",
        "ele": "1461",
        "name": "Montaña del Estrecho",
        "natural": "peak"
      },
      "geometry": {
        "type": "Point",
        "coordinates": [
          -16.773559,
          28.2953003
        ]
      },
      "id": "node/300979693"
    },
    {
      "type": "Feature",
      "properties": {
        "@id": "node/302934566",
        "ele": "1312",
        "name": "Risco Verde",
        "name:nl": "pico verde",
        "natural": "peak",
        "source_ref": "https://idecan2.grafcan.es/ServicioWMS/MT1?REQUEST=GetMap&LAYERS=WMS_MT1&SRS=EPSG:4326&VERSION=1.1.1&FORMAT=image/png&WIDTH=256&HEIGHT=256&EXCEPTIONS=BLANK&Styles=&BBOX=-16.828308105469,28.304380682963,-16.825561523438,28.306798859194"
      },
      "geometry": {
        "type": "Point",
        "coordinates": [
          -16.8266991,
          28.3063512
        ]
      },
      "id": "node/302934566"
    },
    {
      "type": "Feature",
      "properties": {
        "@id": "node/305798693",
        "ele": "1922",
        "name": "Pico Nambroque",
        "natural": "peak"
      },
      "geometry": {
        "type": "Point",
        "coordinates": [
          -17.833355,
          28.583261
        ]
      },
      "id": "node/305798693"
    },
    {
      "type": "Feature",
      "properties": {
        "@id": "node/306456515",
        "alt_name": "Pico Bejenao",
        "ele": "1854",
        "name": "Pico Bejenado",
        "natural": "peak",
        "summit:cross": "no",
        "summit:register": "yes",
        "wikidata": "Q5408041",
        "wikipedia": "es:Bejenao"
      },
      "geometry": {
        "type": "Point",
        "coordinates": [
          -17.8768738,
          28.6925039
        ]
      },
      "id": "node/306456515"
    },
    {
      "type": "Feature",
      "properties": {
        "@id": "node/317107327",
        "ele": "850",
        "man_made": "survey_point",
        "natural": "peak",
        "tourism": "viewpoint"
      },
      "geometry": {
        "type": "Point",
        "coordinates": [
          -17.3365739,
          28.1149171
        ]
      },
      "id": "node/317107327"
    },
    {
      "type": "Feature",
      "properties": {
        "@id": "node/332107293",
        "ele": "1250",
        "image": "https://photos.app.goo.gl/3Eb4gaKGpCCBHMYg6",
        "name": "Roque de Agando",
        "natural": "peak",
        "url": "https://www.youtube.com/watch?v=lBVqPRHu9F4",
        "wikidata": "Q1568788",
        "wikimedia_commons": "Category:Roque de Agando",
        "wikipedia": "es:Roque de Agando"
      },
      "geometry": {
        "type": "Point",
        "coordinates": [
          -17.2137276,
          28.1052923
        ]
      },
      "id": "node/332107293"
    },
    {
      "type": "Feature",
      "properties": {
        "@id": "node/332107296",
        "ele": "1211",
        "name": "Roque de la Zarcita",
        "natural": "peak"
      },
      "geometry": {
        "type": "Point",
        "coordinates": [
          -17.2166297,
          28.1112935
        ]
      },
      "id": "node/332107296"
    },
    {
      "type": "Feature",
      "properties": {
        "@id": "node/332111250",
        "ele": "1168",
        "name": "Roque de Ojila",
        "natural": "peak"
      },
      "geometry": {
        "type": "Point",
        "coordinates": [
          -17.2106092,
          28.1143255
        ]
      },
      "id": "node/332111250"
    },
    {
      "type": "Feature",
      "properties": {
        "@id": "node/334762005",
        "ele": "566",
        "name": "Montaña de la Breña",
        "natural": "peak"
      },
      "geometry": {
        "type": "Point",
        "coordinates": [
          -17.7822306,
          28.6325921
        ]
      },
      "id": "node/334762005"
    },
    {
      "type": "Feature",
      "properties": {
        "@id": "node/355286912",
        "ele": "428",
        "name": "Montaña de Guaza",
        "natural": "peak"
      },
      "geometry": {
        "type": "Point",
        "coordinates": [
          -16.690768,
          28.0513724
        ]
      },
      "id": "node/355286912"
    },
    {
      "type": "Feature",
      "properties": {
        "@id": "node/361359954",
        "ele": "596",
        "name": "Montaña de Tafada",
        "natural": "peak"
      },
      "geometry": {
        "type": "Point",
        "coordinates": [
          -16.1486123,
          28.5781606
        ]
      },
      "id": "node/361359954"
    },
    {
      "type": "Feature",
      "properties": {
        "@id": "node/364801219",
        "ele": "1231",
        "name": "Fortaleza",
        "natural": "peak",
        "summit:cross": "no",
        "summit:register": "no",
        "wikidata": "Q5864162",
        "wikimedia_commons": "Category:Monumento Natural de La Fortaleza",
        "wikipedia": "es:Fortaleza de Chipude"
      },
      "geometry": {
        "type": "Point",
        "coordinates": [
          -17.2775671,
          28.0989901
        ]
      },
      "id": "node/364801219"
    },
    {
      "type": "Feature",
      "properties": {
        "@id": "node/406395899",
        "ele": "2234",
        "name": "Pico de la Nieve",
        "natural": "peak"
      },
      "geometry": {
        "type": "Point",
        "coordinates": [
          -17.8356918,
          28.7298818
        ]
      },
      "id": "node/406395899"
    },
    {
      "type": "Feature",
      "properties": {
        "@id": "node/409066184",
        "ele": "1604",
        "name": "Roque de Los Cuervos",
        "natural": "peak",
        "summit:cross": "no",
        "summit:register": "no"
      },
      "geometry": {
        "type": "Point",
        "coordinates": [
          -17.8594285,
          28.6933163
        ]
      },
      "id": "node/409066184"
    },
    {
      "type": "Feature",
      "properties": {
        "@id": "node/512655517",
        "ele": "2748",
        "name": "Montaña Blanca",
        "natural": "peak",
        "wheelchair": "no",
        "wikidata": "Q6022239",
        "wikimedia_commons": "Category:Montaña Blanca",
        "wikipedia": "es:Montaña Blanca"
      },
      "geometry": {
        "type": "Point",
        "coordinates": [
          -16.6140374,
          28.2689588
        ]
      },
      "id": "node/512655517"
    },
    {
      "type": "Feature",
      "properties": {
        "@id": "node/534771869",
        "ele": "511",
        "name": "Tequergenche",
        "natural": "peak"
      },
      "geometry": {
        "type": "Point",
        "coordinates": [
          -17.3261615,
          28.0849227
        ]
      },
      "id": "node/534771869"
    },
    {
      "type": "Feature",
      "properties": {
        "@id": "node/559437220",
        "ele": "2103",
        "name": "Montaña de Limón",
        "natural": "peak",
        "wikidata": "Q23984637"
      },
      "geometry": {
        "type": "Point",
        "coordinates": [
          -16.5050061,
          28.3255302
        ]
      },
      "id": "node/559437220"
    },
    {
      "type": "Feature",
      "properties": {
        "@id": "node/564670120",
        "alt_name": "Ichasagua",
        "ele": "1001",
        "name": "Roque del Conde",
        "natural": "peak",
        "prominence": "251",
        "wikidata": "Q6112102",
        "wikimedia_commons": "Category:Roque del Conde",
        "wikipedia": "es:Roque del Conde"
      },
      "geometry": {
        "type": "Point",
        "coordinates": [
          -16.6985115,
          28.1042891
        ]
      },
      "id": "node/564670120"
    },
    {
      "type": "Feature",
      "properties": {
        "@id": "node/568459631",
        "ele": "705",
        "name": "Roque de Taborno",
        "natural": "peak",
        "wikidata": "Q5395381",
        "wikimedia_commons": "Category:Roque de Taborno",
        "wikipedia": "es:Roque de Taborno"
      },
      "geometry": {
        "type": "Point",
        "coordinates": [
          -16.2659155,
          28.566629
        ]
      },
      "id": "node/568459631"
    },
    {
      "type": "Feature",
      "properties": {
        "@id": "node/575879295",
        "ele": "1708",
        "natural": "peak"
      },
      "geometry": {
        "type": "Point",
        "coordinates": [
          -16.4449275,
          28.3903706
        ]
      },
      "id": "node/575879295"
    },
    {
      "type": "Feature",
      "properties": {
        "@id": "node/575946848",
        "ele": "1024",
        "name": "Cruz de Taborno",
        "natural": "peak",
        "wikidata": "Q5792446",
        "wikipedia": "es:Cruz de Taborno"
      },
      "geometry": {
        "type": "Point",
        "coordinates": [
          -16.2689718,
          28.5365655
        ]
      },
      "id": "node/575946848"
    },
    {
      "type": "Feature",
      "properties": {
        "@id": "node/576904999",
        "ele": "2076",
        "name": "Montaña Ayosa",
        "natural": "peak"
      },
      "geometry": {
        "type": "Point",
        "coordinates": [
          -16.4667442,
          28.3551025
        ]
      },
      "id": "node/576904999"
    },
    {
      "type": "Feature",
      "properties": {
        "@id": "node/582736160",
        "ele": "639",
        "name": "Roque Cano",
        "natural": "peak"
      },
      "geometry": {
        "type": "Point",
        "coordinates": [
          -17.2563447,
          28.1816611
        ]
      },
      "id": "node/582736160"
    },
    {
      "type": "Feature",
      "properties": {
        "@id": "node/585025657",
        "ele": "1502",
        "natural": "peak"
      },
      "geometry": {
        "type": "Point",
        "coordinates": [
          -17.8369362,
          28.6160281
        ]
      },
      "id": "node/585025657"
    },
    {
      "type": "Feature",
      "properties": {
        "@id": "node/585025711",
        "ele": "1524",
        "name": "Montaña de los Tomillos",
        "natural": "peak"
      },
      "geometry": {
        "type": "Point",
        "coordinates": [
          -17.8352535,
          28.616075
        ]
      },
      "id": "node/585025711"
    },
    {
      "type": "Feature",
      "properties": {
        "@id": "node/592653129",
        "ele": "2212",
        "name": "Montaña Negra",
        "natural": "peak"
      },
      "geometry": {
        "type": "Point",
        "coordinates": [
          -16.5166916,
          28.2803076
        ]
      },
      "id": "node/592653129"
    },
    {
      "type": "Feature",
      "properties": {
        "@id": "node/598347914",
        "ele": "632",
        "name": "Morro Aguaide",
        "natural": "peak"
      },
      "geometry": {
        "type": "Point",
        "coordinates": [
          -16.2945755,
          28.5639599
        ]
      },
      "id": "node/598347914"
    },
    {
      "type": "Feature",
      "properties": {
        "@id": "node/610234996",
        "ele": "1313",
        "name": "Pico de las Flores",
        "natural": "peak"
      },
      "geometry": {
        "type": "Point",
        "coordinates": [
          -16.3913671,
          28.4302867
        ]
      },
      "id": "node/610234996"
    },
    {
      "type": "Feature",
      "properties": {
        "@id": "node/639178651",
        "ele": "388",
        "name": "Montaña Béñamo",
        "natural": "peak"
      },
      "geometry": {
        "type": "Point",
        "coordinates": [
          -16.4248965,
          28.2494902
        ]
      },
      "id": "node/639178651"
    },
    {
      "type": "Feature",
      "properties": {
        "@id": "node/644540075",
        "ele": "995",
        "name": "Pico del Inglés",
        "natural": "peak",
        "wikidata": "Q6075129",
        "wikimedia_commons": "Category:Pico del Inglés",
        "wikipedia": "es:Pico del Inglés"
      },
      "geometry": {
        "type": "Point",
        "coordinates": [
          -16.2642967,
          28.5334614
        ]
      },
      "id": "node/644540075"
    },
    {
      "type": "Feature",
      "properties": {
        "@id": "node/644600448",
        "description:es": "Casas cueva",
        "historic": "yes",
        "name": "Roque Alonso",
        "natural": "peak"
      },
      "geometry": {
        "type": "Point",
        "coordinates": [
          -16.2451415,
          28.5507588
        ]
      },
      "id": "node/644600448"
    },
    {
      "type": "Feature",
      "properties": {
        "@id": "node/644603690",
        "ele": "738",
        "name": "Roque Negro",
        "natural": "peak"
      },
      "geometry": {
        "type": "Point",
        "coordinates": [
          -16.2433581,
          28.5412881
        ]
      },
      "id": "node/644603690"
    },
    {
      "type": "Feature",
      "properties": {
        "@id": "node/645550256",
        "ele": "931",
        "name": "Roque del Agua",
        "natural": "peak"
      },
      "geometry": {
        "type": "Point",
        "coordinates": [
          -16.2579918,
          28.5312256
        ]
      },
      "id": "node/645550256"
    },
    {
      "type": "Feature",
      "properties": {
        "@id": "node/647046419",
        "ele": "727",
        "name": "Pico Gonzaliánez",
        "natural": "peak"
      },
      "geometry": {
        "type": "Point",
        "coordinates": [
          -16.2950486,
          28.507686
        ]
      },
      "id": "node/647046419"
    },
    {
      "type": "Feature",
      "properties": {
        "@id": "node/647119135",
        "ele": "762",
        "name": "Montaña de la Bandera",
        "natural": "peak"
      },
      "geometry": {
        "type": "Point",
        "coordinates": [
          -16.3330333,
          28.5054933
        ]
      },
      "id": "node/647119135"
    },
    {
      "type": "Feature",
      "properties": {
        "@id": "node/647120527",
        "ele": "755",
        "name": "El Español",
        "natural": "peak"
      },
      "geometry": {
        "type": "Point",
        "coordinates": [
          -16.3371225,
          28.5090495
        ]
      },
      "id": "node/647120527"
    },
    {
      "type": "Feature",
      "properties": {
        "@id": "node/647123853",
        "name": "Mesa la Gallardina",
        "natural": "peak"
      },
      "geometry": {
        "type": "Point",
        "coordinates": [
          -16.3033482,
          28.4958039
        ]
      },
      "id": "node/647123853"
    },
    {
      "type": "Feature",
      "properties": {
        "@id": "node/647131521",
        "name": "Montaña San Roque",
        "natural": "peak"
      },
      "geometry": {
        "type": "Point",
        "coordinates": [
          -16.3098715,
          28.4887233
        ]
      },
      "id": "node/647131521"
    },
    {
      "type": "Feature",
      "properties": {
        "@id": "node/647133081",
        "ele": "692",
        "name": "Pico Colorado",
        "natural": "peak"
      },
      "geometry": {
        "type": "Point",
        "coordinates": [
          -16.2984553,
          28.5017489
        ]
      },
      "id": "node/647133081"
    },
    {
      "type": "Feature",
      "properties": {
        "@id": "node/647703969",
        "ele": "770",
        "name": "El Púlpito",
        "natural": "peak"
      },
      "geometry": {
        "type": "Point",
        "coordinates": [
          -16.3491796,
          28.4935556
        ]
      },
      "id": "node/647703969"
    },
    {
      "type": "Feature",
      "properties": {
        "@id": "node/647720815",
        "ele": "776",
        "name": "Montaña de la Atalaya",
        "natural": "peak"
      },
      "geometry": {
        "type": "Point",
        "coordinates": [
          -16.338815,
          28.5007721
        ]
      },
      "id": "node/647720815"
    },
    {
      "type": "Feature",
      "properties": {
        "@id": "node/647784695",
        "ele": "609",
        "name": "Pico la Sabina",
        "natural": "peak",
        "wikidata": "Q23979932"
      },
      "geometry": {
        "type": "Point",
        "coordinates": [
          -16.2680856,
          28.4964931
        ]
      },
      "id": "node/647784695"
    },
    {
      "type": "Feature",
      "properties": {
        "@id": "node/647785449",
        "ele": "524",
        "name": "Roque las Cabezadas",
        "natural": "peak"
      },
      "geometry": {
        "type": "Point",
        "coordinates": [
          -16.2610319,
          28.4929078
        ]
      },
      "id": "node/647785449"
    },
    {
      "type": "Feature",
      "properties": {
        "@id": "node/647786798",
        "ele": "424",
        "name": "Montaña de la Leña",
        "natural": "peak"
      },
      "geometry": {
        "type": "Point",
        "coordinates": [
          -16.2584809,
          28.487788
        ]
      },
      "id": "node/647786798"
    },
    {
      "type": "Feature",
      "properties": {
        "@id": "node/647789493",
        "ele": "274",
        "name": "La Meseta",
        "natural": "peak"
      },
      "geometry": {
        "type": "Point",
        "coordinates": [
          -16.2540694,
          28.4833722
        ]
      },
      "id": "node/647789493"
    },
    {
      "type": "Feature",
      "properties": {
        "@id": "node/648488015",
        "name": "Roque la Fortaleza",
        "natural": "peak"
      },
      "geometry": {
        "type": "Point",
        "coordinates": [
          -16.2503975,
          28.5148448
        ]
      },
      "id": "node/648488015"
    },
    {
      "type": "Feature",
      "properties": {
        "@id": "node/648488023",
        "name": "Roque Marrubial",
        "natural": "peak"
      },
      "geometry": {
        "type": "Point",
        "coordinates": [
          -16.2544666,
          28.5194473
        ]
      },
      "id": "node/648488023"
    },
    {
      "type": "Feature",
      "properties": {
        "@id": "node/649837137",
        "ele": "1265",
        "name": "Montaña Grande",
        "natural": "peak",
        "source:ele": "SRTM"
      },
      "geometry": {
        "type": "Point",
        "coordinates": [
          -16.3828006,
          28.4292442
        ]
      },
      "id": "node/649837137"
    },
    {
      "type": "Feature",
      "properties": {
        "@id": "node/649964262",
        "ele": "372",
        "name": "Roque de las Ánimas",
        "natural": "peak",
        "wikidata": "Q23987509"
      },
      "geometry": {
        "type": "Point",
        "coordinates": [
          -16.2117679,
          28.5660505
        ]
      },
      "id": "node/649964262"
    },
    {
      "type": "Feature",
      "properties": {
        "@id": "node/649964266",
        "name": "Roque Maogoje",
        "natural": "peak",
        "source": "extrapolation"
      },
      "geometry": {
        "type": "Point",
        "coordinates": [
          -16.206677,
          28.5586393
        ]
      },
      "id": "node/649964266"
    },
    {
      "type": "Feature",
      "properties": {
        "@id": "node/649964268",
        "ele": "452",
        "name": "Roque de Enmedio",
        "natural": "peak",
        "source": "extrapolation"
      },
      "geometry": {
        "type": "Point",
        "coordinates": [
          -16.2091085,
          28.5625196
        ]
      },
      "id": "node/649964268"
    },
    {
      "type": "Feature",
      "properties": {
        "@id": "node/650128700",
        "name": "Roque Tenejía",
        "natural": "peak",
        "wikidata": "Q23978816"
      },
      "geometry": {
        "type": "Point",
        "coordinates": [
          -16.2802088,
          28.5503867
        ]
      },
      "id": "node/650128700"
    },
    {
      "type": "Feature",
      "properties": {
        "@id": "node/650146185",
        "name": "Roque Páez",
        "natural": "peak"
      },
      "geometry": {
        "type": "Point",
        "coordinates": [
          -16.242222,
          28.5571115
        ]
      },
      "id": "node/650146185"
    },
    {
      "type": "Feature",
      "properties": {
        "@id": "node/650149124",
        "name": "Cabezo el Tablero",
        "natural": "peak"
      },
      "geometry": {
        "type": "Point",
        "coordinates": [
          -16.2364284,
          28.5583366
        ]
      },
      "id": "node/650149124"
    },
    {
      "type": "Feature",
      "properties": {
        "@id": "node/650226838",
        "name": "La Atalaya",
        "natural": "peak",
        "wikidata": "Q23987621"
      },
      "geometry": {
        "type": "Point",
        "coordinates": [
          -16.147992,
          28.5300769
        ]
      },
      "id": "node/650226838"
    },
    {
      "type": "Feature",
      "properties": {
        "@id": "node/650259133",
        "ele": "667",
        "name": "Tamé",
        "natural": "peak"
      },
      "geometry": {
        "type": "Point",
        "coordinates": [
          -16.2856708,
          28.5516657
        ]
      },
      "id": "node/650259133"
    },
    {
      "type": "Feature",
      "properties": {
        "@id": "node/650261164",
        "ele": "434",
        "name": "Roque Anube",
        "natural": "peak"
      },
      "geometry": {
        "type": "Point",
        "coordinates": [
          -16.2912749,
          28.5559035
        ]
      },
      "id": "node/650261164"
    },
    {
      "type": "Feature",
      "properties": {
        "@id": "node/651297764",
        "ele": "153",
        "name": "Roque de Antequera",
        "natural": "peak",
        "wikidata": "Q23987518"
      },
      "geometry": {
        "type": "Point",
        "coordinates": [
          -16.1275999,
          28.5342201
        ]
      },
      "id": "node/651297764"
    },
    {
      "type": "Feature",
      "properties": {
        "@id": "node/651298593",
        "ele": "506",
        "name": "Montaña del Sabinar",
        "natural": "peak"
      },
      "geometry": {
        "type": "Point",
        "coordinates": [
          -16.1263242,
          28.5555719
        ]
      },
      "id": "node/651298593"
    },
    {
      "type": "Feature",
      "properties": {
        "@id": "node/651538792",
        "ele": "2524",
        "name": "Roque del Almendro",
        "natural": "peak"
      },
      "geometry": {
        "type": "Point",
        "coordinates": [
          -16.6598482,
          28.2010035
        ]
      },
      "id": "node/651538792"
    },
    {
      "type": "Feature",
      "properties": {
        "@id": "node/651538795",
        "name": "El Calderón",
        "natural": "peak"
      },
      "geometry": {
        "type": "Point",
        "coordinates": [
          -16.6847722,
          28.2608123
        ]
      },
      "id": "node/651538795"
    },
    {
      "type": "Feature",
      "properties": {
        "@id": "node/651629046",
        "name": "Morro de los Cerrillos",
        "natural": "peak"
      },
      "geometry": {
        "type": "Point",
        "coordinates": [
          -16.7144701,
          28.2574448
        ]
      },
      "id": "node/651629046"
    },
    {
      "type": "Feature",
      "properties": {
        "@id": "node/652402472",
        "ele": "2111",
        "name": "La Catedral",
        "natural": "peak",
        "wikidata": "Q125503993"
      },
      "geometry": {
        "type": "Point",
        "coordinates": [
          -16.6346359,
          28.223373
        ]
      },
      "id": "node/652402472"
    },
    {
      "type": "Feature",
      "properties": {
        "@id": "node/652405702",
        "ele": "2231",
        "name": "Montaña Reventada",
        "natural": "peak",
        "wikidata": "Q23979597"
      },
      "geometry": {
        "type": "Point",
        "coordinates": [
          -16.6999679,
          28.2656969
        ]
      },
      "id": "node/652405702"
    },
    {
      "type": "Feature",
      "properties": {
        "@id": "node/652407379",
        "ele": "1523",
        "name": "Montaña de la Cruz",
        "natural": "peak"
      },
      "geometry": {
        "type": "Point",
        "coordinates": [
          -16.7686919,
          28.2949289
        ]
      },
      "id": "node/652407379"
    },
    {
      "type": "Feature",
      "properties": {
        "@id": "node/652615322",
        "ele": "2506",
        "name": "Montaña Rajada",
        "natural": "peak",
        "wikidata": "Q23983097",
        "wikimedia_commons": "Category:Montaña Rajada (Tenerife)"
      },
      "geometry": {
        "type": "Point",
        "coordinates": [
          -16.5976078,
          28.2697952
        ]
      },
      "id": "node/652615322"
    },
    {
      "type": "Feature",
      "properties": {
        "@id": "node/653576856",
        "ele": "2265",
        "name": "Montaña el Cedro",
        "natural": "peak"
      },
      "geometry": {
        "type": "Point",
        "coordinates": [
          -16.6986857,
          28.2259923
        ]
      },
      "id": "node/653576856"
    },
    {
      "type": "Feature",
      "properties": {
        "@id": "node/653779151",
        "ele": "2364",
        "name": "Montaña de las Arenas",
        "natural": "peak"
      },
      "geometry": {
        "type": "Point",
        "coordinates": [
          -16.6098874,
          28.2011541
        ]
      },
      "id": "node/653779151"
    },
    {
      "type": "Feature",
      "properties": {
        "@id": "node/654510325",
        "ele": "1943",
        "name": "Montaña Colorada",
        "natural": "peak"
      },
      "geometry": {
        "type": "Point",
        "coordinates": [
          -16.6843945,
          28.1854585
        ]
      },
      "id": "node/654510325"
    },
    {
      "type": "Feature",
      "properties": {
        "@id": "node/654510749",
        "ele": "1665",
        "name": "Montaña Teresme",
        "natural": "peak",
        "wikidata": "Q23978824"
      },
      "geometry": {
        "type": "Point",
        "coordinates": [
          -16.6971141,
          28.176133
        ]
      },
      "id": "node/654510749"
    },
    {
      "type": "Feature",
      "properties": {
        "@id": "node/654572802",
        "ele": "1061",
        "name": "Montaña de Tejina",
        "natural": "peak"
      },
      "geometry": {
        "type": "Point",
        "coordinates": [
          -16.7501424,
          28.1911418
        ]
      },
      "id": "node/654572802"
    },
    {
      "type": "Feature",
      "properties": {
        "@id": "node/658308336",
        "ele": "1102",
        "name": "Roque Imoque",
        "natural": "peak",
        "source": "GRAFCAN OrtoExpress Urbana 2009"
      },
      "geometry": {
        "type": "Point",
        "coordinates": [
          -16.6878783,
          28.1193369
        ]
      },
      "id": "node/658308336"
    },
    {
      "type": "Feature",
      "properties": {
        "@id": "node/658308354",
        "ele": "1109",
        "name": "Roque de los Brezos",
        "natural": "peak"
      },
      "geometry": {
        "type": "Point",
        "coordinates": [
          -16.6934718,
          28.1230844
        ]
      },
      "id": "node/658308354"
    },
    {
      "type": "Feature",
      "properties": {
        "@id": "node/659516387",
        "ele": "1334",
        "name": "Los Asientos",
        "natural": "peak"
      },
      "geometry": {
        "type": "Point",
        "coordinates": [
          -16.4783889,
          28.3905183
        ]
      },
      "id": "node/659516387"
    },
    {
      "type": "Feature",
      "properties": {
        "@id": "node/659520613",
        "ele": "1253",
        "name": "Montaña de las Ovejas",
        "natural": "peak"
      },
      "geometry": {
        "type": "Point",
        "coordinates": [
          -16.4814474,
          28.395195
        ]
      },
      "id": "node/659520613"
    },
    {
      "type": "Feature",
      "properties": {
        "@id": "node/660147954",
        "ele": "403",
        "name": "Montaña de Fasnia",
        "natural": "peak",
        "source": "Yahoo"
      },
      "geometry": {
        "type": "Point",
        "coordinates": [
          -16.4326728,
          28.2290131
        ]
      },
      "id": "node/660147954"
    },
    {
      "type": "Feature",
      "properties": {
        "@id": "node/660474438",
        "ele": "1414",
        "name": "Montaña las Coloradas",
        "natural": "peak"
      },
      "geometry": {
        "type": "Point",
        "coordinates": [
          -16.6132836,
          28.1463819
        ]
      },
      "id": "node/660474438"
    },
    {
      "type": "Feature",
      "properties": {
        "@id": "node/661335303",
        "ele": "2033",
        "name": "Roque Ayesa",
        "natural": "peak",
        "note": "SIC!! this is the true name, it is very similar to Ayosa, but here it is Ayesa"
      },
      "geometry": {
        "type": "Point",
        "coordinates": [
          -16.4636194,
          28.3593534
        ]
      },
      "id": "node/661335303"
    },
    {
      "type": "Feature",
      "properties": {
        "@id": "node/661378563",
        "ele": "2021",
        "name": "Roque Asebe",
        "natural": "peak"
      },
      "geometry": {
        "type": "Point",
        "coordinates": [
          -16.4708798,
          28.3530147
        ]
      },
      "id": "node/661378563"
    },
    {
      "type": "Feature",
      "properties": {
        "@id": "node/661426785",
        "ele": "597",
        "name": "La Centinela",
        "natural": "peak"
      },
      "geometry": {
        "type": "Point",
        "coordinates": [
          -16.6404266,
          28.0811229
        ]
      },
      "id": "node/661426785"
    },
    {
      "type": "Feature",
      "properties": {
        "@id": "node/662602400",
        "ele": "740",
        "historic": "wayside_cross",
        "name": "Montaña Arguama",
        "natural": "peak"
      },
      "geometry": {
        "type": "Point",
        "coordinates": [
          -16.3844892,
          28.3916108
        ]
      },
      "id": "node/662602400"
    },
    {
      "type": "Feature",
      "properties": {
        "@id": "node/663251778",
        "ele": "1748",
        "name": "El Gaitero",
        "natural": "peak"
      },
      "geometry": {
        "type": "Point",
        "coordinates": [
          -16.4332079,
          28.3947885
        ]
      },
      "id": "node/663251778"
    },
    {
      "type": "Feature",
      "properties": {
        "@id": "node/663470068",
        "name": "El Picacho",
        "natural": "peak",
        "tourism": "viewpoint"
      },
      "geometry": {
        "type": "Point",
        "coordinates": [
          -16.3659816,
          28.4008139
        ]
      },
      "id": "node/663470068"
    },
    {
      "type": "Feature",
      "properties": {
        "@id": "node/663952991",
        "ele": "1002",
        "name": "Baracán",
        "natural": "peak"
      },
      "geometry": {
        "type": "Point",
        "coordinates": [
          -16.8628023,
          28.3348426
        ]
      },
      "id": "node/663952991"
    },
    {
      "type": "Feature",
      "properties": {
        "@id": "node/678383151",
        "ele": "1956",
        "name": "Montaña de Joco",
        "natural": "peak",
        "wikidata": "Q23984912"
      },
      "geometry": {
        "type": "Point",
        "coordinates": [
          -16.465007,
          28.3688568
        ]
      },
      "id": "node/678383151"
    },
    {
      "type": "Feature",
      "properties": {
        "@id": "node/678411470",
        "ele": "2222",
        "name": "Roque de Caramujo",
        "natural": "peak"
      },
      "geometry": {
        "type": "Point",
        "coordinates": [
          -16.5352405,
          28.3083108
        ]
      },
      "id": "node/678411470"
    },
    {
      "type": "Feature",
      "properties": {
        "@id": "node/678414054",
        "ele": "2244",
        "name": "Montaña Mostaza",
        "natural": "peak"
      },
      "geometry": {
        "type": "Point",
        "coordinates": [
          -16.5708052,
          28.279707
        ]
      },
      "id": "node/678414054"
    },
    {
      "type": "Feature",
      "properties": {
        "@id": "node/694089626",
        "ele": "932",
        "name": "Risco Blanco",
        "natural": "peak"
      },
      "geometry": {
        "type": "Point",
        "coordinates": [
          -16.829552,
          28.2833895
        ]
      },
      "id": "node/694089626"
    },
    {
      "type": "Feature",
      "properties": {
        "@id": "node/694089743",
        "ele": "883",
        "name": "Guama",
        "natural": "peak"
      },
      "geometry": {
        "type": "Point",
        "coordinates": [
          -16.8267031,
          28.2701999
        ]
      },
      "id": "node/694089743"
    },
    {
      "type": "Feature",
      "properties": {
        "@id": "node/694089845",
        "ele": "623",
        "name": "Ñifa",
        "natural": "peak"
      },
      "geometry": {
        "type": "Point",
        "coordinates": [
          -16.831471,
          28.2605294
        ]
      },
      "id": "node/694089845"
    },
    {
      "type": "Feature",
      "properties": {
        "@id": "node/694089976",
        "name": "Guamasa",
        "natural": "peak"
      },
      "geometry": {
        "type": "Point",
        "coordinates": [
          -16.8337237,
          28.2530956
        ]
      },
      "id": "node/694089976"
    },
    {
      "type": "Feature",
      "properties": {
        "@id": "node/694090208",
        "ele": "823",
        "name": "Montaña del Herrero",
        "natural": "peak"
      },
      "geometry": {
        "type": "Point",
        "coordinates": [
          -16.815763,
          28.2611872
        ]
      },
      "id": "node/694090208"
    },
    {
      "type": "Feature",
      "properties": {
        "@id": "node/699641329",
        "ele": "2177",
        "name": "El Cabezón",
        "natural": "peak",
        "wikidata": "Q56034103",
        "wikimedia_commons": "Category:El Cabezón"
      },
      "geometry": {
        "type": "Point",
        "coordinates": [
          -16.5870416,
          28.3127686
        ]
      },
      "id": "node/699641329"
    },
    {
      "type": "Feature",
      "properties": {
        "@id": "node/706607006",
        "ele": "1503",
        "name": "Montaña de Los Guirres",
        "natural": "peak",
        "source": "Yahoo"
      },
      "geometry": {
        "type": "Point",
        "coordinates": [
          -16.7614388,
          28.2756231
        ]
      },
      "id": "node/706607006"
    },
    {
      "type": "Feature",
      "properties": {
        "@id": "node/747669138",
        "ele": "1151",
        "name": "La Montañeta",
        "natural": "peak"
      },
      "geometry": {
        "type": "Point",
        "coordinates": [
          -16.3811196,
          28.4441559
        ]
      },
      "id": "node/747669138"
    },
    {
      "type": "Feature",
      "properties": {
        "@id": "node/795826844",
        "ele": "503.3",
        "name": "Montaña Matos",
        "natural": "peak",
        "tourism": "viewpoint"
      },
      "geometry": {
        "type": "Point",
        "coordinates": [
          -17.9911217,
          28.7863411
        ]
      },
      "id": "node/795826844"
    },
    {
      "type": "Feature",
      "properties": {
        "@id": "node/866380045",
        "ele": "2383",
        "name": "Izaña",
        "natural": "peak",
        "wikidata": "Q23984842"
      },
      "geometry": {
        "type": "Point",
        "coordinates": [
          -16.5021409,
          28.3072543
        ]
      },
      "id": "node/866380045"
    },
    {
      "type": "Feature",
      "properties": {
        "@id": "node/870557961",
        "ele": "1209",
        "name": "Montaña Micheque",
        "natural": "peak"
      },
      "geometry": {
        "type": "Point",
        "coordinates": [
          -16.4772626,
          28.3989712
        ]
      },
      "id": "node/870557961"
    },
    {
      "type": "Feature",
      "properties": {
        "@id": "node/870933170",
        "ele": "788.2",
        "name": "Montaña Nazareno",
        "natural": "peak",
        "tourism": "viewpoint"
      },
      "geometry": {
        "type": "Point",
        "coordinates": [
          -17.9819565,
          28.7631426
        ]
      },
      "id": "node/870933170"
    },
    {
      "type": "Feature",
      "properties": {
        "@id": "node/870933171",
        "ele": "747.9",
        "name": "Montaña del Jable",
        "natural": "peak"
      },
      "geometry": {
        "type": "Point",
        "coordinates": [
          -17.9866019,
          28.7663005
        ]
      },
      "id": "node/870933171"
    },
    {
      "type": "Feature",
      "properties": {
        "@id": "node/870933172",
        "ele": "485.6",
        "name": "Montaña de la Negra",
        "natural": "peak",
        "tourism": "viewpoint"
      },
      "geometry": {
        "type": "Point",
        "coordinates": [
          -17.991497,
          28.7829661
        ]
      },
      "id": "node/870933172"
    },
    {
      "type": "Feature",
      "properties": {
        "@id": "node/886350429",
        "ele": "1208.8",
        "name": "Montaña Las Tricias",
        "natural": "peak"
      },
      "geometry": {
        "type": "Point",
        "coordinates": [
          -17.9502962,
          28.7740999
        ]
      },
      "id": "node/886350429"
    },
    {
      "type": "Feature",
      "properties": {
        "@id": "node/911172457",
        "ele": "1904",
        "name": "Montaña de Arguazo",
        "natural": "peak"
      },
      "geometry": {
        "type": "Point",
        "coordinates": [
          -16.4726071,
          28.2998055
        ]
      },
      "id": "node/911172457"
    },
    {
      "type": "Feature",
      "properties": {
        "@id": "node/938744773",
        "ele": "2351",
        "name": "Pico de La Cruz",
        "natural": "peak"
      },
      "geometry": {
        "type": "Point",
        "coordinates": [
          -17.8533919,
          28.7543606
        ]
      },
      "id": "node/938744773"
    },
    {
      "type": "Feature",
      "properties": {
        "@id": "node/948744059",
        "ele": "674.55",
        "name": "Jaragán",
        "natural": "peak",
        "website": "https://www.summitpost.org/jaragan/396351",
        "wikidata": "Q115504330"
      },
      "geometry": {
        "type": "Point",
        "coordinates": [
          -17.1388172,
          28.1262428
        ]
      },
      "id": "node/948744059"
    },
    {
      "type": "Feature",
      "properties": {
        "@id": "node/948767199",
        "ele": "805.57",
        "name": "Calvario",
        "natural": "peak",
        "operator": "Instituto Geográfico Nacional",
        "wikidata": "Q115500564"
      },
      "geometry": {
        "type": "Point",
        "coordinates": [
          -17.2417923,
          28.0529911
        ]
      },
      "id": "node/948767199"
    },
    {
      "type": "Feature",
      "properties": {
        "@id": "node/948774980",
        "ele": "1062.35",
        "name": "Enchereda",
        "natural": "peak",
        "wikidata": "Q115503172"
      },
      "geometry": {
        "type": "Point",
        "coordinates": [
          -17.1795776,
          28.1439545
        ]
      },
      "id": "node/948774980"
    },
    {
      "type": "Feature",
      "properties": {
        "@id": "node/1107013634",
        "ele": "762",
        "name": "Roque de Jama",
        "natural": "peak"
      },
      "geometry": {
        "type": "Point",
        "coordinates": [
          -16.6429248,
          28.0886533
        ]
      },
      "id": "node/1107013634"
    },
    {
      "type": "Feature",
      "properties": {
        "@id": "node/1149500069",
        "name": "Fireba",
        "natural": "peak"
      },
      "geometry": {
        "type": "Point",
        "coordinates": [
          -17.9925914,
          27.7404706
        ]
      },
      "id": "node/1149500069"
    },
    {
      "type": "Feature",
      "properties": {
        "@id": "node/1149564795",
        "ele": "837",
        "natural": "peak"
      },
      "geometry": {
        "type": "Point",
        "coordinates": [
          -17.1751619,
          28.1317662
        ]
      },
      "id": "node/1149564795"
    },
    {
      "type": "Feature",
      "properties": {
        "@id": "node/1258910324",
        "ele": "1374",
        "name": "Montaña de los Tomillos",
        "natural": "peak"
      },
      "geometry": {
        "type": "Point",
        "coordinates": [
          -16.7729488,
          28.3077075
        ]
      },
      "id": "node/1258910324"
    },
    {
      "type": "Feature",
      "properties": {
        "@id": "node/1298215354",
        "ele": "2503",
        "name": "Topo la Grieta",
        "natural": "peak"
      },
      "geometry": {
        "type": "Point",
        "coordinates": [
          -16.5781715,
          28.2363631
        ]
      },
      "id": "node/1298215354"
    },
    {
      "type": "Feature",
      "properties": {
        "@id": "node/1298215358",
        "alt_name": "Pasajirón",
        "ele": "2531",
        "name": "Morra del Río",
        "natural": "peak"
      },
      "geometry": {
        "type": "Point",
        "coordinates": [
          -16.5929563,
          28.2208046
        ]
      },
      "id": "node/1298215358"
    },
    {
      "type": "Feature",
      "properties": {
        "@id": "node/1298215361",
        "ele": "2384",
        "name": "Montaña de la Angostura",
        "natural": "peak"
      },
      "geometry": {
        "type": "Point",
        "coordinates": [
          -16.5651404,
          28.2424817
        ]
      },
      "id": "node/1298215361"
    },
    {
      "type": "Feature",
      "properties": {
        "@id": "node/1298215362",
        "ele": "2347",
        "name": "Montaña del Cerrillar",
        "natural": "peak"
      },
      "geometry": {
        "type": "Point",
        "coordinates": [
          -16.5521853,
          28.2970753
        ]
      },
      "id": "node/1298215362"
    },
    {
      "type": "Feature",
      "properties": {
        "@id": "node/1298912285",
        "name": "Risco Tonásaro",
        "natural": "peak"
      },
      "geometry": {
        "type": "Point",
        "coordinates": [
          -16.7187282,
          28.1820508
        ]
      },
      "id": "node/1298912285"
    },
    {
      "type": "Feature",
      "properties": {
        "@id": "node/1298912326",
        "ele": "1491",
        "name": "Chimoche",
        "natural": "peak"
      },
      "geometry": {
        "type": "Point",
        "coordinates": [
          -16.6858538,
          28.1633052
        ]
      },
      "id": "node/1298912326"
    },
    {
      "type": "Feature",
      "properties": {
        "@id": "node/1351902037",
        "ele": "758",
        "name": "Montaña de los Marreros",
        "natural": "peak"
      },
      "geometry": {
        "type": "Point",
        "coordinates": [
          -16.3406477,
          28.4702583
        ]
      },
      "id": "node/1351902037"
    },
    {
      "type": "Feature",
      "properties": {
        "@id": "node/1351902391",
        "ele": "725",
        "name": "Montaña de la Mina",
        "natural": "peak"
      },
      "geometry": {
        "type": "Point",
        "coordinates": [
          -16.334094,
          28.4718992
        ]
      },
      "id": "node/1351902391"
    },
    {
      "type": "Feature",
      "properties": {
        "@id": "node/1356424423",
        "ele": "866",
        "name": "Cabezo del Viento",
        "natural": "peak"
      },
      "geometry": {
        "type": "Point",
        "coordinates": [
          -16.2604577,
          28.523156
        ]
      },
      "id": "node/1356424423"
    },
    {
      "type": "Feature",
      "properties": {
        "@id": "node/1356424891",
        "ele": "621",
        "name": "Roque Lombarda",
        "natural": "peak"
      },
      "geometry": {
        "type": "Point",
        "coordinates": [
          -16.2718121,
          28.5223178
        ]
      },
      "id": "node/1356424891"
    },
    {
      "type": "Feature",
      "properties": {
        "@id": "node/1356479593",
        "ele": "234",
        "name": "Altura de Paso Alto",
        "natural": "peak"
      },
      "geometry": {
        "type": "Point",
        "coordinates": [
          -16.2407083,
          28.4844032
        ]
      },
      "id": "node/1356479593"
    },
    {
      "type": "Feature",
      "properties": {
        "@id": "node/1357466400",
        "name": "Roque Chiguel",
        "natural": "peak",
        "wikidata": "Q23986897"
      },
      "geometry": {
        "type": "Point",
        "coordinates": [
          -16.2168693,
          28.51708
        ]
      },
      "id": "node/1357466400"
    },
    {
      "type": "Feature",
      "properties": {
        "@id": "node/1357469808",
        "ele": "598",
        "name": "La Muela",
        "natural": "peak",
        "source": "PNOA",
        "source:date": "2005"
      },
      "geometry": {
        "type": "Point",
        "coordinates": [
          -16.2513205,
          28.5055676
        ]
      },
      "id": "node/1357469808"
    },
    {
      "type": "Feature",
      "properties": {
        "@id": "node/1378947702",
        "ele": "909",
        "name": "Roque de la Fortaleza",
        "natural": "peak"
      },
      "geometry": {
        "type": "Point",
        "coordinates": [
          -16.8563371,
          28.3001097
        ]
      },
      "id": "node/1378947702"
    },
    {
      "type": "Feature",
      "properties": {
        "@id": "node/1386021229",
        "ele": "1080",
        "fixme": "refine ele",
        "name": "Montaña Chica",
        "natural": "peak",
        "source:ele": "SRTM"
      },
      "geometry": {
        "type": "Point",
        "coordinates": [
          -16.3772834,
          28.4246419
        ]
      },
      "id": "node/1386021229"
    },
    {
      "type": "Feature",
      "properties": {
        "@id": "node/1387455924",
        "ele": "795",
        "name": "Roque Moquinal",
        "natural": "peak"
      },
      "geometry": {
        "type": "Point",
        "coordinates": [
          -16.3196552,
          28.5411149
        ]
      },
      "id": "node/1387455924"
    },
    {
      "type": "Feature",
      "properties": {
        "@id": "node/1407866632",
        "ele": "244",
        "name": "Roque Juan Báez",
        "natural": "peak"
      },
      "geometry": {
        "type": "Point",
        "coordinates": [
          -16.1287782,
          28.5426816
        ]
      },
      "id": "node/1407866632"
    },
    {
      "type": "Feature",
      "properties": {
        "@id": "node/1411712565",
        "name": "Risco Guayosa",
        "natural": "peak"
      },
      "geometry": {
        "type": "Point",
        "coordinates": [
          -16.2238843,
          28.5531044
        ]
      },
      "id": "node/1411712565"
    },
    {
      "type": "Feature",
      "properties": {
        "@id": "node/1415493979",
        "alt_name": "Peña Friolera",
        "ele": "741",
        "name": "Roque el Viento",
        "natural": "peak"
      },
      "geometry": {
        "type": "Point",
        "coordinates": [
          -16.2019904,
          28.5507972
        ]
      },
      "id": "node/1415493979"
    },
    {
      "type": "Feature",
      "properties": {
        "@id": "node/1415494115",
        "name": "Peña Friolera",
        "natural": "peak"
      },
      "geometry": {
        "type": "Point",
        "coordinates": [
          -16.2049146,
          28.5534377
        ]
      },
      "id": "node/1415494115"
    },
    {
      "type": "Feature",
      "properties": {
        "@id": "node/1415494689",
        "ele": "635",
        "name": "Roque Anjua",
        "natural": "peak"
      },
      "geometry": {
        "type": "Point",
        "coordinates": [
          -16.1897051,
          28.5584173
        ]
      },
      "id": "node/1415494689"
    },
    {
      "type": "Feature",
      "properties": {
        "@id": "node/1415496211",
        "ele": "874",
        "name": "Cabezo Limante",
        "natural": "peak"
      },
      "geometry": {
        "type": "Point",
        "coordinates": [
          -16.1876647,
          28.5515103
        ]
      },
      "id": "node/1415496211"
    },
    {
      "type": "Feature",
      "properties": {
        "@id": "node/1425394867",
        "name": "Roque Bichuelo",
        "natural": "peak"
      },
      "geometry": {
        "type": "Point",
        "coordinates": [
          -16.1583829,
          28.5719308
        ]
      },
      "id": "node/1425394867"
    },
    {
      "type": "Feature",
      "properties": {
        "@id": "node/1436709107",
        "ele": "335",
        "name": "Roque Dos Hermanos",
        "natural": "peak",
        "wikidata": "Q23987286"
      },
      "geometry": {
        "type": "Point",
        "coordinates": [
          -16.3078832,
          28.5709977
        ]
      },
      "id": "node/1436709107"
    },
    {
      "type": "Feature",
      "properties": {
        "@id": "node/1437107925",
        "ele": "186",
        "name": "Montaña de los Guirres",
        "natural": "peak",
        "source": "GRAFCAN OrtoExpress Urbana 2009",
        "wikidata": "Q23984365"
      },
      "geometry": {
        "type": "Point",
        "coordinates": [
          -16.3876897,
          28.3001834
        ]
      },
      "id": "node/1437107925"
    },
    {
      "type": "Feature",
      "properties": {
        "@id": "node/1470041832",
        "name": "Teguedite",
        "natural": "peak"
      },
      "geometry": {
        "type": "Point",
        "coordinates": [
          -16.4926015,
          28.169945
        ]
      },
      "id": "node/1470041832"
    },
    {
      "type": "Feature",
      "properties": {
        "@id": "node/1599736375",
        "ele": "1031",
        "name": "Montaña Carrasco",
        "natural": "peak"
      },
      "geometry": {
        "type": "Point",
        "coordinates": [
          -16.7016889,
          28.1337314
        ]
      },
      "id": "node/1599736375"
    },
    {
      "type": "Feature",
      "properties": {
        "@id": "node/1601434193",
        "ele": "1410",
        "name": "Igonse",
        "natural": "peak"
      },
      "geometry": {
        "type": "Point",
        "coordinates": [
          -16.4113769,
          28.3847909
        ]
      },
      "id": "node/1601434193"
    },
    {
      "type": "Feature",
      "properties": {
        "@id": "node/1601828318",
        "alt_name": "Pico del Valle",
        "ele": "2021",
        "name": "Pico de Cho Marcial",
        "natural": "peak"
      },
      "geometry": {
        "type": "Point",
        "coordinates": [
          -16.470478,
          28.3352596
        ]
      },
      "id": "node/1601828318"
    },
    {
      "type": "Feature",
      "properties": {
        "@id": "node/1628615988",
        "ele": "456",
        "natural": "peak"
      },
      "geometry": {
        "type": "Point",
        "coordinates": [
          -17.9980363,
          27.674659
        ]
      },
      "id": "node/1628615988"
    },
    {
      "type": "Feature",
      "properties": {
        "@id": "node/1635586706",
        "ele": "310",
        "name": "La Caleta",
        "natural": "peak"
      },
      "geometry": {
        "type": "Point",
        "coordinates": [
          -17.8951729,
          27.8086102
        ]
      },
      "id": "node/1635586706"
    },
    {
      "type": "Feature",
      "properties": {
        "@id": "node/1650947743",
        "alt_name": "Los Colorados",
        "ele": "2192",
        "name": "Montaña Gangarro",
        "natural": "peak",
        "wikidata": "Q23986074"
      },
      "geometry": {
        "type": "Point",
        "coordinates": [
          -16.692541,
          28.2108665
        ]
      },
      "id": "node/1650947743"
    },
    {
      "type": "Feature",
      "properties": {
        "@id": "node/1650947744",
        "ele": "2063",
        "name": "Roque Ucasme",
        "natural": "peak"
      },
      "geometry": {
        "type": "Point",
        "coordinates": [
          -16.6876427,
          28.2031687
        ]
      },
      "id": "node/1650947744"
    },
    {
      "type": "Feature",
      "properties": {
        "@id": "node/1652264351",
        "ele": "1885",
        "name": "Alto de Tafosaya",
        "natural": "peak",
        "tourism": "viewpoint"
      },
      "geometry": {
        "type": "Point",
        "coordinates": [
          -16.7114088,
          28.2130968
        ]
      },
      "id": "node/1652264351"
    },
    {
      "type": "Feature",
      "properties": {
        "@id": "node/1663378567",
        "ele": "36",
        "name": "Montaña Bocinegro",
        "natural": "peak",
        "source": "Bing"
      },
      "geometry": {
        "type": "Point",
        "coordinates": [
          -16.5410656,
          28.0309626
        ]
      },
      "id": "node/1663378567"
    },
    {
      "type": "Feature",
      "properties": {
        "@id": "node/1671311119",
        "ele": "1699",
        "name": "Montaña de la Manteca",
        "natural": "peak"
      },
      "geometry": {
        "type": "Point",
        "coordinates": [
          -17.8405097,
          28.5458246
        ]
      },
      "id": "node/1671311119"
    },
    {
      "type": "Feature",
      "properties": {
        "@id": "node/1672845396",
        "name": "Montaña del Filo",
        "natural": "peak"
      },
      "geometry": {
        "type": "Point",
        "coordinates": [
          -16.4294868,
          28.4341819
        ]
      },
      "id": "node/1672845396"
    },
    {
      "type": "Feature",
      "properties": {
        "@id": "node/1672845399",
        "name": "Montaña el Pozo",
        "natural": "peak"
      },
      "geometry": {
        "type": "Point",
        "coordinates": [
          -16.4249139,
          28.434048
        ]
      },
      "id": "node/1672845399"
    },
    {
      "type": "Feature",
      "properties": {
        "@id": "node/1681666225",
        "ele": "999",
        "name": "Montaña de Mámio",
        "natural": "peak"
      },
      "geometry": {
        "type": "Point",
        "coordinates": [
          -16.4934387,
          28.3703002
        ]
      },
      "id": "node/1681666225"
    },
    {
      "type": "Feature",
      "properties": {
        "@id": "node/1681666226",
        "alt_name": "Montaña de la Crucita",
        "ele": "2061",
        "name": "Montaña de las Cuevas",
        "natural": "peak",
        "wikidata": "Q23987119"
      },
      "geometry": {
        "type": "Point",
        "coordinates": [
          -16.48195,
          28.3469688
        ]
      },
      "id": "node/1681666226"
    },
    {
      "type": "Feature",
      "properties": {
        "@id": "node/1681666227",
        "ele": "1782",
        "name": "Roques Blancos",
        "natural": "peak"
      },
      "geometry": {
        "type": "Point",
        "coordinates": [
          -16.4685921,
          28.373042
        ]
      },
      "id": "node/1681666227"
    },
    {
      "type": "Feature",
      "properties": {
        "@id": "node/1685146260",
        "name": "Montaña del Castillo",
        "natural": "peak"
      },
      "geometry": {
        "type": "Point",
        "coordinates": [
          -16.3691771,
          28.399357
        ]
      },
      "id": "node/1685146260"
    },
    {
      "type": "Feature",
      "properties": {
        "@id": "node/1696871446",
        "ele": "1748",
        "name": "Montaña Chirigel",
        "natural": "peak"
      },
      "geometry": {
        "type": "Point",
        "coordinates": [
          -16.4232465,
          28.3979865
        ]
      },
      "id": "node/1696871446"
    },
    {
      "type": "Feature",
      "properties": {
        "@id": "node/1696871450",
        "ele": "1664",
        "name": "El Diablillo",
        "name:ru": "Дьяволёныш",
        "natural": "peak"
      },
      "geometry": {
        "type": "Point",
        "coordinates": [
          -16.422582,
          28.4050846
        ]
      },
      "id": "node/1696871450"
    },
    {
      "type": "Feature",
      "properties": {
        "@id": "node/1696871451",
        "alt_name": "Montaña del Cuchillo",
        "ele": "1718",
        "name": "Montaña Amarnia",
        "natural": "peak",
        "wikidata": "Q23988933"
      },
      "geometry": {
        "type": "Point",
        "coordinates": [
          -16.4195065,
          28.3933108
        ]
      },
      "id": "node/1696871451"
    },
    {
      "type": "Feature",
      "properties": {
        "@id": "node/1696871452",
        "ele": "1634",
        "name": "Montaña Colorada",
        "natural": "peak"
      },
      "geometry": {
        "type": "Point",
        "coordinates": [
          -16.4434256,
          28.3775616
        ]
      },
      "id": "node/1696871452"
    },
    {
      "type": "Feature",
      "properties": {
        "@id": "node/1696871453",
        "ele": "1516",
        "name": "Montaña del Dornajo",
        "natural": "peak"
      },
      "geometry": {
        "type": "Point",
        "coordinates": [
          -16.408302,
          28.4094525
        ]
      },
      "id": "node/1696871453"
    },
    {
      "type": "Feature",
      "properties": {
        "@id": "node/1696871930",
        "ele": "1651",
        "name": "Montaña Articosia",
        "natural": "peak"
      },
      "geometry": {
        "type": "Point",
        "coordinates": [
          -16.4455754,
          28.3806482
        ]
      },
      "id": "node/1696871930"
    },
    {
      "type": "Feature",
      "properties": {
        "@id": "node/1696871931",
        "ele": "1795",
        "name": "Morra Itote",
        "natural": "peak"
      },
      "geometry": {
        "type": "Point",
        "coordinates": [
          -16.4544282,
          28.3835911
        ]
      },
      "id": "node/1696871931"
    },
    {
      "type": "Feature",
      "properties": {
        "@id": "node/1697905885",
        "name": "Montaña de la Culata",
        "natural": "peak"
      },
      "geometry": {
        "type": "Point",
        "coordinates": [
          -16.3653823,
          28.4076547
        ]
      },
      "id": "node/1697905885"
    },
    {
      "type": "Feature",
      "properties": {
        "@id": "node/1701381845",
        "ele": "567",
        "name": "Cabezo de las Mesas",
        "natural": "peak",
        "wikidata": "Q23984159"
      },
      "geometry": {
        "type": "Point",
        "coordinates": [
          -16.2724166,
          28.4895965
        ]
      },
      "id": "node/1701381845"
    },
    {
      "type": "Feature",
      "properties": {
        "@id": "node/1701381852",
        "ele": "706",
        "name": "Pico Hilario",
        "natural": "peak",
        "wikidata": "Q23986506"
      },
      "geometry": {
        "type": "Point",
        "coordinates": [
          -16.2802447,
          28.5022433
        ]
      },
      "id": "node/1701381852"
    },
    {
      "type": "Feature",
      "properties": {
        "@id": "node/1710767310",
        "ele": "1072",
        "name": "Montaña el Haya",
        "natural": "peak"
      },
      "geometry": {
        "type": "Point",
        "coordinates": [
          -16.3905408,
          28.4500659
        ]
      },
      "id": "node/1710767310"
    },
    {
      "type": "Feature",
      "properties": {
        "@id": "node/1712047777",
        "ele": "647",
        "name": "Montaña Guerra",
        "natural": "peak",
        "wikidata": "Q23986410"
      },
      "geometry": {
        "type": "Point",
        "coordinates": [
          -16.3829539,
          28.5040779
        ]
      },
      "id": "node/1712047777"
    },
    {
      "type": "Feature",
      "properties": {
        "@id": "node/1712047779",
        "ele": "643",
        "name": "Montaña Tabares",
        "natural": "peak"
      },
      "geometry": {
        "type": "Point",
        "coordinates": [
          -16.3731149,
          28.5014019
        ]
      },
      "id": "node/1712047779"
    },
    {
      "type": "Feature",
      "properties": {
        "@id": "node/1712047796",
        "ele": "1212",
        "name": "Montaña el Cerro",
        "natural": "peak"
      },
      "geometry": {
        "type": "Point",
        "coordinates": [
          -16.390883,
          28.443727
        ]
      },
      "id": "node/1712047796"
    },
    {
      "type": "Feature",
      "properties": {
        "@id": "node/1719214243",
        "ele": "693",
        "name": "Roque del Fraile",
        "natural": "peak"
      },
      "geometry": {
        "type": "Point",
        "coordinates": [
          -16.2319882,
          28.5551226
        ]
      },
      "id": "node/1719214243"
    },
    {
      "type": "Feature",
      "properties": {
        "@id": "node/1719214244",
        "ele": "694",
        "name": "Roque la Monja",
        "natural": "peak"
      },
      "geometry": {
        "type": "Point",
        "coordinates": [
          -16.2301388,
          28.5545995
        ]
      },
      "id": "node/1719214244"
    },
    {
      "type": "Feature",
      "properties": {
        "@id": "node/1721146997",
        "ele": "375",
        "name": "Montaña de Ofra",
        "natural": "peak"
      },
      "geometry": {
        "type": "Point",
        "coordinates": [
          -16.2902792,
          28.4600245
        ]
      },
      "id": "node/1721146997"
    },
    {
      "type": "Feature",
      "properties": {
        "@id": "node/1722097123",
        "ele": "2023",
        "name": "Montaña de Chasogo",
        "natural": "peak",
        "wikidata": "Q23986879"
      },
      "geometry": {
        "type": "Point",
        "coordinates": [
          -16.711507,
          28.2434756
        ]
      },
      "id": "node/1722097123"
    },
    {
      "type": "Feature",
      "properties": {
        "@id": "node/1722990205",
        "ele": "23",
        "name": "Roque Chico",
        "natural": "peak",
        "place": "islet"
      },
      "geometry": {
        "type": "Point",
        "coordinates": [
          -16.5746666,
          28.4044164
        ]
      },
      "id": "node/1722990205"
    },
    {
      "type": "Feature",
      "properties": {
        "@id": "node/1722990210",
        "ele": "29",
        "name": "Roque Grande",
        "natural": "peak",
        "place": "islet"
      },
      "geometry": {
        "type": "Point",
        "coordinates": [
          -16.5737931,
          28.4044272
        ]
      },
      "id": "node/1722990210"
    },
    {
      "type": "Feature",
      "properties": {
        "@id": "node/1723049855",
        "ele": "12",
        "name": "Roque de Santa Úrsula",
        "natural": "peak",
        "place": "islet"
      },
      "geometry": {
        "type": "Point",
        "coordinates": [
          -16.486821,
          28.4396557
        ]
      },
      "id": "node/1723049855"
    },
    {
      "type": "Feature",
      "properties": {
        "@id": "node/1739016468",
        "ele": "1165",
        "name": "Montaña Tamés",
        "natural": "peak"
      },
      "geometry": {
        "type": "Point",
        "coordinates": [
          -16.5625345,
          28.1668901
        ]
      },
      "id": "node/1739016468"
    },
    {
      "type": "Feature",
      "properties": {
        "@id": "node/1756773261",
        "alt_name": "Montaña El Vallado",
        "ele": "780",
        "name": "Montaña del Vallado",
        "natural": "peak",
        "source": "GRAFCAN OrtoExpress Urbana 2009"
      },
      "geometry": {
        "type": "Point",
        "coordinates": [
          -16.8849779,
          28.3444058
        ]
      },
      "id": "node/1756773261"
    },
    {
      "type": "Feature",
      "properties": {
        "@id": "node/1763754623",
        "ele": "256",
        "name": "Risco de la Amargura",
        "natural": "peak"
      },
      "geometry": {
        "type": "Point",
        "coordinates": [
          -17.1402482,
          28.0682001
        ]
      },
      "id": "node/1763754623"
    },
    {
      "type": "Feature",
      "properties": {
        "@id": "node/1764668471",
        "ele": "563",
        "name": "Roque de Tecina",
        "natural": "peak",
        "wikimedia_commons": "File:Roque de Tecina - La Gomera 01.jpg"
      },
      "geometry": {
        "type": "Point",
        "coordinates": [
          -17.2034993,
          28.0574252
        ]
      },
      "id": "node/1764668471"
    },
    {
      "type": "Feature",
      "properties": {
        "@id": "node/1765560158",
        "name": "Roque de la Cruz",
        "natural": "peak"
      },
      "geometry": {
        "type": "Point",
        "coordinates": [
          -17.1959929,
          28.0298408
        ]
      },
      "id": "node/1765560158"
    },
    {
      "type": "Feature",
      "properties": {
        "@id": "node/1776808593",
        "ele": "842",
        "name": "Suárez",
        "natural": "peak"
      },
      "geometry": {
        "type": "Point",
        "coordinates": [
          -16.6924011,
          28.1126311
        ]
      },
      "id": "node/1776808593"
    },
    {
      "type": "Feature",
      "properties": {
        "@id": "node/1780475487",
        "ele": "2163",
        "name": "Montaña del Portillo Nuevo",
        "natural": "peak"
      },
      "geometry": {
        "type": "Point",
        "coordinates": [
          -16.5588809,
          28.2951617
        ]
      },
      "id": "node/1780475487"
    },
    {
      "type": "Feature",
      "properties": {
        "@id": "node/1780804126",
        "ele": "2377",
        "name": "Montaña Colorada",
        "natural": "peak"
      },
      "geometry": {
        "type": "Point",
        "coordinates": [
          -16.5459939,
          28.2820315
        ]
      },
      "id": "node/1780804126"
    },
    {
      "type": "Feature",
      "properties": {
        "@id": "node/1780804130",
        "ele": "2369",
        "name": "Montaña de las Piedritas",
        "natural": "peak"
      },
      "geometry": {
        "type": "Point",
        "coordinates": [
          -16.5416236,
          28.2857818
        ]
      },
      "id": "node/1780804130"
    },
    {
      "type": "Feature",
      "properties": {
        "@id": "node/1780848528",
        "ele": "2335",
        "name": "Morro Negro",
        "natural": "peak"
      },
      "geometry": {
        "type": "Point",
        "coordinates": [
          -16.5487913,
          28.2623872
        ]
      },
      "id": "node/1780848528"
    },
    {
      "type": "Feature",
      "properties": {
        "@id": "node/1809258156",
        "ele": "2121",
        "name": "Tiro del Guanche",
        "natural": "peak"
      },
      "geometry": {
        "type": "Point",
        "coordinates": [
          -16.688825,
          28.2173098
        ]
      },
      "id": "node/1809258156"
    },
    {
      "type": "Feature",
      "properties": {
        "@id": "node/1823219331",
        "ele": "2126",
        "name": "Montaña de los Atajos",
        "natural": "peak"
      },
      "geometry": {
        "type": "Point",
        "coordinates": [
          -16.5204955,
          28.3124441
        ]
      },
      "id": "node/1823219331"
    },
    {
      "type": "Feature",
      "properties": {
        "@id": "node/1823219344",
        "ele": "2203",
        "name": "Montaña de los Pastelitos",
        "natural": "peak"
      },
      "geometry": {
        "type": "Point",
        "coordinates": [
          -16.5237857,
          28.3088263
        ]
      },
      "id": "node/1823219344"
    },
    {
      "type": "Feature",
      "properties": {
        "@id": "node/1837710699",
        "ele": "353",
        "name": "Roque Morro Negro",
        "natural": "peak"
      },
      "geometry": {
        "type": "Point",
        "coordinates": [
          -16.7149371,
          28.0898179
        ]
      },
      "id": "node/1837710699"
    },
    {
      "type": "Feature",
      "properties": {
        "@id": "node/1921012291",
        "name": "El Campanario",
        "natural": "peak"
      },
      "geometry": {
        "type": "Point",
        "coordinates": [
          -16.1541951,
          28.5310254
        ]
      },
      "id": "node/1921012291"
    },
    {
      "type": "Feature",
      "properties": {
        "@id": "node/1944325403",
        "ele": "1618",
        "name": "Montaña del Cascajo",
        "natural": "peak"
      },
      "geometry": {
        "type": "Point",
        "coordinates": [
          -16.422769,
          28.4102647
        ]
      },
      "id": "node/1944325403"
    },
    {
      "type": "Feature",
      "properties": {
        "@id": "node/2021591471",
        "ele": "843",
        "name": "Montaña La Quebrada",
        "natural": "peak"
      },
      "geometry": {
        "type": "Point",
        "coordinates": [
          -17.8020612,
          28.6254497
        ]
      },
      "id": "node/2021591471"
    },
    {
      "type": "Feature",
      "properties": {
        "@id": "node/2023129741",
        "name": "Montaña Tamano",
        "natural": "peak"
      },
      "geometry": {
        "type": "Point",
        "coordinates": [
          -17.8098851,
          28.6218352
        ]
      },
      "id": "node/2023129741"
    },
    {
      "type": "Feature",
      "properties": {
        "@id": "node/2024960378",
        "ele": "162",
        "name": "Montaña de Magua",
        "natural": "peak"
      },
      "geometry": {
        "type": "Point",
        "coordinates": [
          -16.43632,
          28.1827848
        ]
      },
      "id": "node/2024960378"
    },
    {
      "type": "Feature",
      "properties": {
        "@id": "node/2024960379",
        "name": "Montaña la Centinela",
        "natural": "peak"
      },
      "geometry": {
        "type": "Point",
        "coordinates": [
          -16.4592766,
          28.1549308
        ]
      },
      "id": "node/2024960379"
    },
    {
      "type": "Feature",
      "properties": {
        "@id": "node/2026853448",
        "ele": "1468",
        "name": "Montaña de las Flores",
        "natural": "peak"
      },
      "geometry": {
        "type": "Point",
        "coordinates": [
          -16.7571348,
          28.3016403
        ]
      },
      "id": "node/2026853448"
    },
    {
      "type": "Feature",
      "properties": {
        "@id": "node/2031691474",
        "ele": "390",
        "name": "Roque de Hígara",
        "natural": "peak"
      },
      "geometry": {
        "type": "Point",
        "coordinates": [
          -16.674613,
          28.0642827
        ]
      },
      "id": "node/2031691474"
    },
    {
      "type": "Feature",
      "properties": {
        "@id": "node/2037845917",
        "ele": "1281",
        "name": "Montaña Tomaseche",
        "natural": "peak",
        "old_name": "Montaña Tomas Seche"
      },
      "geometry": {
        "type": "Point",
        "coordinates": [
          -16.7967752,
          28.3156363
        ]
      },
      "id": "node/2037845917"
    },
    {
      "type": "Feature",
      "properties": {
        "@id": "node/2037845919",
        "ele": "1392",
        "name": "Montaña de los Riegos",
        "natural": "peak"
      },
      "geometry": {
        "type": "Point",
        "coordinates": [
          -16.7764838,
          28.3093954
        ]
      },
      "id": "node/2037845919"
    },
    {
      "type": "Feature",
      "properties": {
        "@id": "node/2055746940",
        "name": "Montaña del Viento",
        "natural": "peak"
      },
      "geometry": {
        "type": "Point",
        "coordinates": [
          -16.8054809,
          28.3191433
        ]
      },
      "id": "node/2055746940"
    },
    {
      "type": "Feature",
      "properties": {
        "@id": "node/2055746941",
        "ele": "1244",
        "name": "Montaña el Topo",
        "natural": "peak"
      },
      "geometry": {
        "type": "Point",
        "coordinates": [
          -16.7889395,
          28.3202351
        ]
      },
      "id": "node/2055746941"
    },
    {
      "type": "Feature",
      "properties": {
        "@id": "node/2058566605",
        "ele": "577",
        "name": "Montaña Chiquina",
        "natural": "peak",
        "wikidata": "Q23986912"
      },
      "geometry": {
        "type": "Point",
        "coordinates": [
          -16.1704328,
          28.5287309
        ]
      },
      "id": "node/2058566605"
    },
    {
      "type": "Feature",
      "properties": {
        "@id": "node/2058566606",
        "name": "Pico de los Gomeros",
        "natural": "peak"
      },
      "geometry": {
        "type": "Point",
        "coordinates": [
          -16.300037,
          28.5192561
        ]
      },
      "id": "node/2058566606"
    },
    {
      "type": "Feature",
      "properties": {
        "@id": "node/2060011806",
        "ele": "155",
        "name": "Montaña Aregume",
        "natural": "peak"
      },
      "geometry": {
        "type": "Point",
        "coordinates": [
          -16.8176106,
          28.3674965
        ]
      },
      "id": "node/2060011806"
    },
    {
      "type": "Feature",
      "properties": {
        "@id": "node/2062509918",
        "ele": "2192",
        "name": "Félix Méndez",
        "natural": "peak",
        "sport": "climbing"
      },
      "geometry": {
        "type": "Point",
        "coordinates": [
          -16.6330842,
          28.226502
        ]
      },
      "id": "node/2062509918"
    },
    {
      "type": "Feature",
      "properties": {
        "@id": "node/2062509919",
        "alt_name": "Árbol de Piedra",
        "alt_name:de": "Finger Gottes",
        "ele": "2171",
        "image": "https://photos.app.goo.gl/fsYvd437wVZT8Y4Y7",
        "name": "Roque Cinchado",
        "name:de": "Steinerner Baum",
        "natural": "peak",
        "rock": "hoodoo",
        "tourism": "attraction",
        "wheelchair": "no",
        "wikidata": "Q1389729",
        "wikimedia_commons": "Category:Roque Cinchado",
        "wikipedia": "es:Roque Cinchado"
      },
      "geometry": {
        "type": "Point",
        "coordinates": [
          -16.6318053,
          28.2247001
        ]
      },
      "id": "node/2062509919"
    },
    {
      "type": "Feature",
      "properties": {
        "@id": "node/2062509920",
        "ele": "2576",
        "name": "Roque de la Grieta",
        "natural": "peak",
        "wikidata": "Q6112098",
        "wikipedia": "es:Roque de la Grieta"
      },
      "geometry": {
        "type": "Point",
        "coordinates": [
          -16.5867427,
          28.2275533
        ]
      },
      "id": "node/2062509920"
    },
    {
      "type": "Feature",
      "properties": {
        "@id": "node/2063142355",
        "ele": "651",
        "name": "Roque de Guazamo",
        "natural": "peak"
      },
      "geometry": {
        "type": "Point",
        "coordinates": [
          -16.2545561,
          28.5075158
        ]
      },
      "id": "node/2063142355"
    },
    {
      "type": "Feature",
      "properties": {
        "@id": "node/2063142387",
        "ele": "655",
        "natural": "peak"
      },
      "geometry": {
        "type": "Point",
        "coordinates": [
          -16.2550757,
          28.5083952
        ]
      },
      "id": "node/2063142387"
    },
    {
      "type": "Feature",
      "properties": {
        "@id": "node/2063142413",
        "ele": "634",
        "natural": "peak"
      },
      "geometry": {
        "type": "Point",
        "coordinates": [
          -16.2558431,
          28.5094426
        ]
      },
      "id": "node/2063142413"
    },
    {
      "type": "Feature",
      "properties": {
        "@id": "node/2063142556",
        "ele": "545",
        "natural": "peak"
      },
      "geometry": {
        "type": "Point",
        "coordinates": [
          -16.2465389,
          28.5124602
        ]
      },
      "id": "node/2063142556"
    },
    {
      "type": "Feature",
      "properties": {
        "@id": "node/2063142787",
        "ele": "662",
        "natural": "peak"
      },
      "geometry": {
        "type": "Point",
        "coordinates": [
          -16.257091,
          28.5148682
        ]
      },
      "id": "node/2063142787"
    },
    {
      "type": "Feature",
      "properties": {
        "@id": "node/2063142875",
        "ele": "701",
        "natural": "peak"
      },
      "geometry": {
        "type": "Point",
        "coordinates": [
          -16.2513886,
          28.5162957
        ]
      },
      "id": "node/2063142875"
    },
    {
      "type": "Feature",
      "properties": {
        "@id": "node/2063143936",
        "ele": "714",
        "name": "Roque de los Brezos",
        "natural": "peak"
      },
      "geometry": {
        "type": "Point",
        "coordinates": [
          -16.2523561,
          28.5171332
        ]
      },
      "id": "node/2063143936"
    },
    {
      "type": "Feature",
      "properties": {
        "@id": "node/2063143978",
        "ele": "684",
        "natural": "peak"
      },
      "geometry": {
        "type": "Point",
        "coordinates": [
          -16.2576817,
          28.5176583
        ]
      },
      "id": "node/2063143978"
    },
    {
      "type": "Feature",
      "properties": {
        "@id": "node/2063144350",
        "ele": "707",
        "natural": "peak"
      },
      "geometry": {
        "type": "Point",
        "coordinates": [
          -16.2567782,
          28.5215819
        ]
      },
      "id": "node/2063144350"
    },
    {
      "type": "Feature",
      "properties": {
        "@id": "node/2063144362",
        "ele": "633",
        "name": "Roque el Cubo",
        "natural": "peak"
      },
      "geometry": {
        "type": "Point",
        "coordinates": [
          -16.2200013,
          28.521507
        ]
      },
      "id": "node/2063144362"
    },
    {
      "type": "Feature",
      "properties": {
        "@id": "node/2063144437",
        "ele": "464",
        "natural": "peak"
      },
      "geometry": {
        "type": "Point",
        "coordinates": [
          -16.2311792,
          28.5226162
        ]
      },
      "id": "node/2063144437"
    },
    {
      "type": "Feature",
      "properties": {
        "@id": "node/2063144452",
        "ele": "494",
        "natural": "peak"
      },
      "geometry": {
        "type": "Point",
        "coordinates": [
          -16.2328207,
          28.5229416
        ]
      },
      "id": "node/2063144452"
    },
    {
      "type": "Feature",
      "properties": {
        "@id": "node/2063144556",
        "ele": "531",
        "natural": "peak"
      },
      "geometry": {
        "type": "Point",
        "coordinates": [
          -16.2342308,
          28.5244215
        ]
      },
      "id": "node/2063144556"
    },
    {
      "type": "Feature",
      "properties": {
        "@id": "node/2063144746",
        "ele": "632",
        "natural": "peak"
      },
      "geometry": {
        "type": "Point",
        "coordinates": [
          -16.2348975,
          28.5287973
        ]
      },
      "id": "node/2063144746"
    },
    {
      "type": "Feature",
      "properties": {
        "@id": "node/2063144770",
        "ele": "602",
        "natural": "peak"
      },
      "geometry": {
        "type": "Point",
        "coordinates": [
          -16.2192753,
          28.5293927
        ]
      },
      "id": "node/2063144770"
    },
    {
      "type": "Feature",
      "properties": {
        "@id": "node/2063144776",
        "ele": "652",
        "natural": "peak"
      },
      "geometry": {
        "type": "Point",
        "coordinates": [
          -16.2353203,
          28.5295714
        ]
      },
      "id": "node/2063144776"
    },
    {
      "type": "Feature",
      "properties": {
        "@id": "node/2063145037",
        "ele": "772",
        "natural": "peak"
      },
      "geometry": {
        "type": "Point",
        "coordinates": [
          -16.2218918,
          28.5328888
        ]
      },
      "id": "node/2063145037"
    },
    {
      "type": "Feature",
      "properties": {
        "@id": "node/2063145164",
        "ele": "771",
        "natural": "peak"
      },
      "geometry": {
        "type": "Point",
        "coordinates": [
          -16.2216799,
          28.5341474
        ]
      },
      "id": "node/2063145164"
    },
    {
      "type": "Feature",
      "properties": {
        "@id": "node/2072598541",
        "ele": "1088",
        "name": "Montaña Rica",
        "natural": "peak"
      },
      "geometry": {
        "type": "Point",
        "coordinates": [
          -16.5982824,
          28.1385941
        ]
      },
      "id": "node/2072598541"
    },
    {
      "type": "Feature",
      "properties": {
        "@id": "node/2072598544",
        "ele": "1010",
        "name": "Montaña Tilela",
        "natural": "peak"
      },
      "geometry": {
        "type": "Point",
        "coordinates": [
          -16.6193517,
          28.122172
        ]
      },
      "id": "node/2072598544"
    },
    {
      "type": "Feature",
      "properties": {
        "@id": "node/2072598549",
        "ele": "1525",
        "name": "Montaña de las Mesas",
        "natural": "peak"
      },
      "geometry": {
        "type": "Point",
        "coordinates": [
          -16.616642,
          28.1538433
        ]
      },
      "id": "node/2072598549"
    },
    {
      "type": "Feature",
      "properties": {
        "@id": "node/2072993027",
        "ele": "1422",
        "name": "Montaña Mohino",
        "natural": "peak"
      },
      "geometry": {
        "type": "Point",
        "coordinates": [
          -16.6674797,
          28.1523686
        ]
      },
      "id": "node/2072993027"
    },
    {
      "type": "Feature",
      "properties": {
        "@id": "node/2072993031",
        "ele": "1574",
        "name": "Montaña de la Vica",
        "natural": "peak"
      },
      "geometry": {
        "type": "Point",
        "coordinates": [
          -16.6579735,
          28.1610254
        ]
      },
      "id": "node/2072993031"
    },
    {
      "type": "Feature",
      "properties": {
        "@id": "node/2072993032",
        "ele": "1563",
        "name": "Montaña de los Lirios",
        "natural": "peak"
      },
      "geometry": {
        "type": "Point",
        "coordinates": [
          -16.6469786,
          28.1548242
        ]
      },
      "id": "node/2072993032"
    },
    {
      "type": "Feature",
      "properties": {
        "@id": "node/2072993034",
        "ele": "1424",
        "name": "Montaña de los Pinos",
        "natural": "peak"
      },
      "geometry": {
        "type": "Point",
        "coordinates": [
          -16.6616578,
          28.1532055
        ]
      },
      "id": "node/2072993034"
    },
    {
      "type": "Feature",
      "properties": {
        "@id": "node/2078367059",
        "ele": "934",
        "name": "Pico de los Pasos",
        "natural": "peak"
      },
      "geometry": {
        "type": "Point",
        "coordinates": [
          -16.2265643,
          28.5417638
        ]
      },
      "id": "node/2078367059"
    },
    {
      "type": "Feature",
      "properties": {
        "@id": "node/2078367062",
        "ele": "931",
        "name": "Roque de los Pasos",
        "natural": "peak"
      },
      "geometry": {
        "type": "Point",
        "coordinates": [
          -16.2230647,
          28.5426264
        ]
      },
      "id": "node/2078367062"
    },
    {
      "type": "Feature",
      "properties": {
        "@id": "node/2078410257",
        "ele": "803",
        "name": "Guañaque",
        "natural": "peak"
      },
      "geometry": {
        "type": "Point",
        "coordinates": [
          -16.2492387,
          28.5330656
        ]
      },
      "id": "node/2078410257"
    },
    {
      "type": "Feature",
      "properties": {
        "@id": "node/2078410273",
        "ele": "864",
        "name": "Montaña del Término",
        "natural": "peak"
      },
      "geometry": {
        "type": "Point",
        "coordinates": [
          -16.2420985,
          28.5358972
        ]
      },
      "id": "node/2078410273"
    },
    {
      "type": "Feature",
      "properties": {
        "@id": "node/2078415565",
        "ele": "762",
        "name": "Roque Suárez",
        "natural": "peak"
      },
      "geometry": {
        "type": "Point",
        "coordinates": [
          -16.2125943,
          28.5474195
        ]
      },
      "id": "node/2078415565"
    },
    {
      "type": "Feature",
      "properties": {
        "@id": "node/2080768025",
        "ele": "504",
        "name": "Montaña Hoya de los Juncos",
        "natural": "peak",
        "wikidata": "Q23984765"
      },
      "geometry": {
        "type": "Point",
        "coordinates": [
          -16.167212,
          28.5411093
        ]
      },
      "id": "node/2080768025"
    },
    {
      "type": "Feature",
      "properties": {
        "@id": "node/2080768026",
        "ele": "738",
        "name": "Montaña Pelada",
        "natural": "peak",
        "wikidata": "Q23982487"
      },
      "geometry": {
        "type": "Point",
        "coordinates": [
          -16.180802,
          28.5388592
        ]
      },
      "id": "node/2080768026"
    },
    {
      "type": "Feature",
      "properties": {
        "@id": "node/2081392848",
        "alt_name": "Roque Anabro",
        "ele": "821",
        "name": "Cabezo del Tejo",
        "natural": "peak"
      },
      "geometry": {
        "type": "Point",
        "coordinates": [
          -16.1701678,
          28.5686033
        ]
      },
      "id": "node/2081392848"
    },
    {
      "type": "Feature",
      "properties": {
        "@id": "node/2081393343",
        "ele": "886",
        "natural": "peak"
      },
      "geometry": {
        "type": "Point",
        "coordinates": [
          -16.169644,
          28.5636673
        ]
      },
      "id": "node/2081393343"
    },
    {
      "type": "Feature",
      "properties": {
        "@id": "node/2087609776",
        "ele": "514",
        "name": "Montaña Brujitos",
        "natural": "peak",
        "wikidata": "Q23987986"
      },
      "geometry": {
        "type": "Point",
        "coordinates": [
          -16.3182083,
          28.4516283
        ]
      },
      "id": "node/2087609776"
    },
    {
      "type": "Feature",
      "properties": {
        "@id": "node/2087609782",
        "ele": "496",
        "name": "Montaña del Cuervo",
        "natural": "peak"
      },
      "geometry": {
        "type": "Point",
        "coordinates": [
          -16.3118959,
          28.4544708
        ]
      },
      "id": "node/2087609782"
    },
    {
      "type": "Feature",
      "properties": {
        "@id": "node/2087609787",
        "ele": "603",
        "name": "Montaña los Giles",
        "natural": "peak",
        "wikidata": "Q23986158"
      },
      "geometry": {
        "type": "Point",
        "coordinates": [
          -16.3242434,
          28.45646
        ]
      },
      "id": "node/2087609787"
    },
    {
      "type": "Feature",
      "properties": {
        "@id": "node/2091606352",
        "ele": "1521",
        "name": "Montaña Cabezo de Toro",
        "natural": "peak"
      },
      "geometry": {
        "type": "Point",
        "coordinates": [
          -16.406328,
          28.4203649
        ]
      },
      "id": "node/2091606352"
    },
    {
      "type": "Feature",
      "properties": {
        "@id": "node/2094187039",
        "ele": "1804",
        "name": "Chipeque",
        "natural": "peak"
      },
      "geometry": {
        "type": "Point",
        "coordinates": [
          -16.4577587,
          28.3808763
        ]
      },
      "id": "node/2094187039"
    },
    {
      "type": "Feature",
      "properties": {
        "@id": "node/2094187174",
        "ele": "1514",
        "name": "Roque de la Unión",
        "natural": "peak"
      },
      "geometry": {
        "type": "Point",
        "coordinates": [
          -16.4596017,
          28.3378385
        ]
      },
      "id": "node/2094187174"
    },
    {
      "type": "Feature",
      "properties": {
        "@id": "node/2119621470",
        "ele": "814",
        "name": "Roque de Tenejías",
        "natural": "peak"
      },
      "geometry": {
        "type": "Point",
        "coordinates": [
          -16.2819318,
          28.5591325
        ]
      },
      "id": "node/2119621470"
    },
    {
      "type": "Feature",
      "properties": {
        "@id": "node/2226637011",
        "name": "Montaña del Barro",
        "natural": "peak"
      },
      "geometry": {
        "type": "Point",
        "coordinates": [
          -16.1422436,
          28.5669062
        ]
      },
      "id": "node/2226637011"
    },
    {
      "type": "Feature",
      "properties": {
        "@id": "node/2226637020",
        "ele": "562",
        "name": "Montaña las Guirreras",
        "natural": "peak",
        "wikidata": "Q23986431"
      },
      "geometry": {
        "type": "Point",
        "coordinates": [
          -16.180043,
          28.5253296
        ]
      },
      "id": "node/2226637020"
    },
    {
      "type": "Feature",
      "properties": {
        "@id": "node/2446555549",
        "ele": "562",
        "name": "Roque de Vento",
        "natural": "peak"
      },
      "geometry": {
        "type": "Point",
        "coordinates": [
          -16.6733057,
          28.086166
        ]
      },
      "id": "node/2446555549"
    },
    {
      "type": "Feature",
      "properties": {
        "@id": "node/2470572069",
        "ele": "350",
        "name": "Montaña Todoque",
        "natural": "peak",
        "wikidata": "Q108739221",
        "wikipedia": "fr:Montagne de Todoque"
      },
      "geometry": {
        "type": "Point",
        "coordinates": [
          -17.9128661,
          28.6160654
        ]
      },
      "id": "node/2470572069"
    },
    {
      "type": "Feature",
      "properties": {
        "@id": "node/2527591963",
        "ele": "506",
        "name": "Morro de los Guanches",
        "natural": "peak"
      },
      "geometry": {
        "type": "Point",
        "coordinates": [
          -16.7130202,
          28.1131823
        ]
      },
      "id": "node/2527591963"
    },
    {
      "type": "Feature",
      "properties": {
        "@id": "node/2531554485",
        "ele": "410",
        "name": "Roque de Chijafe",
        "natural": "peak"
      },
      "geometry": {
        "type": "Point",
        "coordinates": [
          -16.6790626,
          28.0722598
        ]
      },
      "id": "node/2531554485"
    },
    {
      "type": "Feature",
      "properties": {
        "@id": "node/2532384684",
        "name": "Roque de La Abejera",
        "natural": "peak"
      },
      "geometry": {
        "type": "Point",
        "coordinates": [
          -16.6542086,
          28.0622606
        ]
      },
      "id": "node/2532384684"
    },
    {
      "type": "Feature",
      "properties": {
        "@id": "node/2532400610",
        "ele": "195",
        "name": "Roque de Malpaso",
        "natural": "peak"
      },
      "geometry": {
        "type": "Point",
        "coordinates": [
          -16.6698634,
          28.0571665
        ]
      },
      "id": "node/2532400610"
    },
    {
      "type": "Feature",
      "properties": {
        "@id": "node/2537281670",
        "ele": "868",
        "name": "Pico Yeje",
        "natural": "peak"
      },
      "geometry": {
        "type": "Point",
        "coordinates": [
          -16.8493297,
          28.3041445
        ]
      },
      "id": "node/2537281670"
    },
    {
      "type": "Feature",
      "properties": {
        "@id": "node/2537281673",
        "ele": "620",
        "name": "Roque Catana",
        "natural": "peak"
      },
      "geometry": {
        "type": "Point",
        "coordinates": [
          -16.8419783,
          28.302196
        ]
      },
      "id": "node/2537281673"
    },
    {
      "type": "Feature",
      "properties": {
        "@id": "node/2537281679",
        "ele": "1052",
        "name": "Roque Tarucho",
        "natural": "peak"
      },
      "geometry": {
        "type": "Point",
        "coordinates": [
          -16.8352267,
          28.3064359
        ]
      },
      "id": "node/2537281679"
    },
    {
      "type": "Feature",
      "properties": {
        "@id": "node/2555273122",
        "ele": "2271",
        "name": "Montaña de Igueque",
        "natural": "peak"
      },
      "geometry": {
        "type": "Point",
        "coordinates": [
          -16.4875543,
          28.3285203
        ]
      },
      "id": "node/2555273122"
    },
    {
      "type": "Feature",
      "properties": {
        "@id": "node/2555273127",
        "ele": "2245",
        "name": "Montaña de la Negrita",
        "natural": "peak"
      },
      "geometry": {
        "type": "Point",
        "coordinates": [
          -16.48567,
          28.333833
        ]
      },
      "id": "node/2555273127"
    },
    {
      "type": "Feature",
      "properties": {
        "@id": "node/2559680422",
        "ele": "2074",
        "natural": "peak"
      },
      "geometry": {
        "type": "Point",
        "coordinates": [
          -16.5061047,
          28.3280702
        ]
      },
      "id": "node/2559680422"
    },
    {
      "type": "Feature",
      "properties": {
        "@id": "node/2609778880",
        "ele": "1072",
        "name": "Montaña Marcos",
        "natural": "peak"
      },
      "geometry": {
        "type": "Point",
        "coordinates": [
          -17.8676499,
          28.5838536
        ]
      },
      "id": "node/2609778880"
    },