{
  "type": "FeatureCollection",
  "generator": "overpass-turbo",
  "copyright": "The data included in this document is from www.openstreetmap.org. The data is made available under ODbL.",
  "timestamp": "2025-04-21T19:03:06Z",
  "features": [
    {
      "type": "Feature",
      "properties": {
        "@id": "node/576521965",
        "ele": "728",
        "name": "Alt de Fèlix",
        "natural": "peak"
      },
      "geometry": {
        "type": "Point",
        "coordinates": [
          -0.6344157,
          38.7788727
        ]
      },
      "id": "node/576521965"
    },
    {
      "type": "Feature",
      "properties": {
        "@id": "node/913863947",
        "ele": "165",
        "name": "la Costera",
        "name:ca": "la Costera",
        "natural": "peak"
      },
      "geometry": {
        "type": "Point",
        "coordinates": [
          -0.3248699,
          39.6323975
        ]
      },
      "id": "node/913863947"
    },
    {
      "type": "Feature",
      "properties": {
        "@id": "node/926534250",
        "ele": "604",
        "name": "Garbí",
        "name:ca": "Garbí",
        "natural": "peak"
      },
      "geometry": {
        "type": "Point",
        "coordinates": [
          -0.3732879,
          39.698005
        ]
      },
      "id": "node/926534250"
    },
    {
      "type": "Feature",
      "properties": {
        "@id": "node/926538279",
        "ele": "532",
        "name": "Puntal de l'Albarda",
        "name:ca": "Puntal de l'Albarda",
        "natural": "peak"
      },
      "geometry": {
        "type": "Point",
        "coordinates": [
          -0.3673652,
          39.7008896
        ]
      },
      "id": "node/926538279"
    },
    {
      "type": "Feature",
      "properties": {
        "@id": "node/948634641",
        "ele": "363.20",
        "name": "el Ventura",
        "natural": "peak",
        "wikidata": "Q115511374"
      },
      "geometry": {
        "type": "Point",
        "coordinates": [
          -0.2338354,
          38.9149813
        ]
      },
      "id": "node/948634641"
    },
    {
      "type": "Feature",
      "properties": {
        "@id": "node/948640681",
        "ele": "981.70",
        "name": "Juey",
        "natural": "peak",
        "wikidata": "Q115504400"
      },
      "geometry": {
        "type": "Point",
        "coordinates": [
          -1.1168384,
          39.1714718
        ]
      },
      "id": "node/948640681"
    },
    {
      "type": "Feature",
      "properties": {
        "@id": "node/948640958",
        "ele": "345.60",
        "name": "La Rodana",
        "natural": "peak",
        "wikidata": "Q24019069"
      },
      "geometry": {
        "type": "Point",
        "coordinates": [
          -0.6264416,
          39.5429235
        ]
      },
      "id": "node/948640958"
    },
    {
      "type": "Feature",
      "properties": {
        "@id": "node/948642329",
        "ele": "488.80",
        "name": "Cruz",
        "natural": "peak",
        "wikidata": "Q115502399"
      },
      "geometry": {
        "type": "Point",
        "coordinates": [
          -0.7310529,
          39.1042187
        ]
      },
      "id": "node/948642329"
    },
    {
      "type": "Feature",
      "properties": {
        "@id": "node/1241901656",
        "ele": "1008",
        "name": "Cerro de los Tres Mojones",
        "natural": "peak"
      },
      "geometry": {
        "type": "Point",
        "coordinates": [
          -1.2267687,
          39.1517233
        ]
      },
      "id": "node/1241901656"
    },
    {
      "type": "Feature",
      "properties": {
        "@id": "node/1242134738",
        "ele": "731",
        "name": "l'Ullastre",
        "name:ca": "l'Ullastre",
        "natural": "peak"
      },
      "geometry": {
        "type": "Point",
        "coordinates": [
          -0.3437335,
          38.8622163
        ]
      },
      "id": "node/1242134738"
    },
    {
      "type": "Feature",
      "properties": {
        "@id": "node/1243238660",
        "ele": "1088",
        "name": "Alto de la Silla",
        "natural": "peak"
      },
      "geometry": {
        "type": "Point",
        "coordinates": [
          -0.7119485,
          39.8180189
        ]
      },
      "id": "node/1243238660"
    },
    {
      "type": "Feature",
      "properties": {
        "@id": "node/1243240963",
        "ele": "819",
        "name": "Penyes Altes",
        "name:ca": "Penyes Altes",
        "name:es": "Peñas Altas",
        "natural": "peak"
      },
      "geometry": {
        "type": "Point",
        "coordinates": [
          -0.4747911,
          39.7214374
        ]
      },
      "id": "node/1243240963"
    },
    {
      "type": "Feature",
      "properties": {
        "@id": "node/1243267087",
        "alt_name": "Alto del Águila",
        "ele": "878",
        "name": "Pico del Águila",
        "name:ca": "Pic de l'Àguila",
        "natural": "peak"
      },
      "geometry": {
        "type": "Point",
        "coordinates": [
          -0.5168445,
          39.7809076
        ]
      },
      "id": "node/1243267087"
    },
    {
      "type": "Feature",
      "properties": {
        "@id": "node/1243272179",
        "ele": "831",
        "name": "Penya Roja",
        "name:ca": "Penya Roja",
        "natural": "peak"
      },
      "geometry": {
        "type": "Point",
        "coordinates": [
          -0.4635463,
          39.720114
        ]
      },
      "id": "node/1243272179"
    },
    {
      "type": "Feature",
      "properties": {
        "@id": "node/1243366032",
        "ele": "728",
        "name": "Realto de la Mujer",
        "natural": "peak",
        "source": "Instituto Geográfico Nacional",
        "source:date": "201011"
      },
      "geometry": {
        "type": "Point",
        "coordinates": [
          -0.8536134,
          39.2256688
        ]
      },
      "id": "node/1243366032"
    },
    {
      "type": "Feature",
      "properties": {
        "@id": "node/1243366875",
        "ele": "1130",
        "name": "Peña de la Zorra",
        "natural": "peak"
      },
      "geometry": {
        "type": "Point",
        "coordinates": [
          -1.2359672,
          39.0924071
        ]
      },
      "id": "node/1243366875"
    },
    {
      "type": "Feature",
      "properties": {
        "@id": "node/1243367025",
        "ele": "762",
        "name": "Pico del Reloj",
        "natural": "peak",
        "source": "Instituto Geográfico Nacional"
      },
      "geometry": {
        "type": "Point",
        "coordinates": [
          -0.9844619,
          39.2787199
        ]
      },
      "id": "node/1243367025"
    },
    {
      "type": "Feature",
      "properties": {
        "@id": "node/1243367095",
        "ele": "772",
        "name": "Alt de les Mentires",
        "name:ca": "Alt de les Mentires",
        "natural": "peak"
      },
      "geometry": {
        "type": "Point",
        "coordinates": [
          -0.727441,
          38.8360224
        ]
      },
      "id": "node/1243367095"
    },
    {
      "type": "Feature",
      "properties": {
        "@id": "node/1243367717",
        "ele": "792",
        "name": "Puntal del Juego de la Pelota",
        "natural": "peak",
        "source": "Instituto Geográfico Nacional",
        "source:date": "201011"
      },
      "geometry": {
        "type": "Point",
        "coordinates": [
          -0.9272689,
          39.3354624
        ]
      },
      "id": "node/1243367717"
    },
    {
      "type": "Feature",
      "properties": {
        "@id": "node/1243368142",
        "ele": "1114",
        "name": "Pata de Yegua",
        "natural": "peak",
        "source": "Instituto Geográfico Nacional"
      },
      "geometry": {
        "type": "Point",
        "coordinates": [
          -1.0871373,
          39.9013946
        ]
      },
      "id": "node/1243368142"
    },
    {
      "type": "Feature",
      "properties": {
        "@id": "node/1243368235",
        "ele": "904",
        "name": "Loma Chupena",
        "natural": "peak",
        "source": "Instituto Geográfico Nacional"
      },
      "geometry": {
        "type": "Point",
        "coordinates": [
          -1.0218346,
          39.7961949
        ]
      },
      "id": "node/1243368235"
    },
    {
      "type": "Feature",
      "properties": {
        "@id": "node/1243368356",
        "ele": "748",
        "name": "Alto de Palletas",
        "natural": "peak",
        "source": "Instituto Geográfico Nacional"
      },
      "geometry": {
        "type": "Point",
        "coordinates": [
          -0.9726172,
          39.4161011
        ]
      },
      "id": "node/1243368356"
    },
    {
      "type": "Feature",
      "properties": {
        "@id": "node/1243368452",
        "ele": "442",
        "name": "el Xocainet",
        "name:ca": "el Xocainet",
        "natural": "peak",
        "source": "Instituto Geográfico Nacional",
        "source:date": "201011"
      },
      "geometry": {
        "type": "Point",
        "coordinates": [
          -0.3505501,
          39.678043
        ]
      },
      "id": "node/1243368452"
    },
    {
      "type": "Feature",
      "properties": {
        "@id": "node/1243368619",
        "ele": "881",
        "name": "Cerro de la Estafeta",
        "natural": "peak",
        "source": "Instituto Geográfico Nacional",
        "source:date": "201011"
      },
      "geometry": {
        "type": "Point",
        "coordinates": [
          -0.9890522,
          39.1383488
        ]
      },
      "id": "node/1243368619"
    },
    {
      "type": "Feature",
      "properties": {
        "@id": "node/1243368908",
        "ele": "529",
        "name": "Puntal de la Cuesta Blanca",
        "natural": "peak",
        "source": "Instituto Geográfico Nacional",
        "source:date": "201011"
      },
      "geometry": {
        "type": "Point",
        "coordinates": [
          -0.8503291,
          39.3583062
        ]
      },
      "id": "node/1243368908"
    },
    {
      "type": "Feature",
      "properties": {
        "@id": "node/1243368998",
        "ele": "281",
        "name": "Puntal del Povitxol",
        "natural": "peak",
        "source": "Instituto Geográfico Nacional"
      },
      "geometry": {
        "type": "Point",
        "coordinates": [
          -0.2967248,
          39.7304721
        ]
      },
      "id": "node/1243368998"
    },
    {
      "type": "Feature",
      "properties": {
        "@id": "node/1243369089",
        "ele": "313",
        "name": "l'Altesó",
        "natural": "peak",
        "source:date": "201011"
      },
      "geometry": {
        "type": "Point",
        "coordinates": [
          -0.4385591,
          38.9711542
        ]
      },
      "id": "node/1243369089"
    },
    {
      "type": "Feature",
      "properties": {
        "@id": "node/1243369291",
        "ele": "405",
        "name": "Puntal del Meliquet",
        "name:ca": "Puntal del Meliquet",
        "natural": "peak",
        "source": "Instituto Geográfico Nacional",
        "source:date": "201011"
      },
      "geometry": {
        "type": "Point",
        "coordinates": [
          -0.3955652,
          39.6662688
        ]
      },
      "id": "node/1243369291"
    },
    {
      "type": "Feature",
      "properties": {
        "@id": "node/1243370639",
        "ele": "1205",
        "name": "Cinglo de Alejandro",
        "natural": "peak",
        "source": "Instituto Geográfico Nacional"
      },
      "geometry": {
        "type": "Point",
        "coordinates": [
          -0.9609404,
          39.9183458
        ]
      },
      "id": "node/1243370639"
    },
    {
      "type": "Feature",
      "properties": {
        "@id": "node/1243371308",
        "ele": "1706",
        "name": "El Chaparral",
        "natural": "peak",
        "source": "Instituto Geográfico Nacional",
        "source:date": "201011"
      },
      "geometry": {
        "type": "Point",
        "coordinates": [
          -1.0858672,
          40.0519954
        ]
      },
      "id": "node/1243371308"
    },
    {
      "type": "Feature",
      "properties": {
        "@id": "node/1243371391",
        "ele": "721",
        "name": "Alto del Aljibe",
        "natural": "peak",
        "source": "Instituto Geográfico Nacional",
        "source:date": "201011"
      },
      "geometry": {
        "type": "Point",
        "coordinates": [
          -0.8460731,
          39.2252677
        ]
      },
      "id": "node/1243371391"
    },
    {
      "type": "Feature",
      "properties": {
        "@id": "node/1243371414",
        "ele": "1147",
        "name": "La Herrada",
        "natural": "peak",
        "source": "Instituto Geográfico Nacional"
      },
      "geometry": {
        "type": "Point",
        "coordinates": [
          -1.0325146,
          39.9167223
        ]
      },
      "id": "node/1243371414"
    },
    {
      "type": "Feature",
      "properties": {
        "@id": "node/1243371608",
        "name": "Loma de la Pelucha",
        "natural": "peak",
        "source": "Instituto Geográfico Nacional"
      },
      "geometry": {
        "type": "Point",
        "coordinates": [
          -0.7816052,
          39.8521659
        ]
      },
      "id": "node/1243371608"
    },
    {
      "type": "Feature",
      "properties": {
        "@id": "node/1243372055",
        "ele": "683",
        "name": "Morra del Bailaor",
        "natural": "peak",
        "source": "Instituto Geográfico Nacional",
        "source:date": "201011"
      },
      "geometry": {
        "type": "Point",
        "coordinates": [
          -0.7236548,
          39.2847402
        ]
      },
      "id": "node/1243372055"
    },
    {
      "type": "Feature",
      "properties": {
        "@id": "node/1243372271",
        "ele": "1404",
        "name": "La Moratilla Grande",
        "natural": "peak",
        "source": "Instituto Geográfico Nacional;Acadèmia Valenciana de la Llengua"
      },
      "geometry": {
        "type": "Point",
        "coordinates": [
          -1.0376256,
          39.9314541
        ]
      },
      "id": "node/1243372271"
    },
    {
      "type": "Feature",
      "properties": {
        "@id": "node/1243372279",
        "ele": "569",
        "name": "Pico de la Colmena",
        "natural": "peak",
        "source": "Instituto Geográfico Nacional"
      },
      "geometry": {
        "type": "Point",
        "coordinates": [
          -1.1656475,
          39.3175909
        ]
      },
      "id": "node/1243372279"
    },
    {
      "type": "Feature",
      "properties": {
        "@id": "node/1243372403",
        "ele": "576",
        "name": "Puntal Alto",
        "natural": "peak",
        "source": "Instituto Geográfico Nacional",
        "source:date": "201011"
      },
      "geometry": {
        "type": "Point",
        "coordinates": [
          -0.959936,
          39.3627899
        ]
      },
      "id": "node/1243372403"
    },
    {
      "type": "Feature",
      "properties": {
        "@id": "node/1243372540",
        "ele": "699",
        "name": "el Picaio",
        "name:ca": "el Picaio",
        "natural": "peak",
        "source": "Instituto Geográfico Nacional",
        "source:date": "201011"
      },
      "geometry": {
        "type": "Point",
        "coordinates": [
          -0.3273303,
          39.0073314
        ]
      },
      "id": "node/1243372540"
    },
    {
      "type": "Feature",
      "properties": {
        "@id": "node/1243372956",
        "ele": "465",
        "name": "Cerro del Bolariquio",
        "natural": "peak",
        "source": "Instituto Geográfico Nacional",
        "source:date": "201011"
      },
      "geometry": {
        "type": "Point",
        "coordinates": [
          -1.0629601,
          39.1957846
        ]
      },
      "id": "node/1243372956"
    },
    {
      "type": "Feature",
      "properties": {
        "@id": "node/1243373136",
        "ele": "412",
        "name": "Morro del Bali",
        "natural": "peak",
        "source": "Instituto Geográfico Nacional",
        "source:date": "201011"
      },
      "geometry": {
        "type": "Point",
        "coordinates": [
          -0.7967996,
          39.2636226
        ]
      },
      "id": "node/1243373136"
    },
    {
      "type": "Feature",
      "properties": {
        "@id": "node/1243374018",
        "ele": "848",
        "name": "Cerro Campillo",
        "natural": "peak",
        "source": "Instituto Geográfico Nacional"
      },
      "geometry": {
        "type": "Point",
        "coordinates": [
          -0.7687239,
          39.7855041
        ]
      },
      "id": "node/1243374018"
    },
    {
      "type": "Feature",
      "properties": {
        "@id": "node/1243375213",
        "ele": "724",
        "name": "Alto del Retor",
        "natural": "peak"
      },
      "geometry": {
        "type": "Point",
        "coordinates": [
          -0.819005,
          39.4613015
        ]
      },
      "id": "node/1243375213"
    },
    {
      "type": "Feature",
      "properties": {
        "@id": "node/1243375587",
        "ele": "1244",
        "name": "Cabezo de los Moros",
        "natural": "peak",
        "source": "Instituto Geográfico Nacional",
        "source:date": "201011"
      },
      "geometry": {
        "type": "Point",
        "coordinates": [
          -1.1504915,
          40.0317894
        ]
      },
      "id": "node/1243375587"
    },
    {
      "type": "Feature",
      "properties": {
        "@id": "node/1243375699",
        "ele": "638",
        "name": "Puntal del Barrancazo",
        "natural": "peak",
        "source": "Instituto Geográfico Nacional"
      },
      "geometry": {
        "type": "Point",
        "coordinates": [
          -1.0124174,
          39.2492627
        ]
      },
      "id": "node/1243375699"
    },
    {
      "type": "Feature",
      "properties": {
        "@id": "node/1243375802",
        "ele": "677",
        "name": "Puntal de Lidoneros",
        "natural": "peak"
      },
      "geometry": {
        "type": "Point",
        "coordinates": [
          -0.8060988,
          39.4602877
        ]
      },
      "id": "node/1243375802"
    },
    {
      "type": "Feature",
      "properties": {
        "@id": "node/1243375992",
        "ele": "592",
        "name": "Cerro Terrán",
        "natural": "peak",
        "source": "Instituto Geográfico Nacional",
        "source:date": "201011"
      },
      "geometry": {
        "type": "Point",
        "coordinates": [
          -0.9805291,
          39.1614944
        ]
      },
      "id": "node/1243375992"
    },
    {
      "type": "Feature",
      "properties": {
        "@id": "node/1243376282",
        "ele": "264",
        "name": "el Caragol",
        "name:ca": "el Caragol",
        "natural": "peak",
        "source": "Instituto Geográfico Nacional",
        "source:date": "201011"
      },
      "geometry": {
        "type": "Point",
        "coordinates": [
          -0.3604973,
          39.7954529
        ]
      },
      "id": "node/1243376282"
    },
    {
      "type": "Feature",
      "properties": {
        "@id": "node/1243376379",
        "alt_name": "Cerro del Doctor",
        "ele": "1012",
        "name": "Altos del Rodeno",
        "natural": "peak",
        "source": "Instituto Geográfico Nacional;Acadèmia Valenciana de la Llengua"
      },
      "geometry": {
        "type": "Point",
        "coordinates": [
          -0.9253512,
          39.7655122
        ]
      },
      "id": "node/1243376379"
    },
    {
      "type": "Feature",
      "properties": {
        "@id": "node/1243376555",
        "ele": "561",
        "name": "Puntal de les Foies",
        "name:ca": "Puntal de les Foies",
        "natural": "peak"
      },
      "geometry": {
        "type": "Point",
        "coordinates": [
          -0.2762779,
          39.0232753
        ]
      },
      "id": "node/1243376555"
    },
    {
      "type": "Feature",
      "properties": {
        "@id": "node/1243376663",
        "ele": "614",
        "name": "Puntal de Cleto",
        "natural": "peak",
        "source": "Instituto Geográfico Nacional",
        "source:date": "201011"
      },
      "geometry": {
        "type": "Point",
        "coordinates": [
          -0.9156705,
          39.3635406
        ]
      },
      "id": "node/1243376663"
    },
    {
      "type": "Feature",
      "properties": {
        "@id": "node/1243376801",
        "ele": "55",
        "natural": "peak",
        "source": "Instituto Geográfico Nacional",
        "source:date": "201011"
      },
      "geometry": {
        "type": "Point",
        "coordinates": [
          -0.2632723,
          39.6926623
        ]
      },
      "id": "node/1243376801"
    },
    {
      "type": "Feature",
      "properties": {
        "@id": "node/1243376951",
        "ele": "673",
        "name": "Puntal de Gibraltar",
        "natural": "peak",
        "source": "Instituto Geográfico Nacional"
      },
      "geometry": {
        "type": "Point",
        "coordinates": [
          -1.141814,
          39.810547
        ]
      },
      "id": "node/1243376951"
    },
    {
      "type": "Feature",
      "properties": {
        "@id": "node/1243377035",
        "ele": "1248",
        "name": "Cabezo Chico",
        "natural": "peak",
        "source": "Instituto Geográfico Nacional"
      },
      "geometry": {
        "type": "Point",
        "coordinates": [
          -0.9933331,
          39.8684378
        ]
      },
      "id": "node/1243377035"
    },
    {
      "type": "Feature",
      "properties": {
        "@id": "node/1243377072",
        "ele": "665",
        "name": "Pico del Águila",
        "natural": "peak",
        "source": "Instituto Geográfico Nacional",
        "source:date": "201011"
      },
      "geometry": {
        "type": "Point",
        "coordinates": [
          -1.1392308,
          39.1950486
        ]
      },
      "id": "node/1243377072"
    },
    {
      "type": "Feature",
      "properties": {
        "@id": "node/1243377275",
        "ele": "735",
        "name": "Alt de la Ferradura",
        "name:ca": "Alt de la Ferradura",
        "natural": "peak",
        "source": "Instituto Geográfico Nacional"
      },
      "geometry": {
        "type": "Point",
        "coordinates": [
          -0.7592517,
          39.7662687
        ]
      },
      "id": "node/1243377275"
    },
    {
      "type": "Feature",
      "properties": {
        "@id": "node/1243377356",
        "ele": "664",
        "name": "Penya del Sol",
        "name:ca": "Penya del Sol",
        "natural": "peak"
      },
      "geometry": {
        "type": "Point",
        "coordinates": [
          -0.6779734,
          38.8831524
        ]
      },
      "id": "node/1243377356"
    },
    {
      "type": "Feature",
      "properties": {
        "@id": "node/1243377865",
        "ele": "560",
        "name": "Cerro Gordo",
        "natural": "peak"
      },
      "geometry": {
        "type": "Point",
        "coordinates": [
          -1.0043614,
          39.1955242
        ]
      },
      "id": "node/1243377865"
    },
    {
      "type": "Feature",
      "properties": {
        "@id": "node/1243378270",
        "ele": "947",
        "name": "Loma del Águila",
        "natural": "peak",
        "shop": "Acadèmia Valenciana de la Llengua",
        "source": "Instituto Geográfico Nacional"
      },
      "geometry": {
        "type": "Point",
        "coordinates": [
          -1.1010683,
          39.8436036
        ]
      },
      "id": "node/1243378270"
    },
    {
      "type": "Feature",
      "properties": {
        "@id": "node/1243378396",
        "ele": "876",
        "name": "Cerro del Asno",
        "natural": "peak",
        "source": "Instituto Geográfico Nacional"
      },
      "geometry": {
        "type": "Point",
        "coordinates": [
          -0.9413513,
          39.4031498
        ]
      },
      "id": "node/1243378396"
    },
    {
      "type": "Feature",
      "properties": {
        "@id": "node/1243378694",
        "ele": "773",
        "name": "Puntal del Juanero",
        "natural": "peak",
        "source": "Instituto Geográfico Nacional",
        "source:date": "201011"
      },
      "geometry": {
        "type": "Point",
        "coordinates": [
          -0.9213906,
          39.1320988
        ]
      },
      "id": "node/1243378694"
    },
    {
      "type": "Feature",
      "properties": {
        "@id": "node/1243378712",
        "ele": "309.10",
        "name": "el Puig",
        "name:ca": "el Puig",
        "natural": "peak"
      },
      "geometry": {
        "type": "Point",
        "coordinates": [
          -0.4896784,
          39.0035185
        ]
      },
      "id": "node/1243378712"
    },
    {
      "type": "Feature",
      "properties": {
        "@id": "node/1243378871",
        "ele": "692",
        "name": "Realto de la Sotana",
        "natural": "peak",
        "source": "Instituto Geográfico Nacional",
        "source:date": "201011"
      },
      "geometry": {
        "type": "Point",
        "coordinates": [
          -0.8507132,
          39.1947778
        ]
      },
      "id": "node/1243378871"
    },
    {
      "type": "Feature",
      "properties": {
        "@id": "node/1243378917",
        "ele": "779",
        "name": "La Rápita",
        "natural": "peak",
        "source": "Instituto Geográfico Nacional",
        "source:date": "201011"
      },
      "geometry": {
        "type": "Point",
        "coordinates": [
          -0.762498,
          39.2784414
        ]
      },
      "id": "node/1243378917"
    },
    {
      "type": "Feature",
      "properties": {
        "@id": "node/1243379242",
        "ele": "918",
        "name": "Alto del Águila",
        "natural": "peak",
        "source": "Instituto Geográfico Nacional",
        "source:date": "201011"
      },
      "geometry": {
        "type": "Point",
        "coordinates": [
          -0.9736972,
          39.0951482
        ]
      },
      "id": "node/1243379242"
    },
    {
      "type": "Feature",
      "properties": {
        "@id": "node/1243379588",
        "ele": "261",
        "name": "Puntal de la Costera",
        "name:ca": "Puntal de la Costera",
        "natural": "peak"
      },
      "geometry": {
        "type": "Point",
        "coordinates": [
          -0.6229462,
          39.1597901
        ]
      },
      "id": "node/1243379588"
    },
    {
      "type": "Feature",
      "properties": {
        "@id": "node/1243379622",
        "ele": "1154",
        "name": "Cerro Gordo",
        "natural": "peak",
        "source": "Instituto Geográfico Nacional"
      },
      "geometry": {
        "type": "Point",
        "coordinates": [
          -0.8493853,
          39.8110531
        ]
      },
      "id": "node/1243379622"
    },
    {
      "type": "Feature",
      "properties": {
        "@id": "node/1243380555",
        "ele": "513",
        "name": "El Manyo",
        "natural": "peak",
        "source": "Instituto Geográfico Nacional"
      },
      "geometry": {
        "type": "Point",
        "coordinates": [
          -0.4058257,
          39.6803188
        ]
      },
      "id": "node/1243380555"
    },
    {
      "type": "Feature",
      "properties": {
        "@id": "node/1243380764",
        "ele": "902",
        "name": "Puntal de la Cueva de las Grajas",
        "natural": "peak",
        "source": "Instituto Geográfico Nacional"
      },
      "geometry": {
        "type": "Point",
        "coordinates": [
          -1.1563131,
          39.2111571
        ]
      },
      "id": "node/1243380764"
    },
    {
      "type": "Feature",
      "properties": {
        "@id": "node/1243380854",
        "ele": "1102",
        "name": "Puntal del Mediodía",
        "natural": "peak",
        "source": "Instituto Geográfico Nacional",
        "source:date": "201011"
      },
      "geometry": {
        "type": "Point",
        "coordinates": [
          -1.146663,
          38.9468853
        ]
      },
      "id": "node/1243380854"
    },
    {
      "type": "Feature",
      "properties": {
        "@id": "node/1243381849",
        "ele": "819",
        "name": "Alto Romero",
        "natural": "peak",
        "source": "Instituto Geográfico Nacional"
      },
      "geometry": {
        "type": "Point",
        "coordinates": [
          -0.5776603,
          39.7693689
        ]
      },
      "id": "node/1243381849"
    },
    {
      "type": "Feature",
      "properties": {
        "@id": "node/1243382315",
        "ele": "919",
        "name": "Cerro de la Rodena",
        "natural": "peak",
        "source": "Instituto Geográfico Nacional"
      },
      "geometry": {
        "type": "Point",
        "coordinates": [
          -0.6737557,
          39.8355634
        ]
      },
      "id": "node/1243382315"
    },
    {
      "type": "Feature",
      "properties": {
        "@id": "node/1243382871",
        "ele": "631",
        "name": "El Montón de Trigo",
        "natural": "peak"
      },
      "geometry": {
        "type": "Point",
        "coordinates": [
          -0.685829,
          39.2805049
        ]
      },
      "id": "node/1243382871"
    },
    {
      "type": "Feature",
      "properties": {
        "@id": "node/1243383199",
        "ele": "721",
        "name": "Alto del Sabinar",
        "natural": "peak",
        "source": "Instituto Geográfico Nacional",
        "source:date": "201011",
        "source:name": "Acadèmia Valenciana de la Llengua"
      },
      "geometry": {
        "type": "Point",
        "coordinates": [
          -0.9868571,
          39.6687975
        ]
      },
      "id": "node/1243383199"
    },
    {
      "type": "Feature",
      "properties": {
        "@id": "node/1243383233",
        "ele": "416",
        "name": "Loma del Cercado",
        "natural": "peak",
        "source": "Instituto Geográfico Nacional",
        "source:date": "201011"
      },
      "geometry": {
        "type": "Point",
        "coordinates": [
          -0.8030205,
          39.2674079
        ]
      },
      "id": "node/1243383233"
    },
    {
      "type": "Feature",
      "properties": {
        "@id": "node/1243383465",
        "ele": "641",
        "name": "Puntal del Cerro Gordo",
        "natural": "peak",
        "source": "Instituto Geográfico Nacional",
        "source:date": "201011"
      },
      "geometry": {
        "type": "Point",
        "coordinates": [
          -0.8376707,
          39.1778522
        ]
      },
      "id": "node/1243383465"
    },
    {
      "type": "Feature",
      "properties": {
        "@id": "node/1243383498",
        "ele": "671",
        "name": "El Celeminejo",
        "natural": "peak"
      },
      "geometry": {
        "type": "Point",
        "coordinates": [
          -0.6970241,
          39.2795563
        ]
      },
      "id": "node/1243383498"
    },
    {
      "type": "Feature",
      "properties": {
        "@id": "node/1243383853",
        "ele": "314",
        "name": "Los Albaidares",
        "natural": "peak",
        "source": "Instituto Geográfico Nacional",
        "source:date": "201011"
      },
      "geometry": {
        "type": "Point",
        "coordinates": [
          -0.7493683,
          39.12891
        ]
      },
      "id": "node/1243383853"
    },
    {
      "type": "Feature",
      "properties": {
        "@id": "node/1243384201",
        "ele": "674",
        "name": "Peña del Marañal",
        "natural": "peak",
        "source": "Instituto Geográfico Nacional"
      },
      "geometry": {
        "type": "Point",
        "coordinates": [
          -1.1445205,
          39.3276654
        ]
      },
      "id": "node/1243384201"
    },
    {
      "type": "Feature",
      "properties": {
        "@id": "node/1243384217",
        "name": "Muntanyeta de Villar",
        "name:ca": "Muntanyeta de Villar",
        "natural": "peak",
        "source": "Instituto Geográfico Nacional",
        "source:date": "201011"
      },
      "geometry": {
        "type": "Point",
        "coordinates": [
          -0.2810264,
          39.761072
        ]
      },
      "id": "node/1243384217"
    },
    {
      "type": "Feature",
      "properties": {
        "@id": "node/1243384273",
        "ele": "593",
        "name": "el Garbí",
        "name:ca": "el Garbí",
        "natural": "peak",
        "source": "Instituto Geográfico Nacional",
        "source:date": "201011",
        "wikidata": "Q23987343",
        "wikipedia": "ca:Garbí (muntanya)"
      },
      "geometry": {
        "type": "Point",
        "coordinates": [
          -0.3699652,
          39.6962941
        ]
      },
      "id": "node/1243384273"
    },
    {
      "type": "Feature",
      "properties": {
        "@id": "node/1243384612",
        "ele": "911",
        "name": "Pico de la Sierrecilla",
        "natural": "peak",
        "source": "Instituto Geográfico Nacional"
      },
      "geometry": {
        "type": "Point",
        "coordinates": [
          -1.130704,
          39.2118066
        ]
      },
      "id": "node/1243384612"
    },
    {
      "type": "Feature",
      "properties": {
        "@id": "node/1243385324",
        "ele": "741",
        "name": "Cerro Hontanares",
        "natural": "peak",
        "source": "Instituto Geográfico Nacional"
      },
      "geometry": {
        "type": "Point",
        "coordinates": [
          -0.9929965,
          39.3907325
        ]
      },
      "id": "node/1243385324"
    },
    {
      "type": "Feature",
      "properties": {
        "@id": "node/1243385359",
        "ele": "734",
        "name": "Alto de Caballón",
        "natural": "peak",
        "source": "Instituto Geográfico Nacional",
        "source:date": "201011"
      },
      "geometry": {
        "type": "Point",
        "coordinates": [
          -0.7020845,
          39.2582869
        ]
      },
      "id": "node/1243385359"
    },
    {
      "type": "Feature",
      "properties": {
        "@id": "node/1243385372",
        "name": "Pico del Fraile",
        "natural": "peak",
        "source": "Instituto Geográfico Nacional",
        "source:date": "201011"
      },
      "geometry": {
        "type": "Point",
        "coordinates": [
          -0.8487344,
          39.0844922
        ]
      },
      "id": "node/1243385372"
    },
    {
      "type": "Feature",
      "properties": {
        "@id": "node/1243385474",
        "ele": "909",
        "name": "Cerro de las Contiendas",
        "natural": "peak",
        "source": "Instituto Geográfico Nacional",
        "source:date": "201011"
      },
      "geometry": {
        "type": "Point",
        "coordinates": [
          -0.9828216,
          39.0671874
        ]
      },
      "id": "node/1243385474"
    },
    {
      "type": "Feature",
      "properties": {
        "@id": "node/1243385536",
        "ele": "1111",
        "name": "Puntal del Cuerno",
        "natural": "peak",
        "source": "Instituto Geográfico Nacional",
        "source:date": "201011"
      },
      "geometry": {
        "type": "Point",
        "coordinates": [
          -1.2040982,
          39.1044556
        ]
      },
      "id": "node/1243385536"
    },
    {
      "type": "Feature",
      "properties": {
        "@id": "node/1243385688",
        "ele": "635",
        "name": "El Picayo",
        "natural": "peak",
        "source": "Instituto Geográfico Nacional"
      },
      "geometry": {
        "type": "Point",
        "coordinates": [
          -0.9748147,
          39.2758755
        ]
      },
      "id": "node/1243385688"
    },
    {
      "type": "Feature",
      "properties": {
        "@id": "node/1243385838",
        "ele": "494",
        "name": "Pico Redondo",
        "natural": "peak",
        "source": "Instituto Geográfico Nacional"
      },
      "geometry": {
        "type": "Point",
        "coordinates": [
          -1.0604741,
          39.2695157
        ]
      },
      "id": "node/1243385838"
    },
    {
      "type": "Feature",
      "properties": {
        "@id": "node/1243385939",
        "name": "Cerro Cholo",
        "natural": "peak",
        "source": "Instituto Geográfico Nacional",
        "source:date": "201011"
      },
      "geometry": {
        "type": "Point",
        "coordinates": [
          -0.9909439,
          39.6582281
        ]
      },
      "id": "node/1243385939"
    },
    {
      "type": "Feature",
      "properties": {
        "@id": "node/1243386246",
        "ele": "633",
        "name": "Cerro Tabarla",
        "natural": "peak",
        "source": "Instituto Geográfico Nacional",
        "source:date": "201011"
      },
      "geometry": {
        "type": "Point",
        "coordinates": [
          -0.9554481,
          39.36952
        ]
      },
      "id": "node/1243386246"
    },
    {
      "type": "Feature",
      "properties": {
        "@id": "node/1243386574",
        "alt_name": "Alto de Mangranero",
        "ele": "784",
        "name": "Alto de Tarrac",
        "natural": "peak",
        "source": "Instituto Geográfico Nacional"
      },
      "geometry": {
        "type": "Point",
        "coordinates": [
          -0.8888841,
          39.5784375
        ]
      },
      "id": "node/1243386574"
    },
    {
      "type": "Feature",
      "properties": {
        "@id": "node/1243386624",
        "ele": "909",
        "name": "El Gorgo",
        "natural": "peak",
        "source": "Instituto Geográfico Nacional",
        "source:date": "201011"
      },
      "geometry": {
        "type": "Point",
        "coordinates": [
          -0.5030876,
          39.7419931
        ]
      },
      "id": "node/1243386624"
    },
    {
      "type": "Feature",
      "properties": {
        "@id": "node/1243386708",
        "ele": "732",
        "name": "Pico del Buitre",
        "natural": "peak",
        "source": "Acadèmia Valenciana de la Llengua",
        "source:date": "201011"
      },
      "geometry": {
        "type": "Point",
        "coordinates": [
          -1.0425961,
          39.3634911
        ]
      },
      "id": "node/1243386708"
    },
    {
      "type": "Feature",
      "properties": {
        "@id": "node/1243386927",
        "alt_name": "Peña Roya",
        "ele": "658",
        "name": "Peñarroya",
        "natural": "peak",
        "source": "Instituto Geográfico Nacional",
        "source:date": "201011"
      },
      "geometry": {
        "type": "Point",
        "coordinates": [
          -0.5241393,
          39.7526143
        ]
      },
      "id": "node/1243386927"
    },
    {
      "type": "Feature",
      "properties": {
        "@id": "node/1243387003",
        "ele": "903",
        "name": "Cerro los Carpios",
        "natural": "peak",
        "source": "Instituto Geográfico Nacional",
        "source:date": "201011"
      },
      "geometry": {
        "type": "Point",
        "coordinates": [
          -1.1717732,
          39.096366
        ]
      },
      "id": "node/1243387003"
    },
    {
      "type": "Feature",
      "properties": {
        "@id": "node/1243387154",
        "ele": "806",
        "name": "Puntal de las Palomas",
        "natural": "peak",
        "source": "Instituto Geográfico Nacional"
      },
      "geometry": {
        "type": "Point",
        "coordinates": [
          -0.9939869,
          39.4042843
        ]
      },
      "id": "node/1243387154"
    },
    {
      "type": "Feature",
      "properties": {
        "@id": "node/1243387218",
        "ele": "1111",
        "name": "Cerro de las Cambrillas",
        "natural": "peak",
        "source": "Instituto Geográfico Nacional;Acadèmia Valenciana de la Llengua"
      },
      "geometry": {
        "type": "Point",
        "coordinates": [
          -1.0542776,
          39.88847
        ]
      },
      "id": "node/1243387218"
    },
    {
      "type": "Feature",
      "properties": {
        "@id": "node/1243387310",
        "ele": "878",
        "name": "El Tolmo",
        "natural": "peak",
        "source": "Instituto Geográfico Nacional",
        "source:date": "201011"
      },
      "geometry": {
        "type": "Point",
        "coordinates": [
          -0.9979144,
          39.1399566
        ]
      },
      "id": "node/1243387310"
    },
    {
      "type": "Feature",
      "properties": {
        "@id": "node/1243387409",
        "ele": "339",
        "name": "Alto de la Solana",
        "name:ca": "Alt de la Solana",
        "natural": "peak",
        "source": "Instituto Geográfico Nacional"
      },
      "geometry": {
        "type": "Point",
        "coordinates": [
          -0.3709784,
          39.7894646
        ]
      },
      "id": "node/1243387409"
    },
    {
      "type": "Feature",
      "properties": {
        "@id": "node/1243387484",
        "ele": "944",
        "name": "Cerro la Hoya",
        "natural": "peak",
        "source": "Instituto Geográfico Nacional"
      },
      "geometry": {
        "type": "Point",
        "coordinates": [
          -0.7811303,
          39.8084005
        ]
      },
      "id": "node/1243387484"
    },
    {
      "type": "Feature",
      "properties": {
        "@id": "node/1243387487",
        "ele": "340",
        "name": "Peña del Fraile",
        "natural": "peak",
        "source": "Instituto Geográfico Nacional",
        "source:date": "201011"
      },
      "geometry": {
        "type": "Point",
        "coordinates": [
          -0.6958547,
          39.1125359
        ]
      },
      "id": "node/1243387487"
    },
    {
      "type": "Feature",
      "properties": {
        "@id": "node/1243387653",
        "ele": "527",
        "name": "Puntal de Sácaras",
        "natural": "peak",
        "source": "Instituto Geográfico Nacional",
        "source:date": "201011"
      },
      "geometry": {
        "type": "Point",
        "coordinates": [
          -1.0047778,
          39.2295786
        ]
      },
      "id": "node/1243387653"
    },
    {
      "type": "Feature",
      "properties": {
        "@id": "node/1243387666",
        "ele": "1257",
        "name": "Alto Negro",
        "natural": "peak",
        "source": "Instituto Geográfico Nacional"
      },
      "geometry": {
        "type": "Point",
        "coordinates": [
          -0.9431877,
          39.8707044
        ]
      },
      "id": "node/1243387666"
    },
    {
      "type": "Feature",
      "properties": {
        "@id": "node/1243388121",
        "ele": "892",
        "name": "Alto de La Cazoleta",
        "natural": "peak"
      },
      "geometry": {
        "type": "Point",
        "coordinates": [
          -0.8019818,
          39.5257243
        ]
      },
      "id": "node/1243388121"
    },
    {
      "type": "Feature",
      "properties": {
        "@id": "node/1243388130",
        "ele": "1256",
        "name": "Cerro Bon",
        "natural": "peak",
        "source": "Instituto Geográfico Nacional"
      },
      "geometry": {
        "type": "Point",
        "coordinates": [
          -0.7595846,
          39.8402344
        ]
      },
      "id": "node/1243388130"
    },
    {
      "type": "Feature",
      "properties": {
        "@id": "node/1243388423",
        "ele": "828",
        "name": "Pico Colaita",
        "natural": "peak"
      },
      "geometry": {
        "type": "Point",
        "coordinates": [
          -0.7009276,
          39.2660748
        ]
      },
      "id": "node/1243388423"
    },
    {
      "type": "Feature",
      "properties": {
        "@id": "node/1243388521",
        "ele": "740",
        "name": "Alt de la Nevera",
        "name:ca": "Alt de la Nevera",
        "natural": "peak",
        "source": "Instituto Geográfico Nacional"
      },
      "geometry": {
        "type": "Point",
        "coordinates": [
          -0.444995,
          39.7178492
        ]
      },
      "id": "node/1243388521"
    },
    {
      "type": "Feature",
      "properties": {
        "@id": "node/1243388645",
        "ele": "181",
        "name": "el Cabeço",
        "natural": "peak"
      },
      "geometry": {
        "type": "Point",
        "coordinates": [
          -0.4700799,
          39.029392
        ]
      },
      "id": "node/1243388645"
    },
    {
      "type": "Feature",
      "properties": {
        "@id": "node/1243388657",
        "ele": "500",
        "name": "Alt de Lluna",
        "name:ca": "Alt de Lluna",
        "natural": "peak"
      },
      "geometry": {
        "type": "Point",
        "coordinates": [
          -0.3457821,
          38.9878846
        ]
      },
      "id": "node/1243388657"
    },
    {
      "type": "Feature",
      "properties": {
        "@id": "node/1243388681",
        "ele": "347",
        "name": "la Muntanyeta",
        "natural": "peak",
        "source": "Instituto Geográfico Nacional"
      },
      "geometry": {
        "type": "Point",
        "coordinates": [
          -0.3246354,
          39.0420136
        ]
      },
      "id": "node/1243388681"
    },
    {
      "type": "Feature",
      "properties": {
        "@id": "node/1243390034",
        "ele": "831",
        "name": "Puntal del Rodeno",
        "natural": "peak",
        "source": "Acadèmia Valenciana de la Llengua"
      },
      "geometry": {
        "type": "Point",
        "coordinates": [
          -0.8826553,
          39.7654783
        ]
      },
      "id": "node/1243390034"
    },
    {
      "type": "Feature",
      "properties": {
        "@id": "node/1243390261",
        "name": "La Trabina",
        "natural": "peak",
        "source": "Instituto Geográfico Nacional;Acadèmia Valenciana de la Llengua;1085"
      },
      "geometry": {
        "type": "Point",
        "coordinates": [
          -1.1623825,
          39.9185864
        ]
      },
      "id": "node/1243390261"
    },
    {
      "type": "Feature",
      "properties": {
        "@id": "node/1243390473",
        "ele": "754",
        "name": "Mojón de la Legua",
        "natural": "peak",
        "source": "Instituto Geográfico Nacional",
        "source:date": "201011"
      },
      "geometry": {
        "type": "Point",
        "coordinates": [
          -0.8448103,
          39.2403271
        ]
      },
      "id": "node/1243390473"
    },
    {
      "type": "Feature",
      "properties": {
        "@id": "node/1243390482",
        "ele": "734",
        "name": "Cerro Coleto",
        "natural": "peak",
        "source": "Instituto Geográfico Nacional"
      },
      "geometry": {
        "type": "Point",
        "coordinates": [
          -0.8118561,
          39.784167
        ]
      },
      "id": "node/1243390482"
    },
    {
      "type": "Feature",
      "properties": {
        "@id": "node/1243392697",
        "ele": "948",
        "name": "Loma del Portillo",
        "natural": "peak",
        "source": "Instituto Geográfico Nacional",
        "source:date": "201011"
      },
      "geometry": {
        "type": "Point",
        "coordinates": [
          -0.9569938,
          39.1312887
        ]
      },
      "id": "node/1243392697"
    },
    {
      "type": "Feature",
      "properties": {
        "@id": "node/1243392753",
        "ele": "696",
        "name": "Cerro del Resquijo",
        "natural": "peak",
        "source": "Instituto Geográfico Nacional;Acadèmia Valenciana de la Llengua"
      },
      "geometry": {
        "type": "Point",
        "coordinates": [
          -1.1969891,
          39.9162105
        ]
      },
      "id": "node/1243392753"
    },
    {
      "type": "Feature",
      "properties": {
        "@id": "node/1243393110",
        "ele": "967",
        "name": "Puntal de la Cabrera",
        "natural": "peak",
        "source": "Instituto Geográfico Nacional"
      },
      "geometry": {
        "type": "Point",
        "coordinates": [
          -1.1140944,
          39.8970152
        ]
      },
      "id": "node/1243393110"
    },
    {
      "type": "Feature",
      "properties": {
        "@id": "node/1243393413",
        "ele": "615",
        "name": "Loma del Mojón",
        "natural": "peak",
        "source": "Instituto Geográfico Nacional",
        "source:date": "201011"
      },
      "geometry": {
        "type": "Point",
        "coordinates": [
          -1.0092799,
          39.2454161
        ]
      },
      "id": "node/1243393413"
    },
    {
      "type": "Feature",
      "properties": {
        "@id": "node/1243396389",
        "ele": "464",
        "name": "Puig del Frare",
        "name:ca": "Puig del Frare",
        "natural": "peak"
      },
      "geometry": {
        "type": "Point",
        "coordinates": [
          -0.1547786,
          38.8893301
        ]
      },
      "id": "node/1243396389"
    },
    {
      "type": "Feature",
      "properties": {
        "@id": "node/1243396497",
        "ele": "727",
        "name": "Alto de la Molata",
        "natural": "peak",
        "source": "Instituto Geográfico Nacional"
      },
      "geometry": {
        "type": "Point",
        "coordinates": [
          -1.0565906,
          39.2932972
        ]
      },
      "id": "node/1243396497"
    },
    {
      "type": "Feature",
      "properties": {
        "@id": "node/1243396920",
        "ele": "662",
        "name": "Puntal de l'Abella",
        "name:ca": "Puntal de l'Abella",
        "natural": "peak",
        "source": "Instituto Geográfico Nacional",
        "source:date": "201011",
        "wikidata": "Q18006052",
        "wikipedia": "ca:Puntal de l'Abella"
      },
      "geometry": {
        "type": "Point",
        "coordinates": [
          -0.3827892,
          39.6916946
        ]
      },
      "id": "node/1243396920"
    },
    {
      "type": "Feature",
      "properties": {
        "@id": "node/1243397591",
        "ele": "742",
        "name": "Alts dels Fontanars",
        "name:ca": "Alts dels Fontanars",
        "natural": "peak",
        "source": "Instituto Geográfico Nacional",
        "source:date": "201011"
      },
      "geometry": {
        "type": "Point",
        "coordinates": [
          -0.4663851,
          38.8187867
        ]
      },
      "id": "node/1243397591"
    },
    {
      "type": "Feature",
      "properties": {
        "@id": "node/1243398709",
        "ele": "399",
        "name": "Alto de las Rochas",
        "natural": "peak",
        "source": "Instituto Geográfico Nacional",
        "source:date": "201011"
      },
      "geometry": {
        "type": "Point",
        "coordinates": [
          -0.7316817,
          39.110566
        ]
      },
      "id": "node/1243398709"
    },
    {
      "type": "Feature",
      "properties": {
        "@id": "node/1243398747",
        "ele": "816",
        "name": "Puntal del Barranco Batanero",
        "natural": "peak",
        "source": "Instituto Geográfico Nacional"
      },
      "geometry": {
        "type": "Point",
        "coordinates": [
          -1.138927,
          39.8441739
        ]
      },
      "id": "node/1243398747"
    },
    {
      "type": "Feature",
      "properties": {
        "@id": "node/1243398844",
        "ele": "593",
        "name": "El Cerrito",
        "natural": "peak",
        "source": "Instituto Geográfico Nacional",
        "source:date": "201011"
      },
      "geometry": {
        "type": "Point",
        "coordinates": [
          -0.5468085,
          39.7401371
        ]
      },
      "id": "node/1243398844"
    },
    {
      "type": "Feature",
      "properties": {
        "@id": "node/1243399402",
        "ele": "753",
        "name": "Cerro de la Mata",
        "name:ca": "Cerro de la Mata",
        "natural": "peak",
        "source": "Instituto Geográfico Nacional",
        "source:date": "201011"
      },
      "geometry": {
        "type": "Point",
        "coordinates": [
          -0.4744192,
          39.7038567
        ]
      },
      "id": "node/1243399402"
    },
    {
      "type": "Feature",
      "properties": {
        "@id": "node/1243399405",
        "ele": "507",
        "name": "Alt de la Sardina",
        "name:ca": "Alt de la Sardina",
        "natural": "peak",
        "source": "Instituto Geográfico Nacional",
        "source:date": "201011"
      },
      "geometry": {
        "type": "Point",
        "coordinates": [
          -0.2840357,
          39.0258054
        ]
      },
      "id": "node/1243399405"
    },
    {
      "type": "Feature",
      "properties": {
        "@id": "node/1243399498",
        "ele": "704",
        "name": "El Rehoyo",
        "natural": "peak",
        "source": "Instituto Geográfico Nacional",
        "source:date": "201011"
      },
      "geometry": {
        "type": "Point",
        "coordinates": [
          -0.7775843,
          39.2794107
        ]
      },
      "id": "node/1243399498"
    },
    {
      "type": "Feature",
      "properties": {
        "@id": "node/1243399525",
        "ele": "565",
        "name": "Puntal del Piojar",
        "natural": "peak",
        "source": "Instituto Geográfico Nacional",
        "source:date": "201011"
      },
      "geometry": {
        "type": "Point",
        "coordinates": [
          -0.8418819,
          39.3784274
        ]
      },
      "id": "node/1243399525"
    },
    {
      "type": "Feature",
      "properties": {
        "@id": "node/1243399556",
        "ele": "493",
        "name": "Peña Mozoza",
        "natural": "peak",
        "source": "Instituto Geográfico Nacional"
      },
      "geometry": {
        "type": "Point",
        "coordinates": [
          -1.0841367,
          39.2331917
        ]
      },
      "id": "node/1243399556"
    },
    {
      "type": "Feature",
      "properties": {
        "@id": "node/1243399600",
        "ele": "335",
        "name": "Picayo de la Punta",
        "natural": "peak",
        "source": "Instituto Geográfico Nacional"
      },
      "geometry": {
        "type": "Point",
        "coordinates": [
          -0.371862,
          39.7572224
        ]
      },
      "id": "node/1243399600"
    },
    {
      "type": "Feature",
      "properties": {
        "@id": "node/1243400264",
        "ele": "757",
        "name": "Alto de Rives",
        "natural": "peak",
        "source": "Instituto Geográfico Nacional",
        "source:date": "201011"
      },
      "geometry": {
        "type": "Point",
        "coordinates": [
          -0.8258283,
          39.2402977
        ]
      },
      "id": "node/1243400264"
    },
    {
      "type": "Feature",
      "properties": {
        "@id": "node/1243401332",
        "ele": "517",
        "name": "Guartipol",
        "natural": "peak",
        "source": "Instituto Geográfico Nacional",
        "source:date": "201011"
      },
      "geometry": {
        "type": "Point",
        "coordinates": [
          -0.9129891,
          39.2805698
        ]
      },
      "id": "node/1243401332"
    },
    {
      "type": "Feature",
      "properties": {
        "@id": "node/1243401623",
        "ele": "1001",
        "name": "Puntal de la Teja",
        "natural": "peak",
        "source": "Instituto Geográfico Nacional"
      },
      "geometry": {
        "type": "Point",
        "coordinates": [
          -1.1485567,
          39.1668158
        ]
      },
      "id": "node/1243401623"
    },
    {
      "type": "Feature",
      "properties": {
        "@id": "node/1243401675",
        "ele": "1372",
        "name": "Muela Catalana",
        "natural": "peak",
        "source": "Instituto Geográfico Nacional"
      },
      "geometry": {
        "type": "Point",
        "coordinates": [
          -1.0605742,
          39.9341368
        ]
      },
      "id": "node/1243401675"
    },
    {
      "type": "Feature",
      "properties": {
        "@id": "node/1243402209",
        "ele": "1033",
        "name": "Pico del Bebeu",
        "natural": "peak",
        "source": "Instituto Geográfico Nacional"
      },
      "geometry": {
        "type": "Point",
        "coordinates": [
          -1.1815523,
          39.1720623
        ]
      },
      "id": "node/1243402209"
    },
    {
      "type": "Feature",
      "properties": {
        "@id": "node/1243402400",
        "ele": "846",
        "name": "La Pieza Roya",
        "natural": "peak",
        "source": "Instituto Geográfico Nacional;Acadèmia Valenciana de la Llengua"
      },
      "geometry": {
        "type": "Point",
        "coordinates": [
          -0.546376,
          39.7608691
        ]
      },
      "id": "node/1243402400"
    },
    {
      "type": "Feature",
      "properties": {
        "@id": "node/1243403376",
        "ele": "617",
        "name": "Alto de Zaroza",
        "natural": "peak",
        "source": "Instituto Geográfico Nacional",
        "source:date": "201011"
      },
      "geometry": {
        "type": "Point",
        "coordinates": [
          -0.9504891,
          39.2448471
        ]
      },
      "id": "node/1243403376"
    },
    {
      "type": "Feature",
      "properties": {
        "@id": "node/1243403842",
        "ele": "712",
        "name": "Rellom del Topero",
        "natural": "peak",
        "source": "Instituto Geográfico Nacional",
        "source:date": "201011"
      },
      "geometry": {
        "type": "Point",
        "coordinates": [
          -0.4980749,
          39.7207595
        ]
      },
      "id": "node/1243403842"
    },
    {
      "type": "Feature",
      "properties": {
        "@id": "node/1243404131",
        "ele": "549",
        "name": "Alto de la Parada",
        "natural": "peak",
        "source": "Instituto Geográfico Nacional;Acadèmia Valenciana de la Llengua"
      },
      "geometry": {
        "type": "Point",
        "coordinates": [
          -0.7828385,
          39.2370765
        ]
      },
      "id": "node/1243404131"
    },
    {
      "type": "Feature",
      "properties": {
        "@id": "node/1243404326",
        "ele": "835",
        "name": "Cerro de la Cueva Blanca",
        "natural": "peak",
        "source": "Instituto Geográfico Nacional",
        "source:date": "201011"
      },
      "geometry": {
        "type": "Point",
        "coordinates": [
          -1.0140843,
          39.1295966
        ]
      },
      "id": "node/1243404326"
    },
    {
      "type": "Feature",
      "properties": {
        "@id": "node/1243404511",
        "ele": "1271",
        "name": "Puntal de Mira Valencia",
        "natural": "peak",
        "source": "Instituto Geográfico Nacional"
      },
      "geometry": {
        "type": "Point",
        "coordinates": [
          -0.7903488,
          39.830555
        ]
      },
      "id": "node/1243404511"
    },
    {
      "type": "Feature",
      "properties": {
        "@id": "node/1243404647",
        "ele": "510",
        "name": "el Bord",
        "name:ca": "el Bord",
        "natural": "peak",
        "source": "Instituto Geográfico Nacional",
        "source:date": "201011"
      },
      "geometry": {
        "type": "Point",
        "coordinates": [
          -0.3799256,
          39.68829
        ]
      },
      "id": "node/1243404647"
    },
    {
      "type": "Feature",
      "properties": {
        "@id": "node/1243404890",
        "ele": "397",
        "name": "Puntal dels Moros",
        "name:ca": "Puntal dels Moros",
        "natural": "peak",
        "source": "Instituto Geográfico Nacional",
        "source:date": "201011"
      },
      "geometry": {
        "type": "Point",
        "coordinates": [
          -0.3988744,
          39.6591109
        ]
      },
      "id": "node/1243404890"
    },
    {
      "type": "Feature",
      "properties": {
        "@id": "node/1243405487",
        "alt_name": "Puig de Pasqües",
        "ele": "58",
        "name": "el Cabeçolet de Morvedre",
        "name:ca": "el Cabeçolet de Morvedre",
        "natural": "peak",
        "source": "Instituto Geográfico Nacional",
        "source:date": "201011"
      },
      "geometry": {
        "type": "Point",
        "coordinates": [
          -0.2584699,
          39.7107844
        ]
      },
      "id": "node/1243405487"
    },
    {
      "type": "Feature",
      "properties": {
        "@id": "node/1243406099",
        "ele": "552",
        "name": "Ceja de las Cañadillas",
        "natural": "peak",
        "source": "Instituto Geográfico Nacional",
        "source:date": "201011"
      },
      "geometry": {
        "type": "Point",
        "coordinates": [
          -0.873523,
          39.3679235
        ]
      },
      "id": "node/1243406099"
    },
    {
      "type": "Feature",
      "properties": {
        "@id": "node/1243406958",
        "ele": "653",
        "name": "Puntal de la Noria",
        "natural": "peak",
        "source": "Instituto Geográfico Nacional",
        "source:date": "201011"
      },
      "geometry": {
        "type": "Point",
        "coordinates": [
          -0.8695327,
          39.3611471
        ]
      },
      "id": "node/1243406958"
    },
    {
      "type": "Feature",
      "properties": {
        "@id": "node/1243407763",
        "ele": "1004",
        "name": "Monte Chico",
        "natural": "peak",
        "source": "Instituto Geográfico Nacional",
        "source:date": "201011"
      },
      "geometry": {
        "type": "Point",
        "coordinates": [
          -1.1182286,
          39.0282937
        ]
      },
      "id": "node/1243407763"
    },
    {
      "type": "Feature",
      "properties": {
        "@id": "node/1243409018",
        "ele": "459",
        "name": "Los Castillejos",
        "natural": "peak",
        "source": "Instituto Geográfico Nacional",
        "source:date": "201011"
      },
      "geometry": {
        "type": "Point",
        "coordinates": [
          -0.8116248,
          39.3740418
        ]
      },
      "id": "node/1243409018"
    },
    {
      "type": "Feature",
      "properties": {
        "@id": "node/1243409969",
        "ele": "261",
        "name": "Alt de la Rodana",
        "natural": "peak",
        "source": "Instituto Geográfico Nacional",
        "source:date": "201011"
      },
      "geometry": {
        "type": "Point",
        "coordinates": [
          -0.2901479,
          39.7161708
        ]
      },
      "id": "node/1243409969"
    },
    {
      "type": "Feature",
      "properties": {
        "@id": "node/1243410107",
        "ele": "398",
        "name": "el Palleràs",
        "natural": "peak",
        "source": "Instituto Geográfico Nacional",
        "source:date": "201011"
      },
      "geometry": {
        "type": "Point",
        "coordinates": [
          -0.343858,
          39.6496664
        ]
      },
      "id": "node/1243410107"
    },
    {
      "type": "Feature",
      "properties": {
        "@id": "node/1243410398",
        "ele": "803",
        "name": "Pico del Royo",
        "natural": "peak",
        "source": "Instituto Geográfico Nacional",
        "source:date": "201011"
      },
      "geometry": {
        "type": "Point",
        "coordinates": [
          -0.9877027,
          39.2078771
        ]
      },
      "id": "node/1243410398"
    },
    {
      "type": "Feature",
      "properties": {
        "@id": "node/1243410609",
        "ele": "841",
        "name": "Puntal de la Torrecilla",
        "natural": "peak",
        "source": "Instituto Geográfico Nacional"
      },
      "geometry": {
        "type": "Point",
        "coordinates": [
          -0.9358621,
          39.7895561
        ]
      },
      "id": "node/1243410609"
    },
    {
      "type": "Feature",
      "properties": {
        "@id": "node/1243410928",
        "ele": "789",
        "name": "Alto de los Cuchillos",
        "natural": "peak"
      },
      "geometry": {
        "type": "Point",
        "coordinates": [
          -0.691275,
          39.2634768
        ]
      },
      "id": "node/1243410928"
    },
    {
      "type": "Feature",
      "properties": {
        "@id": "node/1243410938",
        "ele": "390",
        "name": "Penya Blanca",
        "name:ca": "Penya Blanca",
        "natural": "peak"
      },
      "geometry": {
        "type": "Point",
        "coordinates": [
          -0.5102447,
          39.6981495
        ]
      },
      "id": "node/1243410938"
    },
    {
      "type": "Feature",
      "properties": {
        "@id": "node/1243411186",
        "alt_name": "Penya de Sant Dídac",
        "ele": "388",
        "name": "Penya de Sant Diego",
        "name:ca": "Penya de Sant Diego",
        "natural": "peak",
        "source": "Acadènmia Valenciana de la Llengua"
      },
      "geometry": {
        "type": "Point",
        "coordinates": [
          -0.5466913,
          38.9713989
        ]
      },
      "id": "node/1243411186"
    },
    {
      "type": "Feature",
      "properties": {
        "@id": "node/1243411390",
        "ele": "989",
        "name": "Peñón del Moro",
        "natural": "peak",
        "source": "Instituto Geográfico Nacional",
        "source:date": "201011"
      },
      "geometry": {
        "type": "Point",
        "coordinates": [
          -1.1326762,
          39.0372919
        ]
      },
      "id": "node/1243411390"
    },
    {
      "type": "Feature",
      "properties": {
        "@id": "node/1243411659",
        "ele": "1027",
        "name": "Pino Alto",
        "natural": "peak",
        "source": "Instituto Geográfico Nacional",
        "source:date": "201011"
      },
      "geometry": {
        "type": "Point",
        "coordinates": [
          -0.9736193,
          39.126158
        ]
      },
      "id": "node/1243411659"
    },
    {
      "type": "Feature",
      "properties": {
        "@id": "node/1243412148",
        "alt_name": "Puntal del Ontinar",
        "ele": "1139",
        "name": "Puntal del Pedregoso",
        "natural": "peak",
        "source": "Instituto Geográfico Nacional;Acadèmia Valenciana de la Llengua"
      },
      "geometry": {
        "type": "Point",
        "coordinates": [
          -0.7672525,
          39.8249406
        ]
      },
      "id": "node/1243412148"
    },
    {
      "type": "Feature",
      "properties": {
        "@id": "node/1243412275",
        "ele": "522",
        "name": "Alto de Alcance",
        "natural": "peak",
        "source": "Instituto Geográfico Nacional"
      },
      "geometry": {
        "type": "Point",
        "coordinates": [
          -1.0881589,
          39.2577313
        ]
      },
      "id": "node/1243412275"
    },
    {
      "type": "Feature",
      "properties": {
        "@id": "node/1243412875",
        "ele": "485",
        "name": "Muntanya de la Palomara",
        "natural": "peak"
      },
      "geometry": {
        "type": "Point",
        "coordinates": [
          -0.3481911,
          39.0374932
        ]
      },
      "id": "node/1243412875"
    },
    {
      "type": "Feature",
      "properties": {
        "@id": "node/1243412914",
        "ele": "684",
        "name": "Cerro de los Bolos",
        "natural": "peak",
        "source": "Instituto Geográfico Nacional"
      },
      "geometry": {
        "type": "Point",
        "coordinates": [
          -0.8121255,
          39.7796042
        ]
      },
      "id": "node/1243412914"
    },
    {
      "type": "Feature",
      "properties": {
        "@id": "node/1243413216",
        "ele": "771",
        "name": "Loma del Gallo",
        "natural": "peak",
        "source": "Instituto Geográfico Nacional",
        "source:date": "201011"
      },
      "geometry": {
        "type": "Point",
        "coordinates": [
          -0.9459354,
          39.3453535
        ]
      },
      "id": "node/1243413216"
    },
    {
      "type": "Feature",
      "properties": {
        "@id": "node/1243414010",
        "ele": "961",
        "name": "Alto de la La Canaleja",
        "natural": "peak",
        "source": "Instituto Geográfico Nacional",
        "source:date": "201011"
      },
      "geometry": {
        "type": "Point",
        "coordinates": [
          -0.9315945,
          39.1690821
        ]
      },
      "id": "node/1243414010"
    },
    {
      "type": "Feature",
      "properties": {
        "@id": "node/1243414219",
        "ele": "611",
        "name": "Alto de la Palmosa",
        "natural": "peak",
        "source": "Instituto Geográfico Nacional"
      },
      "geometry": {
        "type": "Point",
        "coordinates": [
          -0.5787702,
          39.7524748
        ]
      },
      "id": "node/1243414219"
    },
    {
      "type": "Feature",
      "properties": {
        "@id": "node/1243414794",
        "ele": "418",
        "name": "Alto de la Fuentecha",
        "natural": "peak",
        "source": "Instituto Geográfico Nacional",
        "source:date": "201011"
      },
      "geometry": {
        "type": "Point",
        "coordinates": [
          -0.8307289,
          39.2833233
        ]
      },
      "id": "node/1243414794"
    },
    {
      "type": "Feature",
      "properties": {
        "@id": "node/1243414806",
        "ele": "1276",
        "name": "Cerro de Andilla",
        "natural": "peak",
        "source": "Instituto Geográfico Nacional"
      },
      "geometry": {
        "type": "Point",
        "coordinates": [
          -0.7715706,
          39.8476503
        ]
      },
      "id": "node/1243414806"
    },
    {
      "type": "Feature",
      "properties": {
        "@id": "node/1243415148",
        "ele": "588",
        "name": "Alto del Madroñal",
        "natural": "peak",
        "source": "Instituto Geográfico Nacional",
        "source:date": "201011"
      },
      "geometry": {
        "type": "Point",
        "coordinates": [
          -0.8093579,
          39.2808764
        ]
      },
      "id": "node/1243415148"
    },
    {
      "type": "Feature",
      "properties": {
        "@id": "node/1243415181",
        "ele": "332",
        "name": "Penya Negra",
        "name:ca": "Penya Negra",
        "natural": "peak",
        "source": "Instituto Geográfico Nacional"
      },
      "geometry": {
        "type": "Point",
        "coordinates": [
          -0.315455,
          39.7284776
        ]
      },
      "id": "node/1243415181"
    },
    {
      "type": "Feature",
      "properties": {
        "@id": "node/1243415380",
        "ele": "432",
        "name": "les Penyes",
        "name:ca": "les Penyes",
        "natural": "peak"
      },
      "geometry": {
        "type": "Point",
        "coordinates": [
          -0.1704966,
          38.8800073
        ]
      },
      "id": "node/1243415380"
    },
    {
      "type": "Feature",
      "properties": {
        "@id": "node/1243415447",
        "ele": "365",
        "name": "Peña Micaela",
        "natural": "peak",
        "source": "Instituto Geográfico Nacional",
        "source:date": "201011"
      },
      "geometry": {
        "type": "Point",
        "coordinates": [
          -0.8027112,
          39.3740282
        ]
      },
      "id": "node/1243415447"
    },
    {
      "type": "Feature",
      "properties": {
        "@id": "node/1243415848",
        "ele": "568",
        "name": "El Peñón",
        "natural": "peak",
        "source": "Instituto Geográfico Nacional",
        "source:date": "201011"
      },
      "geometry": {
        "type": "Point",
        "coordinates": [
          -0.9242249,
          39.3712747
        ]
      },
      "id": "node/1243415848"
    },
    {
      "type": "Feature",
      "properties": {
        "@id": "node/1243415854",
        "ele": "738",
        "name": "Puntalón del Collado de los Carros",
        "natural": "peak",
        "source": "Instituto Geográfico Nacional",
        "source:date": "201011"
      },
      "geometry": {
        "type": "Point",
        "coordinates": [
          -0.9117977,
          39.3108394
        ]
      },
      "id": "node/1243415854"
    },
    {
      "type": "Feature",
      "properties": {
        "@id": "node/1243415880",
        "ele": "522",
        "name": "Morrón del Poniente",
        "natural": "peak",
        "source": "Instituto Geográfico Nacional",
        "source:date": "201011"
      },
      "geometry": {
        "type": "Point",
        "coordinates": [
          -0.7287708,
          39.2175623
        ]
      },
      "id": "node/1243415880"
    },
    {
      "type": "Feature",
      "properties": {
        "@id": "node/1243417204",
        "ele": "606",
        "name": "Cerro de los Cuchillos",
        "natural": "peak",
        "source": "Instituto Geográfico Nacional",
        "source:date": "201011"
      },
      "geometry": {
        "type": "Point",
        "coordinates": [
          -1.0729272,
          39.1060183
        ]
      },
      "id": "node/1243417204"
    },
    {
      "type": "Feature",
      "properties": {
        "@id": "node/1243417723",
        "ele": "894",
        "name": "Pico de Alcola",
        "natural": "peak",
        "source": "Instituto Geográfico Nacional",
        "source:date": "201011"
      },
      "geometry": {
        "type": "Point",
        "coordinates": [
          -1.0134119,
          39.1765673
        ]
      },
      "id": "node/1243417723"
    },
    {
      "type": "Feature",
      "properties": {
        "@id": "node/1243418585",
        "ele": "624",
        "name": "Pico de la Cobertera",
        "natural": "peak",
        "source": "Instituto Geográfico Nacional;Acadèmia Valenciana de la Llengua"
      },
      "geometry": {
        "type": "Point",
        "coordinates": [
          -0.7685445,
          39.25956
        ]
      },
      "id": "node/1243418585"
    },
    {
      "type": "Feature",
      "properties": {
        "@id": "node/1243418635",
        "ele": "1123",
        "name": "Pico Colorado",
        "natural": "peak",
        "source": "Instituto Geográfico Nacional",
        "source:date": "201011"
      },
      "geometry": {
        "type": "Point",
        "coordinates": [
          -1.2289858,
          39.1091455
        ]
      },
      "id": "node/1243418635"
    },
    {
      "type": "Feature",
      "properties": {
        "@id": "node/1243418734",
        "ele": "452",
        "name": "Pic de l'Àguila",
        "name:ca": "Pic de l'Àguila",
        "name:es": "Pico del Águila",
        "natural": "peak"
      },
      "geometry": {
        "type": "Point",
        "coordinates": [
          -0.3611245,
          39.6681345
        ]
      },
      "id": "node/1243418734"
    },
    {
      "type": "Feature",
      "properties": {
        "@id": "node/1243418812",
        "ele": "760",
        "name": "Alto de Juanazo",
        "natural": "peak",
        "source": "Instituto Geográfico Nacional",
        "source:date": "201011"
      },
      "geometry": {
        "type": "Point",
        "coordinates": [
          -0.8759325,
          39.2604528
        ]
      },
      "id": "node/1243418812"
    },
    {
      "type": "Feature",
      "properties": {
        "@id": "node/1243418928",
        "ele": "756",
        "name": "Realto de la Jimena",
        "natural": "peak",
        "source": "Instituto Geográfico Nacional",
        "source:date": "201011"
      },
      "geometry": {
        "type": "Point",
        "coordinates": [
          -0.8429641,
          39.2428128
        ]
      },
      "id": "node/1243418928"
    },
    {
      "type": "Feature",
      "properties": {
        "@id": "node/1243419862",
        "ele": "964",
        "name": "Morro del Porc",
        "name:ca": "Morro del Porc",
        "natural": "peak",
        "source": "Acadèmia Valenciana de la Llengua"
      },
      "geometry": {
        "type": "Point",
        "coordinates": [
          -0.6307292,
          38.7338635
        ]
      },
      "id": "node/1243419862"
    },
    {
      "type": "Feature",
      "properties": {
        "@id": "node/1243420513",
        "ele": "1249",
        "name": "Cerro de la Pacheca",
        "natural": "peak",
        "source": "Instituto Geográfico Nacional;Acadèmia Valenciana de la Llengua"
      },
      "geometry": {
        "type": "Point",
        "coordinates": [
          -1.0561805,
          39.9060022
        ]
      },
      "id": "node/1243420513"
    },
    {
      "type": "Feature",
      "properties": {
        "@id": "node/1243421400",
        "ele": "251",
        "name": "Puntal de l'Assut",
        "name:ca": "Puntal de l'Assut",
        "name:es": "Puntal del Azud",
        "natural": "peak"
      },
      "geometry": {
        "type": "Point",
        "coordinates": [
          -0.6487352,
          39.3520471
        ]
      },
      "id": "node/1243421400"
    },
    {
      "type": "Feature",
      "properties": {
        "@id": "node/1243421560",
        "ele": "1004",
        "name": "Navajo Puerta",
        "natural": "peak",
        "source": "Instituto Geográfico Nacional"
      },
      "geometry": {
        "type": "Point",
        "coordinates": [
          -0.6802744,
          39.8418946
        ]
      },
      "id": "node/1243421560"
    },
    {
      "type": "Feature",
      "properties": {
        "@id": "node/1243421715",
        "alt_name": "Puntal del Reixó",
        "ele": "508",
        "name": "el Reixo",
        "name:ca": "el Reixo",
        "natural": "peak",
        "source": "Instituto Geográfico Nacional",
        "source:date": "201011"
      },
      "geometry": {
        "type": "Point",
        "coordinates": [
          -0.4530378,
          39.6731834
        ]
      },
      "id": "node/1243421715"
    },
    {
      "type": "Feature",
      "properties": {
        "@id": "node/1243422170",
        "ele": "795",
        "name": "Puntal de Marta",
        "natural": "peak",
        "source": "Instituto Geográfico Nacional"
      },
      "geometry": {
        "type": "Point",
        "coordinates": [
          -1.142848,
          39.2591188
        ]
      },
      "id": "node/1243422170"
    },
    {
      "type": "Feature",
      "properties": {
        "@id": "node/1243422175",
        "ele": "451",
        "name": "Picaio de Calbet",
        "natural": "peak"
      },
      "geometry": {
        "type": "Point",
        "coordinates": [
          -0.4005064,
          39.7385498
        ]
      },
      "id": "node/1243422175"
    },
    {
      "type": "Feature",
      "properties": {
        "@id": "node/1243422326",
        "ele": "492",
        "name": "Tossal de Perruca",
        "name:ca": "Tossal de Perruca",
        "natural": "peak",
        "source": "Instituto Geográfico Nacional"
      },
      "geometry": {
        "type": "Point",
        "coordinates": [
          -0.3869351,
          39.7071459
        ]
      },
      "id": "node/1243422326"
    },
    {
      "type": "Feature",
      "properties": {
        "@id": "node/1243422631",
        "name": "Muntanya de la Frontera",
        "name:ca": "Muntanya de la Frontera",
        "natural": "peak",
        "source": "Instituto Geográfico Nacional",
        "source:date": "201011"
      },
      "geometry": {
        "type": "Point",
        "coordinates": [
          -0.282641,
          39.7667232
        ]
      },
      "id": "node/1243422631"
    },
    {
      "type": "Feature",
      "properties": {
        "@id": "node/1243422844",
        "ele": "837",
        "name": "Alto del Francho",
        "natural": "peak",
        "source": "Instituto Geográfico Nacional",
        "source:date": "201011"
      },
      "geometry": {
        "type": "Point",
        "coordinates": [
          -0.9932739,
          39.2233453
        ]
      },
      "id": "node/1243422844"
    },
    {
      "type": "Feature",
      "properties": {
        "@id": "node/1243422884",
        "ele": "304",
        "name": "La Montaña",
        "natural": "peak"
      },
      "geometry": {
        "type": "Point",
        "coordinates": [
          -0.6165604,
          39.1420217
        ]
      },
      "id": "node/1243422884"
    },
    {
      "type": "Feature",
      "properties": {
        "@id": "node/1243423015",
        "ele": "707",
        "name": "Morrico de Perico",
        "natural": "peak",
        "source": "Instituto Geográfico Nacional"
      },
      "geometry": {
        "type": "Point",
        "coordinates": [
          -1.0998043,
          39.299505
        ]
      },
      "id": "node/1243423015"
    },
    {
      "type": "Feature",
      "properties": {
        "@id": "node/1243423100",
        "ele": "857",
        "name": "Puntal Blanco",
        "natural": "peak",
        "source": "Instituto Geográfico Nacional",
        "source:date": "201011"
      },
      "geometry": {
        "type": "Point",
        "coordinates": [
          -0.9810233,
          39.0750756
        ]
      },
      "id": "node/1243423100"
    },
    {
      "type": "Feature",
      "properties": {
        "@id": "node/1243423116",
        "ele": "679",
        "name": "Alt de la Selleta",
        "name:ca": "Alt de la Selleta",
        "natural": "peak",
        "source": "Instituto Geográfico Nacional",
        "source:date": "201011"
      },
      "geometry": {
        "type": "Point",
        "coordinates": [
          -0.2843347,
          38.9917611
        ]
      },
      "id": "node/1243423116"
    },
    {
      "type": "Feature",
      "properties": {
        "@id": "node/1243423123",
        "ele": "720",
        "name": "Puntal de Vives",
        "natural": "peak",
        "source": "Instituto Geográfico Nacional"
      },
      "geometry": {
        "type": "Point",
        "coordinates": [
          -1.1186987,
          39.2634493
        ]
      },
      "id": "node/1243423123"
    },
    {
      "type": "Feature",
      "properties": {
        "@id": "node/1243423594",
        "ele": "374",
        "name": "Puntal Blanc",
        "name:ca": "Puntal Blanc",
        "natural": "peak"
      },
      "geometry": {
        "type": "Point",
        "coordinates": [
          -0.5119889,
          39.6844401
        ]
      },
      "id": "node/1243423594"
    },
    {
      "type": "Feature",
      "properties": {
        "@id": "node/1243424046",
        "ele": "552",
        "name": "El Puntal",
        "natural": "peak",
        "source": "Instituto Geográfico Nacional"
      },
      "geometry": {
        "type": "Point",
        "coordinates": [
          -1.1053513,
          39.2509833
        ]
      },
      "id": "node/1243424046"
    },
    {
      "type": "Feature",
      "properties": {
        "@id": "node/1243424546",
        "ele": "404",
        "name": "Los Pilaricos",
        "natural": "peak"
      },
      "geometry": {
        "type": "Point",
        "coordinates": [
          -1.0874394,
          39.2417049
        ]
      },
      "id": "node/1243424546"
    },
    {
      "type": "Feature",
      "properties": {
        "@id": "node/1243424924",
        "ele": "939",
        "name": "Cerro Calvo",
        "natural": "peak",
        "source": "Instituto Geográfico Nacional",
        "source:date": "201011",
        "source:name": "Acadèmia Valenciana de la Llengua"
      },
      "geometry": {
        "type": "Point",
        "coordinates": [
          -0.9983711,
          39.649139
        ]
      },
      "id": "node/1243424924"
    },
    {
      "type": "Feature",
      "properties": {
        "@id": "node/1243425069",
        "ele": "914",
        "name": "Puntalillo de Elorza",
        "natural": "peak",
        "source": "Instituto Geográfico Nacional"
      },
      "geometry": {
        "type": "Point",
        "coordinates": [
          -0.8935929,
          39.7939422
        ]
      },
      "id": "node/1243425069"
    },
    {
      "type": "Feature",
      "properties": {
        "@id": "node/1243425573",
        "ele": "607",
        "name": "Puntal de Belata",
        "name:ca": "Puntal de Belata",
        "natural": "peak",
        "source": "Instituto Geográfico Nacional",
        "source:date": "201011"
      },
      "geometry": {
        "type": "Point",
        "coordinates": [
          -0.51537,
          39.7218281
        ]
      },
      "id": "node/1243425573"
    },
    {
      "type": "Feature",
      "properties": {
        "@id": "node/1243425947",
        "ele": "537",
        "name": "Puntal del Salt",
        "name:ca": "Puntal del Salt",
        "natural": "peak",
        "source:date": "201011"
      },
      "geometry": {
        "type": "Point",
        "coordinates": [
          -0.3930675,
          39.6749441
        ]
      },
      "id": "node/1243425947"
    },
    {
      "type": "Feature",
      "properties": {
        "@id": "node/1243426028",
        "ele": "262",
        "name": "Alt de Sumacàrcer",
        "name:ca": "Alt de Sumacàrcer",
        "natural": "peak",
        "source": "Instituto Geográfico Nacional",
        "source:date": "201011"
      },
      "geometry": {
        "type": "Point",
        "coordinates": [
          -0.6531008,
          39.1039414
        ]
      },
      "id": "node/1243426028"
    },
    {
      "type": "Feature",
      "properties": {
        "@id": "node/1243426239",
        "ele": "857",
        "name": "Alto de la Calera",
        "natural": "peak",
        "source": "Instituto Geográfico Nacional"
      },
      "geometry": {
        "type": "Point",
        "coordinates": [
          -0.5323703,
          39.7651599
        ]
      },
      "id": "node/1243426239"
    },
    {
      "type": "Feature",
      "properties": {
        "@id": "node/1243427406",
        "ele": "1147",
        "name": "Cerro del Rumbo",
        "natural": "peak",
        "source": "Instituto Geográfico Nacional"
      },
      "geometry": {
        "type": "Point",
        "coordinates": [
          -0.8028893,
          39.8586538
        ]
      },
      "id": "node/1243427406"
    },
    {
      "type": "Feature",
      "properties": {
        "@id": "node/1243430358",
        "ele": "717",
        "name": "l'Alt del Pi",
        "natural": "peak",
        "source": "Instituto Geográfico Nacional",
        "source:date": "201011",
        "website": "https://www.altimetrias.net/aspbk/verPerfilusu.asp?id=478"
      },
      "geometry": {
        "type": "Point",
        "coordinates": [
          -0.3997787,
          39.691098
        ]
      },
      "id": "node/1243430358"
    },
    {
      "type": "Feature",
      "properties": {
        "@id": "node/1243431019",
        "ele": "470",
        "name": "Puntal de Mateu",
        "name:ca": "Puntal de Mateu",
        "natural": "peak",
        "source": "Instituto Geográfico Nacional",
        "source:date": "201011"
      },
      "geometry": {
        "type": "Point",
        "coordinates": [
          -0.40767,
          39.6634704
        ]
      },
      "id": "node/1243431019"
    },
    {
      "type": "Feature",
      "properties": {
        "@id": "node/1243432063",
        "ele": "679",
        "name": "Cerro del Ahorcado",
        "natural": "peak",
        "source": "Instituto Geográfico Nacional"
      },
      "geometry": {
        "type": "Point",
        "coordinates": [
          -1.0827206,
          39.2705896
        ]
      },
      "id": "node/1243432063"
    },
    {
      "type": "Feature",
      "properties": {
        "@id": "node/1243433452",
        "ele": "591",
        "name": "El Puntal",
        "natural": "peak",
        "source": "Instituto Geográfico Nacional"
      },
      "geometry": {
        "type": "Point",
        "coordinates": [
          -1.0835142,
          39.1634625
        ]
      },
      "id": "node/1243433452"
    },
    {
      "type": "Feature",
      "properties": {
        "@id": "node/1243433669",
        "ele": "994",
        "name": "Cerro Alto",
        "natural": "peak",
        "source": "Instituto Geográfico Nacional",
        "source:date": "201011"
      },
      "geometry": {
        "type": "Point",
        "coordinates": [
          -0.9586974,
          39.1726821
        ]
      },
      "id": "node/1243433669"
    },
    {
      "type": "Feature",
      "properties": {
        "@id": "node/1243433880",
        "ele": "801",
        "name": "Loma del Puzol",
        "natural": "peak",
        "source": "Instituto Geográfico Nacional"
      },
      "geometry": {
        "type": "Point",
        "coordinates": [
          -1.1304411,
          39.2291045
        ]
      },
      "id": "node/1243433880"
    },
    {
      "type": "Feature",
      "properties": {
        "@id": "node/1243434467",
        "ele": "708",
        "name": "Realto de la Cueva Agujereada",
        "natural": "peak",
        "source": "Instituto Geográfico Nacional",
        "source:date": "201011"
      },
      "geometry": {
        "type": "Point",
        "coordinates": [
          -0.8512516,
          39.2152618
        ]
      },
      "id": "node/1243434467"
    },
    {
      "type": "Feature",
      "properties": {
        "@id": "node/1243434683",
        "ele": "1282",
        "name": "Loma del Torcal",
        "natural": "peak",
        "source": "Instituto Geográfico Nacional"
      },
      "geometry": {
        "type": "Point",
        "coordinates": [
          -0.7706006,
          39.8385746
        ]
      },
      "id": "node/1243434683"
    },
    {
      "type": "Feature",
      "properties": {
        "@id": "node/1243435936",
        "ele": "251",
        "name": "Muntanya de Rúbio",
        "name:ca": "Muntanya de Rúbio",
        "natural": "peak",
        "source": "Instituto Geográfico Nacional",
        "source:date": "201011"
      },
      "geometry": {
        "type": "Point",
        "coordinates": [
          -0.3244605,
          39.7420301
        ]
      },
      "id": "node/1243435936"
    },
    {
      "type": "Feature",
      "properties": {
        "@id": "node/1243436872",
        "ele": "622",
        "name": "Cerro del Cinto Liso",
        "natural": "peak",
        "source": "Instituto Geográfico Nacional",
        "source:date": "201011"
      },
      "geometry": {
        "type": "Point",
        "coordinates": [
          -1.1278106,
          39.3243083
        ]
      },
      "id": "node/1243436872"
    },
    {
      "type": "Feature",
      "properties": {
        "@id": "node/1243438176",
        "ele": "1203",
        "name": "Puntal de Tortosilla",
        "natural": "peak",
        "source": "Instituto Geográfico Nacional",
        "source:date": "201011"
      },
      "geometry": {
        "type": "Point",
        "coordinates": [
          -1.2198156,
          39.0299951
        ]
      },
      "id": "node/1243438176"
    },
    {
      "type": "Feature",
      "properties": {
        "@id": "node/1243438757",
        "ele": "819",
        "name": "Puntal de la Pedrosa",
        "natural": "peak",
        "source": "Instituto Geográfico Nacional"
      },
      "geometry": {
        "type": "Point",
        "coordinates": [
          -0.6702519,
          39.775663
        ]
      },
      "id": "node/1243438757"
    },
    {
      "type": "Feature",
      "properties": {
        "@id": "node/1243439660",
        "ele": "769",
        "name": "Realto de las Caercas",
        "natural": "peak",
        "source": "Instituto Geográfico Nacional",
        "source:date": "201011"
      },
      "geometry": {
        "type": "Point",
        "coordinates": [
          -0.8702828,
          39.2133871
        ]
      },
      "id": "node/1243439660"
    },
    {
      "type": "Feature",
      "properties": {
        "@id": "node/1243439684",
        "ele": "440",
        "name": "Peñón de Salinas",
        "natural": "peak",
        "source": "Instituto Geográfico Nacional",
        "source:date": "201011"
      },
      "geometry": {
        "type": "Point",
        "coordinates": [
          -1.0614085,
          39.1928691
        ]
      },
      "id": "node/1243439684"
    },
    {
      "type": "Feature",
      "properties": {
        "@id": "node/1243439688",
        "ele": "1065",
        "name": "Cerro Rincón del Peñón del Moro",
        "natural": "peak",
        "source": "Instituto Geográfico Nacional",
        "source:date": "201011"
      },
      "geometry": {
        "type": "Point",
        "coordinates": [
          -1.1309841,
          39.0452612
        ]
      },
      "id": "node/1243439688"
    },
    {
      "type": "Feature",
      "properties": {
        "@id": "node/1243440041",
        "ele": "753",
        "name": "Puntal de la Castellana",
        "natural": "peak",
        "source": "Instituto Geográfico Nacional"
      },
      "geometry": {
        "type": "Point",
        "coordinates": [
          -0.9765457,
          39.405496
        ]
      },
      "id": "node/1243440041"
    },
    {
      "type": "Feature",
      "properties": {
        "@id": "node/1243440192",
        "ele": "386",
        "name": "Morra del Gallo",
        "natural": "peak"
      },
      "geometry": {
        "type": "Point",
        "coordinates": [
          -0.7937006,
          39.2697687
        ]
      },
      "id": "node/1243440192"
    },
    {
      "type": "Feature",
      "properties": {
        "@id": "node/1243440603",
        "ele": "891",
        "name": "Pico del Choto",
        "natural": "peak",
        "source": "Instituto Geográfico Nacional",
        "source:date": "201011"
      },
      "geometry": {
        "type": "Point",
        "coordinates": [
          -0.9689952,
          39.1372778
        ]
      },
      "id": "node/1243440603"
    },
    {
      "type": "Feature",
      "properties": {
        "@id": "node/1243440718",
        "ele": "732",
        "name": "Alto Mas del Solaz",
        "natural": "peak",
        "source": "Instituto Geográfico Nacional"
      },
      "geometry": {
        "type": "Point",
        "coordinates": [
          -0.9531494,
          39.7533871
        ]
      },
      "id": "node/1243440718"
    },
    {
      "type": "Feature",
      "properties": {
        "@id": "node/1243440780",
        "ele": "1129",
        "name": "Peña del Aljibe",
        "natural": "peak",
        "source": "Instituto Geográfico Nacional"
      },
      "geometry": {
        "type": "Point",
        "coordinates": [
          -0.7088445,
          39.8243352
        ]
      },
      "id": "node/1243440780"
    },
    {
      "type": "Feature",
      "properties": {
        "@id": "node/1243440886",
        "ele": "829",
        "name": "Alt dels Palaus",
        "natural": "peak"
      },
      "geometry": {
        "type": "Point",
        "coordinates": [
          -0.8498708,
          38.861027
        ]
      },
      "id": "node/1243440886"
    },
    {
      "type": "Feature",
      "properties": {
        "@id": "node/1243440970",
        "alt_name": "Mont Blanc",
        "ele": "425",
        "name": "el Xocainet d'Albalat",
        "natural": "peak"
      },
      "geometry": {
        "type": "Point",
        "coordinates": [
          -0.3616635,
          39.6767553
        ]
      },
      "id": "node/1243440970"
    },
    {
      "type": "Feature",
      "properties": {
        "@id": "node/1243441440",
        "ele": "755",
        "name": "Realto de las Doncellas",
        "natural": "peak",
        "source": "Instituto Geográfico Nacional",
        "source:date": "201011"
      },
      "geometry": {
        "type": "Point",
        "coordinates": [
          -0.8370671,
          39.2407142
        ]
      },
      "id": "node/1243441440"
    },
    {
      "type": "Feature",
      "properties": {
        "@id": "node/1243441586",
        "name": "El Cerro",
        "natural": "peak"
      },
      "geometry": {
        "type": "Point",
        "coordinates": [
          -1.0362767,
          39.313488
        ]
      },
      "id": "node/1243441586"
    },
    {
      "type": "Feature",
      "properties": {
        "@id": "node/1243442058",
        "ele": "621",
        "name": "Pico del Carrascal",
        "natural": "peak",
        "source": "Instituto Geográfico Nacional",
        "source:date": "201011"
      },
      "geometry": {
        "type": "Point",
        "coordinates": [
          -1.0003591,
          39.2288002
        ]
      },
      "id": "node/1243442058"
    },
    {
      "type": "Feature",
      "properties": {
        "@id": "node/1243442149",
        "ele": "929",
        "name": "Pico de los Tres Mojones",
        "natural": "peak",
        "source": "Instituto Geográfico Nacional",
        "source:date": "201011"
      },
      "geometry": {
        "type": "Point",
        "coordinates": [
          -0.9829274,
          39.3364807
        ]
      },
      "id": "node/1243442149"
    },
    {
      "type": "Feature",
      "properties": {
        "@id": "node/1243442791",
        "ele": "817",
        "name": "Puntal del Navajo Royo",
        "natural": "peak",
        "source": "Instituto Geográfico Nacional"
      },
      "geometry": {
        "type": "Point",
        "coordinates": [
          -0.6537744,
          39.7679304
        ]
      },
      "id": "node/1243442791"
    },
    {
      "type": "Feature",
      "properties": {
        "@id": "node/1243442805",
        "ele": "836",
        "name": "Alt de la Creu",
        "name:ca": "Alt de la Creu",
        "natural": "peak",
        "source": "Instituto Geográfico Nacional"
      },
      "geometry": {
        "type": "Point",
        "coordinates": [
          -0.7426136,
          38.8267999
        ]
      },
      "id": "node/1243442805"
    },
    {
      "type": "Feature",
      "properties": {
        "@id": "node/1243443196",
        "ele": "524",
        "name": "Puntal de Zolo",
        "natural": "peak",
        "source": "Instituto Geográfico Nacional",
        "source:date": "201011"
      },
      "geometry": {
        "type": "Point",
        "coordinates": [
          -0.9875697,
          39.2470115
        ]
      },
      "id": "node/1243443196"
    },
    {
      "type": "Feature",
      "properties": {
        "@id": "node/1243445051",
        "ele": "1261",
        "name": "Cerro de Palomeras",
        "natural": "peak",
        "source": "Instituto Geográfico Nacional",
        "source:date": "201011"
      },
      "geometry": {
        "type": "Point",
        "coordinates": [
          -1.212481,
          39.0695966
        ]
      },
      "id": "node/1243445051"
    },
    {
      "type": "Feature",
      "properties": {
        "@id": "node/1243445108",
        "ele": "749",
        "name": "Loma de Malén",
        "natural": "peak"
      },
      "geometry": {
        "type": "Point",
        "coordinates": [
          -0.9723966,
          39.5494584
        ]
      },
      "id": "node/1243445108"
    },
    {
      "type": "Feature",
      "properties": {
        "@id": "node/1243445119",
        "ele": "752",
        "name": "La Peña Escoladera",
        "natural": "peak",
        "source": "Instituto Geográfico Nacional"
      },
      "geometry": {
        "type": "Point",
        "coordinates": [
          -0.5261866,
          39.7781711
        ]
      },
      "id": "node/1243445119"
    },
    {
      "type": "Feature",
      "properties": {
        "@id": "node/1243445177",
        "ele": "734",
        "name": "Cerro de la Hoz",
        "natural": "peak",
        "source": "Instituto Geográfico Nacional"
      },
      "geometry": {
        "type": "Point",
        "coordinates": [
          -0.8179545,
          39.7597135
        ]
      },
      "id": "node/1243445177"
    },